주소,분류,응급여부,간이약도,이름,Tel,Tel_E,월close,월open,화close,화open,수close,수open,목close,목open,금close,금open,토close,토open,일close,일open,공close,공open,위도,경도
인천광역시 중구 개항로 28-1 (신포동),N,0,기업은행 대각선 맞은편 건물 3층.,윤명국치과의원,032-772-4102,,1530,1000,1530,1000,1530,1000,1530,1000,1530,1000,1200,1000,,,,,37.47178003740648,126.62563736283144
"인천광역시 중구 우현로72번길 3-4, 3층 (용동)",N,0,경동치안센터 맞은편 건물 2층.,이규원치과의원,032-766-7757,,1800,1400,1800,1400,1800,1400,1800,1400,1800,1400,1600,1400,,,,,37.47336709706548,126.63016225505851
"인천광역시 중구 흰바위로 31, 3층 (운서동)",N,0,영종주공10단지 아파트 맞은편 에어로시티 건물 3층.,이사랑치과의원,032-751-2875,,1830,1000,1830,1000,1830,1000,1830,1000,1830,1000,1500,1000,,,,,37.49275372276444,126.48845639892391
"인천광역시 중구 신도시남로 137, 3층 303,304호(운서동,화평빌딩)",N,0,"롯데마트 옆, 화평빌딩 국민은행 건물 3층 301호",이플란트치과의원,032-746-2804,,1900,1000,1900,1000,1900,1000,1900,1000,1900,1000,1500,0930,,,,,37.49376912476672,126.49011852024758
"인천광역시 중구 공항로424번길 84, 3층 (운서동)",N,0,,인하국제치과의원,032-206-1920,,1730,0900,1730,0900,1730,0900,2000,0900,1730,0900,,,,,,,37.43907824702719,126.46383615500491
인천광역시 중구 제물량로 261  (선린동),N,0,"인천역 사거리 주변, 준메디칼의원 옆 건물 3층.",전영섭치과의원,032-772-3997,,1730,1030,1730,1030,1730,1030,1730,1030,1730,1030,1430,1030,,,,,37.47504179189022,126.61739735773075
"인천광역시 중구 우현로35번길 1, 2~3층 (신포동)",N,0,답동 사거리 현대자동차 맞은편 건물 2층.,정충근치과의원,032-763-2888,,1830,0930,1830,0930,1830,0930,1830,0930,1830,0930,1230,0930,,,,,37.47045701713246,126.6275216092699
인천광역시 중구 우현로 41-1 (신포동),N,0,"신흥초교 맞은편, 동의보감 한의원 건물 3층.",최현수치과의원,032-762-2649,,1830,0930,1830,0930,1830,0930,1830,0930,1830,0930,1300,0930,,,,,37.47115126389756,126.62796019269437
"인천광역시 중구 하늘별빛로 75, 4층 (중산동)",N,0,,하늘리더스치과의원,032-751-2840,,1900,1000,2100,1000,1900,1000,2100,1000,1900,1000,1400,1000,,,,,37.48979730792528,126.56277561719253
"인천광역시 중구 하늘중앙로195번길 29, 3층 (중산동)",N,0,,하늘수치과의원,032-752-2875,,1900,1000,1900,1000,1900,1000,2100,1000,1900,1000,1400,1000,,,,,37.4889871272376,126.56285178120045
인천광역시 중구 우현로 37-1 (신포동),N,0,답동사거리 현대자동차 영업소 맞은편 2층.,허형범치과의원,032-765-2828,,1830,1000,1830,1000,1830,1000,1830,1000,1830,1000,1330,1000,,,,,37.470764784999446,126.62769080034715
인천광역시 중구 큰우물로 1 (경동),N,0,"인천기독병원 주변, 경동 산부인과 맞은편 건물 1층.",황규동치과의원,032-762-2828,,1700,0900,1700,0900,1700,0900,1700,0900,1700,0900,1200,0900,,,,,37.47203745869057,126.63156988802609
"경기도 의정부시 호국로 1188, 3층 (가능동)",N,0,,고려치과의원,031-873-0117,,1800,1030,1800,1030,1800,1030,1800,1030,1800,1030,,,,,,,37.742980555555555,127.035650000000004
"대구광역시 달성군 다사읍 달구벌대로 871, 5층",N,0,,으뜸치과의원,053-559-1119,,1830,0930,2030,0930,1830,0930,1830,0930,2030,0930,1400,0930,,,,,35.8585436271778,128.46490858189847
제주특별자치도 제주시 연북로 111 (연동),N,0,,한국건강관리협회건강증진치과의원,064-740-0342,,1630,0730,1630,0730,1630,0730,1630,0730,1630,0730,1230,0730,,,,,33.487108827001876,126.49852086209435
대전광역시 중구 계백로 1613 (유천동),N,0,현대아파트 맞은편 대원빌딩 3층,즐거운치과의원,042-531-2275,,1830,0900,1830,0900,1830,0900,2000,1400,1830,0900,1330,0900,,,,,36.31912099673895,127.39916992151399
대전광역시 중구 동서대로 1319-1 (용두동),N,0,오룡역 6번출구,성치과의원,042-221-5420,,1830,1000,1830,1000,1830,1000,1830,1000,1830,1000,1300,0930,,,,,36.329236111111108,127.405847222222221
"경상남도 창원시 성산구 대정로 31-4 (가음동, 가고파상가)",N,0,경남은행 부근,이치과의원,055-285-0889,,1830,0930,1830,0930,1830,0930,1830,0930,1830,0930,1230,0930,,,,,35.20744555786246,128.6981367683939
"경상남도 창원시 의창구 도계로 61 (도계동, 의창새마을금고)",N,0,새마을금고 부근,이튼튼치과의원,055-277-2875,,1830,0930,1830,0930,1830,0930,1830,0930,1830,0930,1300,0930,,,,,35.259170293749186,128.63811157264658
경상남도 창원시 의창구 도계로 58 (도계동),N,0,던킨도너츠 건물 2층,이편한치과의원,055-277-2479,,1830,0930,1830,0930,1830,0930,1830,0930,1830,0930,,,,,,,35.25926919515581,128.63746309816602
"경상남도 창원시 의창구 평산로 96, 웰빙프라자 2층 209호 (팔용동)",N,0,,이플치과의원,055-246-2878,,1900,1000,1900,1000,2100,1000,1900,1400,1900,1000,1230,0930,,,,,35.2516354816,128.619682666
"경상남도 창원시 의창구 평산로207번길 4, 4층 405,406호 (서상동)",N,0,,정치과의원,055-295-2804,,1800,1000,1800,1000,1800,1000,1800,1000,1800,1000,1400,1000,,,,,35.2601678395,128.6258957125
"경상남도 창원시 성산구 동산로 156, 3층 305호 (사파동, 삼익종합상가)",N,0,사파성당 부근,정치원치과의원,055-281-6639,,1830,0930,1830,0930,1830,0930,1830,1430,1830,0930,1300,0930,,,,,35.22164976298209,128.69343349548907
"경상남도 창원시 의창구 반계로 98, 3층 302,303,304호 (팔용동, 벽산블루밍아파트 상가)",N,0,벽산블루밍 부근,조은치과의원,055-252-2833,,1900,0930,1900,0930,1900,0930,1900,0930,1900,0930,1400,0930,,,,,35.25469650754271,128.61731255961521
경상남도 창원시 성산구 반송로 150 (반림동),N,0,"교통문화연수원 맞은편, 우리은행 창원반송지점 건물",좋은하루치과의원,055-275-2833,,1900,1000,1900,1000,1900,1000,2100,1400,1900,1000,1300,1000,,,,,35.23602218120483,128.67181561194477
"경상남도 창원시 의창구 동읍 용잠로 17-1, 더힐빌딩 2층",N,0,,주남치과의원,055-294-7528,,1830,0930,1830,0930,1830,0930,1830,0930,1830,0930,1230,0930,,,,,35.27908903123261,128.6862453991407
경상남도 창원시 성산구 가양로124번길 17-13 즐거운치과의원 (대방동),N,0,임마누엘교회 근처,즐거운치과의원,055-275-2884,,1900,1000,1900,1000,2100,1400,1900,1000,1900,1000,1300,1000,,,,,35.208117502149456,128.70795831539675
"경상남도 창원시 의창구 창이대로 201 (봉곡동, 수득빌딩)",N,0,지귀상가 부근,참조은치과의원,055-238-7528,,1900,0930,1900,0930,1900,0930,1900,0930,1900,0930,1330,0900,,,,,35.2450043713,128.6594462695
"경상남도 창원시 의창구 팔용로 442 (팔용동, KB빌딩)",N,0,팔용동주민센터 부근,참진치과의원,055-294-2817,,1800,1000,1800,1000,1800,1000,1800,1000,1800,1000,1300,1000,,,,,35.25571876744869,128.61382647506852
"경상남도 창원시 성산구 삼정자로43번길 2, 502호(성주동,성산빌딩)",N,0,삼정자초등학교 인근,창원유앤미치과의원,055-275-7533,,1900,0930,1900,0930,1900,0930,1900,1400,1900,0930,1400,0930,,,,,35.1982841137,128.7110420331
경상남도 창원시 성산구 동산로 124,N,0,대동백화점 옆 성원주상가,창원쥬니어치과의원,055-287-7528,,1830,1000,1830,1000,1830,1000,1830,1400,1830,1000,1400,1000,,,,,35.219370742247435,128.691593449779
"경상남도 창원시 의창구 창원천로 34, 상가동 2층 217,218,219,220호 (대원동, 대원 꿈에그린)",N,0,두대우체국 부근,창원치과의원,055-273-7870,,1830,0930,1830,0930,1830,0930,1830,0930,1830,0930,1300,0930,,,,,35.235022222222220,128.650700000000000
"경상남도 창원시 의창구 원이대로189번길 34 (명서동, 남천상가)",N,0,명서시장 내 새마을금고2층,청담치과의원,055-237-7528,,1830,0930,1830,0930,1830,0930,1830,0930,1830,0930,1230,0930,,,,,35.248975000000002,128.645849999999996
경상남도 창원시 의창구 명지로 82-4,N,0,명서시장 내,청아치과의원,055-238-0416,,1830,0930,1830,0930,1830,0930,1830,0930,1830,0930,1400,0930,,,,,35.24920998037669,128.64673012937544
"경상남도 창원시 성산구 용지로 94, 309호(중앙동,올림피아상가)",N,0,이마트 부근,최영철치과의원,055-279-0822,,1830,0930,1830,0930,1830,0930,1830,0930,1830,0930,1230,0930,,,,,35.223858333333332,128.677813888888892
"경상남도 창원시 의창구 북면 감계로110번길 54-39 (화진빌딩 302,303,304호)",N,0,,최우수치과의원,055-252-2879,,1830,0930,1830,0930,1830,0930,1830,0930,1830,0930,1400,0930,,,,,35.30155583579292,128.59555945631257
"경상남도 창원시 성산구 대정로 33 (가음동, 황금상가)",N,0,가음정시장 입구,최웅재치과의원,055-285-0777,,1830,0930,1830,0930,1830,0930,1830,1400,1830,0930,1300,0930,,,,,35.207488888888889,128.698227777777788
"경상남도 창원시 의창구 읍성로33번길 2, 2층 (북동, 장소아과의원)",N,0,동창원농협 부근,최치과의원,055-256-2875,,1830,0940,1830,0940,1830,0940,1830,1400,1830,0940,1300,0940,,,,,35.265127777777778,128.621708333333345
"경상남도 창원시 성산구 안민로117번길 16-1, 2층 (안민동)",N,0,,클린치과의원,055-289-8822,,1830,1000,1830,1000,1830,1000,1830,1000,1830,1000,1300,0900,,,,,35.1872484654,128.6900758206
경상남도 창원시 성산구 상남로 122 (상남동),N,0,롯데영프라자 맞은편,키즈라이크치과의원,055-264-2879,,1830,0930,1830,0930,1830,0930,1300,0930,1830,0930,1300,0900,,,,,35.2237157541774,128.68332840405017
"경상남도 창원시 성산구 상남로 122, 롯데메디컬 4층 (상남동)",N,0,,탄탄플란트치과의원,055-264-1212,,1830,0930,1830,0930,1830,0930,1830,0930,1830,0930,1400,0930,,,,,35.2237157542,128.6833284041
"경상남도 창원시 성산구 용지로133번길 5, 5층 (중앙동, 키다리빌딩 5층)",N,0,,특편한치과의원,055-287-9075,,1900,1000,2000,1000,1400,1000,1900,1000,2000,1000,1300,0900,,,,,35.2274563575,128.6792672049
"경상남도 창원시 성산구 동산로 124, 501호 (상남동, 성원주상가)",N,0,대동백화점 맞은편,파티마치과의원,055-275-4882,,1830,0930,2000,0930,1830,0930,1830,0930,1830,0930,1400,0930,,,,,35.21937199306102,128.69159387520716
경상남도 창원시 의창구 소계로84번길 2,N,0,구암중학교 부근,평온치과의원,055-292-2875,,1830,0930,1830,0930,1830,0930,1830,0930,1830,0930,1330,0930,,,,,35.25672354874294,128.59958863023476
"경상남도 창원시 성산구 원이대로 648 (상남동, 상남오피스텔)",N,0,하나은행옆,하나치과의원,055-261-2833,,1800,0930,1800,0930,1300,0930,1800,0930,1800,0930,1300,0930,,,,,35.224769444444448,128.684161111111109
경상남도 창원시 의창구 사림로 47 사림프라자 (사림동),N,0,봉림고등학교 앞,하늘치과의원,055-286-7528,,1830,0930,1930,0930,1830,0930,1830,0930,1830,0930,1330,0930,,,,,35.24746209341396,128.67794746741478
경상남도 창원시 성산구 동산로 108,N,0,대동백화점 부근,하얀치과의원,055-263-3668,,1730,0930,1730,0930,1730,0930,1730,0930,1730,0930,1200,0930,,,,,35.21854112097674,128.69059665941853
경상남도 창원시 성산구 동산로 162  (사파동),N,0,사파성당 부근,하이치과의원,055-263-0053,,1900,1000,1900,1000,1900,1000,1900,1000,1900,1000,1400,1000,,,,,35.2219582048502,128.69371618705736
경상남도 창원시 성산구 단정로 32 (상남동),N,0,경남은행(상남지점) 5층,하희치과의원,055-261-8875,,1900,0930,1900,0930,1900,0930,1900,0930,1900,0930,1300,0930,,,,,35.21957511245975,128.68365105591215
"경상남도 창원시 성산구 신촌로 78  (신촌동, 디에스아이존빌아파트)",N,0,웅남동 주민센터 부근,한결치과의원,055-266-7528,,1900,0930,1900,0930,1900,0930,2000,1400,1900,0930,1300,0930,,,,,35.202738594316415,128.6281233031071
"경상남도 창원시 의창구 원이대로 269, (봉곡동)",N,0,국민은행 부근,한마음치과의원,055-288-2847,,1830,0930,1830,0930,1830,0930,2000,1400,1830,0930,1300,0930,,,,,35.2432384737918,128.6497870963102
경상남도 창원시 성산구 대정로 73,N,0,개나리 2차아파트 맞은편,한맷돌치과의원,055-263-2875,,1830,0930,1830,0930,1830,0930,1830,0930,1830,0930,,,,,,,35.21079311352376,128.70098216883287
경상남도 창원시 성산구 안민로117번길 9  (안민동),N,0,안민농협 근처,한사랑치과의원,055-261-8160,,1830,0930,1830,0930,1830,0930,1830,0930,1830,0930,,,,,,,35.18674399519604,128.68946403083862
"경상남도 창원시 성산구 용지로133번길 3, 한서빌딩 9층 901호 (중앙동)",N,0,19.6.27. 한서빌딩으로 이전 함,한서치과의원,055-262-2004,,1800,0915,1900,1000,1800,0915,,,1800,0915,1300,0915,,,,,35.2283759608,128.6779417971
경상남도 창원시 의창구 우곡로217번길 36,N,0,시티세븐 부근,한솔세븐치과의원,055-238-7784,,1830,1000,1830,1000,1830,1000,1830,1000,1830,1000,1300,1000,,,,,35.24180539413792,128.65045170003924
경상남도 창원시 성산구 원이대로 716 대동메디칼 (상남동),N,0,대동백화점 옆,함께하는치과의원,055-266-0028,,1900,1000,1900,1000,1900,1000,1900,1000,1900,1000,1500,0930,,,,,35.221009510478865,128.6901470220611
경상남도 창원시 의창구 팔용로 428,N,0,팔용동사무소 대각선 베스킨라빈스 4층,함성원치과의원,055-294-2875,,1900,1000,1900,1000,1900,1000,1900,1000,1900,1000,1300,1000,,,,,35.254698086972425,128.61286946723527
"경상남도 창원시 의창구 원이대로 283, 208호(봉곡동,청마빌딩)",N,0,명곡사거리 부근,행복치과의원,055-288-3791,,1830,0930,1830,0930,1830,0930,2100,1400,1830,0930,1300,0930,,,,,35.242688888888885,128.650927777777781
"경상남도 창원시 성산구 대암로 247, A동 302호 (성주동, 더스퀘어)",N,0,,행복한수치과의원,055-275-2882,,2100,0930,1830,0930,1830,0930,2100,0930,1830,0930,1400,0930,,,,,35.20401505611099,128.7117988964594
경상남도 창원시 의창구 외동반림로 206,N,0,경남은행365 옆,허영준치과의원,055-266-8275,,1900,1000,1900,1000,1900,1000,1900,1000,1900,1000,1400,1000,,,,,35.23614514976586,128.67726197135164
"인천광역시 중구 인항로 42, 3층 (신흥동3가)",N,0,경인고속도로 종점 인하대병원 건너편 맥도널드 옆(신영빌딩3층),Q-프라임치과의원,032-883-2080,,1900,1000,2000,1000,1900,1000,2000,1000,1900,1000,1400,1000,,,,,37.45695740964044,126.63479499313014
"인천광역시 중구 제물량로 65, 3층 (신흥동3가)",N,0,신흥로터리 주변 3층,건치과의원,032-887-7582,,1700,1100,1700,1100,1700,1400,1700,1100,1700,1100,1300,1100,,,,,37.465971500772035,126.63493203059001
인천광역시 중구 참외전로 117-9 ,N,0,"동인천역 인근, 축현치안센터 옆 석봉토스트 건물 2층.",굿모닝치과,032-761-6048,,2000,1000,1900,1000,1900,1000,2000,1000,1900,1000,1400,1000,,,,,37.475979167310626,126.63122042445094
인천광역시 중구 연안부두로53번길 35,N,0,"연안동주민센터 옆건물, 라이프비취아파트 맞은편.",김경란치과의원,032-887-4888,,1800,0930,1800,0930,1800,0930,1800,0930,1800,0930,1230,0930,,,,,37.45274031862799,126.60432914307292
"인천광역시 중구 운중로 19, 2층 (운남동)",N,0,중구농협 맞은편 건물 2층.,김영열치과의원,032-746-2875,,1800,0900,1800,0900,1800,0900,1800,0900,1800,0900,,,,,,,37.49368790844057,126.53576229342107
인천광역시 중구 우현로 59 (내동),N,0,"신포문화의 거리, 경동만두 건너편.",김용운치과의원,032-761-2230,,1800,1000,1800,1000,1800,1000,1800,1000,1800,1000,1230,1000,,,,,37.47254781739701,126.62881808499048
인천광역시 중구 흰바위로 41  (운서동),N,0,영종주공아파트 10단지 맞은편. 에어포트원3층,노블치과의원,032-746-2275,,1830,1000,1830,1000,1830,1000,1830,1000,1830,1000,1400,1000,,,,,37.49269252982775,126.48962522323578
"인천광역시 중구 인항로 34, 현대상가 304,405호 (신흥동3가)",N,0,현대 아이파크 앞 현대상가 405호,더웰치과의원,032-886-2875,,1830,1000,1830,1000,1830,1000,1830,1000,1830,1000,1400,0900,,,,,37.45717504804189,126.63408416130848
"인천광역시 중구 우현로 93-1, 5~6층 (인현동)",N,0,,동인천타임치과의원,032-777-7579,,2030,1000,1830,1000,2030,1000,1830,1000,2030,1000,1500,1000,,,,,37.475134427403,126.63077236910091
인천광역시 중구 축항대로86번길 38 ,N,0,라이프 비취 1차아파트 맞은편 라이프쇼핑센터 건물 3층.,민영규치과,032-884-3483,,1830,0930,1830,0930,1830,0930,1830,0930,1830,0930,1300,0930,,,,,37.45357725478972,126.60468507479061
"인천광역시 중구 참외전로 134, 2층 (인현동)",N,0,동인천역 건너편. 국민은행 맞은편.,박선희치과의원,032-762-6980,,1830,0940,1830,0940,1830,0940,,,1830,0940,1300,0940,,,,,37.47504501404142,126.63081869037552
"인천광역시 중구 신도시남로141번길 5-8, 3층 (운서동, 천지인프라자)",N,0,3층,보스톤미치과의원,032-751-7528,,1830,1000,1830,1000,1830,1000,1830,1000,1830,1000,1400,1000,,,,,37.49342354400701,126.48948906439196
"인천광역시 중구 우현로 34, 4층 (답동)",N,0,덕원빌딩4층 일부,본플란트치과의원,032-772-7528,,1900,0930,1900,0930,1900,0930,1900,0930,1900,0930,1300,0930,,,,,37.47035118430162,126.62807456729739
"인천광역시 중구 우현로 75, 3층 (인현동)",N,0,"우리은행 맞은편, 피자헛 건물 3층.",상아플러스치과의원,032-772-2877,,1830,0930,1830,0930,1830,0930,1830,0930,1830,0930,1330,0930,,,,,37.47389242938595,126.62977914047533
"인천광역시 중구 하늘별빛로 59, 4층 (중산동)",N,0,,서울THE좋은치과의원,032-746-9225,,1830,1000,2030,1000,1830,1000,2030,1000,1830,1000,1400,1000,,,,,37.48883021350439,126.56427740182421
인천광역시 중구 운남로 168 (운남동),N,0,,서울하늘치과의원,032-764-2804,,1830,0930,1830,0930,1830,0930,1830,0930,1830,0930,1300,0930,,,,,37.49251467675815,126.53344014115222
"인천광역시 중구 하늘별빛로65번길 7-9, 403호 (중산동)",N,0,,영종국제치과의원,032-225-2879,,2030,0930,1830,0930,1830,0930,2030,0930,1830,0930,1330,0930,,,,,37.48847125467195,126.56466845236999
"인천광역시 중구 하늘별빛로65번길 8-11, 메이채프라자 301~2호 (중산동)",N,0,,영종시카고치과교정과치과의원,032-215-7528,,2100,1300,2100,1300,2100,1300,2100,1300,2100,1300,2100,1300,,,,,37.489457684391446,126.56242840793723
"인천광역시 중구 하늘별빛로65번길 7-3, 2층 (중산동)",N,0,,영종연세치과의원,032-752-2804,,1900,1000,2000,1000,1900,1000,2000,1000,1900,1000,1400,1000,,,,,37.48901638285904,126.56394162673456
인천광역시 중구 우현로 61,N,0,"신포문화의거리 주변, 김피부비뇨기과 건물.",오영천치과의원,032-772-5724,,1830,0930,1830,0930,1830,0930,1830,0930,1830,0930,1200,0930,,,,,37.472649674787014,126.62894489820022
전라북도 순창군 순창읍 옥천로 39,N,0,축협 옆건물에 위치,권치과의원,063-652-7728,,1800,0900,1800,0900,1800,0900,1800,0900,1800,0900,1200,0900,,,,,35.37621899116217,127.14054610750376
"전라북도 순창군 순창읍 옥천로 41, 순정축협",N,0,우체국 맞은 편 2층,명작치과의원,063-653-2875,,1800,0900,1800,0900,1800,0900,1800,0900,1800,0900,1300,0900,,,,,35.376752777777774,127.140583333333339
전라북도 순창군 순창읍 장류로 372,N,0,,백세플란트치과의원,063-653-2275,,1800,0900,1800,0900,1800,0900,1800,0900,1800,0900,1300,0900,,,,,35.3760974154,127.1427644849
전라북도 순창군 순창읍 옥천로 49,N,0,터미널 근처,송치과의원,063-653-2043,,1800,0830,1800,0830,1800,0830,1800,0830,1800,0830,1200,0830,,,,,35.377099999999999,127.140758333333338
전라북도 순창군 순창읍 장류로 364-1,N,0,썬마트 맞은편 2층,순창치과의원,063-653-7528,,1800,0900,1800,0900,1800,0900,1800,0900,1800,0900,1200,0900,,,,,35.376213670515654,127.14216699765547
"전라북도 순창군 순창읍 장류로 380,",N,0,순창교육청 맞은편,제일치과의원,063-652-7582,,1800,0900,1800,0900,1800,0900,1800,0900,1800,0900,1300,0900,,,,,35.37603502443077,127.14369318796035
"경상남도 창원시 성산구 외동반림로 217 (반림동, 현대아파트)",N,0,현대산업개발 상가,현대치과의원,055-263-2575,,1830,0930,1830,0930,1300,0930,2100,0930,1830,0930,1230,0930,,,,,35.23707475983076,128.67746959526227
경상남도 창원시 성산구 가음로15번길 38,N,0,가음정동 주민센터 대각선 맞은편,현부부치과의원,055-285-2875,,1900,0930,1900,0930,1900,0930,1900,0930,1900,0930,1300,0930,,,,,35.21260831027808,128.70161298627715
"경상남도 창원시 성산구 단정로 7, 밀레니엄타워 3층 (상남동)",N,0,,화이트이(e)치과의원,1544-2944,,2100,1000,2100,1000,2100,1000,2100,1000,2100,1000,1600,1000,,,,,35.2210132899,128.6816867349
"경상남도 창원시 의창구 팔용로 429 (팔용동, 팔용프라자)",N,0,팔용동주민센터 부근,화이트치과의원,055-297-7528,,1900,0930,1900,0930,1900,0930,1900,0930,1900,0930,1400,0930,,,,,35.2549992848646,128.61244913392724
"경상남도 창원시 성산구 가음로13번길 33 (남양동, 남양종합상가)",N,0,동사무소 옆,황상윤치과의원,055-263-8131,,1830,0930,1830,0930,1830,0930,1830,0930,1830,0930,1300,0930,,,,,35.21304395008104,128.7009591499593
경상남도 창원시 의창구 북면 동곡로 17 (신천주빌딩301호),N,0,,휴플러스치과의원,055-299-7528,,1900,0930,1900,0930,2030,0930,1900,0930,1900,0930,1300,0930,,,,,35.31794528849533,128.5852948259689
서울특별시 강남구 역삼로 124,N,0,,양치과의원,02-508-0086,,1800,1000,1800,1000,1800,1000,1800,1000,1800,1000,1300,1000,,,,,37.493710682455955,127.03333305413807
경상남도 창원시 의창구 원이대로 595,M,0,창원시청 옆,고운치과병원,055-285-0987,,1900,0930,2000,0930,1900,0930,2000,0930,1900,0930,1630,0930,,,,,35.22800242489739,128.68033674184096
"경상남도 창원시 성산구 상남로 73 (상남동, 서울메디컬빌딩5층)",M,0,코아상가 부근,램브란트치과병원,055-262-2875,,1900,1000,2030,1000,1900,1000,1900,1000,1900,1000,1300,0930,,,,,35.220792787217846,128.679551252499
경상남도 창원시 성산구 중앙대로 99,M,0,STX건물 부근,화인치과병원,055-285-0100,,2100,0930,2100,0930,1830,0930,2100,0930,2100,0930,1600,0930,,,1600,0930,35.22392231281781,128.6795146490654
경상남도 창원시 성산구 완암로 50 넥스동 209호 (성산동),N,0,SK테크노파크,SK금강치과의원,055-288-2875,,1900,0930,1900,0930,1900,0930,1900,0930,1900,0930,1400,0930,,,,,35.20565402103743,128.6637531656158
경상남도 창원시 성산구 원이대로 654  (상남동),N,0,은아아파트 맞은편 버스정류장 앞,SM차치과의원,055-261-2875,,1830,0930,1800,0930,1830,0930,1800,0930,1830,0930,1300,0930,,,,,35.22438444941271,128.6849144919675
경상남도 창원시 의창구 상남로192번길 41-3,N,0,신원동 농협부근,e-사랑치과의원,055-274-0428,,1900,1000,1900,1000,1900,1000,1900,1000,1900,1000,1400,1000,,,,,35.227300360784604,128.6914108381427
경상남도 창원시 성산구 용지로133번길 3 키다리빌딩 (중앙동),N,0,"이마트 옆, 정우상가 맞은편",e가지런한치과,055-274-2885,,1900,1000,1900,1000,1900,1000,1900,1000,1900,1000,1600,1000,,,,,35.22731759557329,128.6792902172158
경상남도 창원시 의창구 북면 감계로 304,N,0,,감계뉴욕치과의원,055-292-5111,,1900,0930,2100,0930,1900,0930,2100,0930,1900,0930,1400,0930,,,,,35.30198006301669,128.59400671754426
경상남도 창원시 성산구 신촌로 17  (신촌동),N,0,축산홈마트 옆,강도욱치과의원,055-286-2875,,1830,1000,1830,1000,1830,1000,1900,1430,1830,1000,1300,1000,,,,,35.20788963991929,128.62653942518227
경상남도 창원시 의창구 읍성로 78,N,0,롯데리아부근,건미치과의원,055-295-0620,,1830,0930,1830,0930,1830,0930,1830,0930,1830,0930,1500,0930,,,,,35.26486024279375,128.6263445635581
경상남도 창원시 의창구 의안로2번길 37,N,0,39사단 부근,경남치과의원,055-297-2875,,1830,1000,1830,1000,1830,1000,1830,1000,1830,1000,1230,1000,,,,,35.26164303426944,128.62780983885628
경상남도 창원시 성산구 상남로 118 CNN타워 403호 (상남동),N,0,하이마트 맞은편,굿모닝e치과의원,055-275-2879,,1830,0930,1830,0930,2030,0930,1830,0930,1830,0930,1400,0930,,,,,35.22341861340333,128.68308021504237
경상남도 창원시 의창구 도계로 135,N,0,,굿위브치과의원,055-276-2875,,1900,1000,1900,1000,1900,1000,2030,1000,1900,1000,1400,1000,,,,,35.253414277751084,128.64293897750056
"경상남도 창원시 의창구 원이대로 320 (대원동, 더시티세븐 T-701호)",N,0,시티세븐부근,굿플란트치과의원,055-265-2875,,1900,1000,1900,1000,2100,1000,1900,1000,1900,1000,1600,1000,,,,,35.24024122115269,128.65280595894657
경상남도 창원시 의창구 의안로 41,N,0,새마을금고 부근,그린치과의원,055-294-2879,,1900,0930,1900,0930,1900,0930,1900,0930,1900,0930,1400,0930,,,,,35.265207693335014,128.62382417995343
경상남도 창원시 의창구 봉곡로123번길 7  (봉곡동),N,0,공영주차장 부근,김석훈치과의원,055-237-0028,,1900,0930,1900,0930,1900,0930,1900,0930,1900,0930,1300,0930,,,,,35.24615205453317,128.67127635110307
"경상남도 창원시 성산구 가양로124번길 23, 202호(대방동,신대방빌딩)",N,0,대동디지털황토아파트 부근,김종길치과의원,055-255-2537,,1830,1000,1830,1000,1830,1000,1830,1000,1830,1000,1300,1000,,,,,35.2072687814,128.7076289624
경상남도 창원시 성산구 동산로 124  (상남동),N,0,대동백화점 부근,김종하치과의원,055-275-7555,,1830,1000,1830,1000,1830,1000,1830,1000,1830,1000,1300,1000,,,,,35.219370742247435,128.691593449779
"경상남도 창원시 성산구 원이대로 646, 901호(상남동,에이스빌딩)",N,0,한국은행 사거리 쪽,나란e치과의원,055-264-7279,,1830,1400,1830,1000,1830,1000,1830,1000,1830,1000,1600,0930,,,,,35.2247711695252,128.6841629511037
"경상남도 창원시 성산구 동산로 124 (상남동, 성원그랜드쇼핑)",N,0,대동백화점 부근,나치과의원,055-263-7376,,1830,0930,1830,0930,1830,0930,1830,0930,1830,0930,1300,0930,,,,,35.21934066053745,128.68754704154796
경상남도 창원시 의창구 의창대로62번길 2,N,0,창원역 부근,남치과의원,055-255-1077,,1800,1000,1800,1000,1800,1000,1800,1400,1800,1000,1200,1000,,,,,35.2565382646673,128.60731999715279
"경상남도 창원시 성산구 창원대로 726, 16,17,32호 (내동, 내동상가아파트)",N,0,창원병원 근처 내동상가,내동치과의원,055-283-0660,,1800,0930,1800,0930,1800,0930,1800,0930,1800,0930,1300,0930,,,,,35.217152701985725,128.6703658345547
경상남도 창원시 성산구 원이대로473번길 9  (반림동),N,0,"트리비앙아파트 건너편 노블상가, 반송제일교회 옆",노블치과의원,055-266-2870,,1830,1000,1830,1000,1830,1000,1830,1000,1830,1000,1230,1000,,,,,35.234836314992506,128.66945386520743
경상남도 창원시 성산구 원이대로 678  (상남동),N,0,시민생활체육관 옆,늘푸른치과의원,055-266-2000,,1900,1000,1900,1000,1900,1000,1900,1000,1900,1000,1400,1030,,,,,35.223025969005434,128.68720594442425
"경상남도 창원시 성산구 원이대로863번길 26, 4층 (가음동)",N,0,,닥터오치과의원,055-287-5050,,1830,0930,1830,0930,2100,0930,1830,0930,1830,0930,1400,0930,,,,,35.2080909671,128.6981282336
"인천광역시 서구 청라커낼로288번길 10, 더스페이스타워 401,402호 (청라동)",N,0,,미유치과의원,032-719-7928,,2100,1000,1900,1000,2100,1000,1900,1000,1900,1000,1400,1000,,,,,37.5338750114,126.6457252117
"경기도 과천시 별양상가1로 13, 6층 일부호 (별양동, 교보빌딩)",M,0,교보빌딩 6층 일부,과천연세스위트치과병원,02-3678-2875,,1900,1000,1900,1000,1900,1000,1900,1000,1900,1000,1500,1000,,,,,37.42723288172362,126.99155360952743
"경기도 과천시 별양상가3로 11, 8층 7호 (별양동, 뉴코아)",N,0,,LA성모치과의원,02-6242-7582,,2030,1000,1900,1000,1900,1000,1900,1000,1900,1000,1400,0930,,,,,37.42629584527778,126.99186101677004
경기도 과천시 중앙로 135 (중앙동) 대상빌딩 301호,N,0,,과천아름다운치과의원,02-502-2875,,1800,0930,1800,0930,1800,0930,1800,0930,1800,0930,1500,0930,,,,,37.428636655687846,126.99153200554926
경기도 과천시 별양상가로 2,N,0,그레이스빌딩 216호,그린치과의원,02-503-2275,,1830,1000,1830,1000,1830,1000,1830,1000,1830,1000,1400,1000,,,,,37.42830154213337,126.99096015677432
"경기도 과천시 별양상가1로 25 (별양동, 렉스타운 411호)",N,0,,렉스과천치과의원,02-507-0733,,1830,0930,1830,0930,1830,0930,1830,0930,1830,0930,1400,0930,,,,,37.42828532656821,126.99253419242038
"경기도 과천시 별양상가2로 14 (별양동, 제일쇼핑 604호)",N,0,,명치과의원,02-503-0300,,1800,1000,1800,1000,1800,1000,1800,1000,1800,1000,1230,0930,,,,,37.427337485511025,126.99300880351906
"경기도 과천시 별양상가1로 35 (별양동, 상아빌딩 301호)",N,0,,믿음치과의원,02-504-0052,,1800,1000,1800,1000,1800,1000,1800,1000,1800,1000,1300,1000,,,,,37.42854488926825,126.99356454257132
"경기도 과천시 별양상가1로 31 (별양동, 제일상가 303호~304호)",N,0,,방치과의원,02-503-5630,,1800,0930,1800,0930,1800,0930,1800,0930,1800,0930,1300,0900,,,,,37.42870344672869,126.99318038922736
"경기도 과천시 별양로 46 (원문동, 래미안슈르상가 C동 3001호 일부)",N,0,,서울웰치과의원,02-507-2994,,1830,1000,2030,1000,1830,1000,1830,1000,2030,1000,1400,0930,,,,,37.42313514621972,126.99296398433559
"경기도 과천시 별양상가1로 35 (별양동, 상아빌딩 203호)",N,0,,신영치과의원,02-503-2474,,1800,1000,1800,1000,1800,1000,1800,1000,1800,1000,1200,1000,,,,,37.42854487983028,126.99356004363643
"경기도 과천시 새술막길 39 (중앙동, KT스마트타워 3층 일부)",N,0,KT스마트타워 3층 일부,예다한치과의원,02-507-8833,,1900,1000,2100,1000,,,1900,1000,1900,1000,1400,1000,,,,,37.429141374770325,126.99204014720857
"경기도 과천시 별양상가1로 18 (별양동, 과천오피스텔 3D-1호)",N,0,,은치과의원,02-503-0534,,1800,0930,1800,0930,1800,0930,1800,0930,1800,0930,,,,,,,37.42753567742414,126.99248907464832
"경기도 과천시 별양상가3로 5 (별양동, 유니온빌딩 304호)",N,0,,이즈치과의원,02-3679-2828,,1800,0930,1800,0930,1800,0930,1800,0930,1800,0930,1400,0930,,,,,37.426652596833065,126.99114694958405
"경기도 과천시 관문로 47 (중앙동, 정부과천청사)",N,0,,정부과천청사부속치과의원,02-2110-5723,,1200,0900,1200,0900,1200,0900,1200,0900,1200,0900,,,,,,,37.43588860337523,126.99233070468074
"경기도 과천시 별양로 64 (별양동, 의료상가 204호)",N,0,,조성천치과의원,02-502-2097,,1800,1000,1800,1000,1800,1000,1800,1000,1800,1000,1300,1000,,,,,37.42447591680069,126.99398064227416
"경기도 과천시 별양로 178 (부림동, 과천농협 2층 일부)",N,0,과천농협 2층,한치과의원,02-504-2835,,1900,0930,2100,0930,1900,0930,1900,0930,1900,0930,1600,0930,,,,,37.43363308441795,126.99831082441605
"전라남도 여수시 남산로 126, 성흔빌딩 6층 (서교동)",N,0,,제이원치과의원,061-644-8833,,1830,0930,1830,0930,1830,0930,1830,0930,1830,0930,1430,0930,,,,,34.740087261248796,127.72800567424056
"부산광역시 사상구 가야대로 256, 주례한빛빌딩 5층 (주례동)",N,0,2호선 주례역 7번 출구,유플러스치과의원,051-208-7928,,1830,0930,1830,0930,1830,0930,1830,0930,1830,0930,,,,,,,35.14995606964351,129.00072401613957
"경상남도 창원시 성산구 대정로 131  (대방동, 대방덕산타운)",N,0,대방초등학교 근처,대방치과의원,055-283-9149,,1830,0930,1830,0930,1830,0930,1830,0930,1830,0930,1300,0930,,,,,35.212286668400964,128.70730764706005
경상남도 창원시 의창구 동읍 동읍로 5,N,0,탑마트부근,동면치과의원,055-251-1036,,1800,0930,1800,0930,1800,0930,1800,0930,1800,0930,1200,0930,,,,,35.27781922707521,128.68438005744844
"경상남도 창원시 의창구 읍성로 57, 2층(소답동,형제상가)",N,0,KS마트 맞은편,동현치과의원,055-296-0127,,1830,0930,1830,0930,1830,0930,1830,0930,1830,0930,1500,0930,,,,,35.26484339190222,128.62379064851515
경상남도 창원시 의창구 팔용로 419 (팔용동) ,N,0,팔용동 스타벅스건물 4층,로덴치과의원,055-299-2879,,1900,1000,1900,1000,1900,1000,1900,1000,1900,1000,1600,1000,,,,,35.25443230998791,128.61189800992054
경상남도 창원시 의창구 동읍 의창대로 854,N,0,동읍의 단위 농협 앞 철길부근,류치과의원,055-291-7582,,1900,1000,1900,1000,1900,1000,1900,1000,1900,1000,1300,1000,,,,,35.27683929819107,128.68459716174752
경상남도 창원시 성산구 가양로 124 (대방동),N,0,대방동 농협하나로마트 옆,리즈치과의원,055-262-2804,,1830,0930,1830,0930,1830,0930,1830,0930,1830,0930,1400,0930,,,,,35.2072687814,128.7076289624
"경상남도 창원시 성산구 동산로 122 (상남동, 스카이웰빙파크)",N,0,상남동 주상가 뒤 스카이웰빙파크,림스치과의원,055-284-1456,,1900,1000,1900,1000,1900,1000,1900,1000,1900,1000,1300,1000,,,,,35.21892158038348,128.69097353816255
"경상남도 창원시 의창구 원이대로 275, 2층 (봉곡동)",N,0,"한나라도당사 건물, 엔젤인어스커피 봉곡점 옆건물",명곡치과의원,055-288-4747,,1900,1000,1900,1000,1900,1000,1900,1000,1900,1000,1400,1000,,,,,35.24293642508363,128.65025993869608
"경상남도 창원시 성산구 가양로124번길 15 (대방동, 대암빌딩)",N,0,농협 부근,무지개치과의원,055-281-6000,,1800,1030,1800,1030,1800,1030,,,1800,1030,1300,1030,,,,,35.20803391112641,128.70743637068193
경상남도 창원시 성산구 원이대로863번길 32 (가음동),N,0,가음정119안전센터 옆,문치과의원,055-283-6203,,1830,0930,1830,0930,1830,0930,1830,0930,1830,0930,1300,0930,,,,,35.20792794629526,128.6984410931417
경상남도 창원시 성산구 동산로 166  (사파동),N,0,사파성당 옆,미래치과의원,055-285-2805,,1830,0930,1830,0930,1830,0930,1830,0930,1830,0930,1230,1000,,,,,35.222222061672774,128.6939237422118
"경상남도 창원시 성산구 상남로 122 (상남동, 롯데메디컬)",N,0,롯베백화점 부근,미르치과의원,055-262-2828,,1900,1400,1900,0930,1900,0930,1900,1400,1900,0930,1300,0900,,,,,35.22382242808625,128.68333455893304
"경상남도 창원시 성산구 마디미서로 54 (상남동, 서울아동병원)",N,0,서울아동병원 건물,미소가득치과의원,055-283-2875,,1900,1000,2100,1000,1900,1000,2100,1000,1900,1000,1500,1000,,,,,35.220860457373924,128.68091005371184
"경상남도 창원시 의창구 팔용로 439 (팔용동, 사화빌딩)",N,0,팔용동주민센터 부근,미소사랑치과의원,055-299-2820,,1900,1000,1900,1000,1900,1000,1900,1000,1900,1000,1400,1000,,,,,35.25586439007674,128.61317892173983
부산광역시 금정구 부산대학로 10,N,0,부산대학역4번출.대우아파트상가내,조성재치과의원,051-581-1113,,1830,0930,1830,0930,1830,0930,1830,0930,1830,0930,1300,0900,,,,,35.23125630538917,129.09110694047882
경상남도 합천군 합천읍 옥산로 89,N,0,농협읍내지점 부근,단아미소치과의원,055-931-7322,,1800,0930,1800,0930,1800,0930,1800,0930,1800,0930,,,,,,,35.56830497269646,128.16497201448527
"경상남도 합천군 합천읍 동서로 84, 2층",N,0,롯데리아 맞은편,박치과의원,055-934-1396,,1800,0930,1800,0930,1800,0930,1800,0930,1800,0930,,,,,,,35.5667155486,128.1614808919
경상남도 합천군 삼가면 삼가중앙길 28,N,0,,서울치과의원,055-933-0034,,1800,0900,1800,0900,1800,0900,1800,0900,1800,0900,,,,,,,35.41351763760955,128.12272194587803
경상남도 합천군 합천읍 충효로1길 11-21,N,0,합천초등학교 부근,안동환치과의원,055-932-1770,,1700,0900,1700,0900,1700,0900,1700,0900,1700,0900,,,,,,,35.56391349010474,128.16233167588507
경상남도 합천군 합천읍 대야로 888,N,0,일요일은 장날만 진료함. 합천시외버스터미널 부근,예일치과의원,055-931-2169,,1800,0920,1800,0920,1200,0920,1800,0920,1800,0920,,,,,,,35.567507387230236,128.16347778760814
경상남도 합천군 가야면 가야시장로 67,N,0,,이사랑치과의원,055-933-2875,,1800,0900,1800,0900,1800,0900,1800,0900,1800,0900,,,,,,,35.76058756547035,128.13873889419574
경상남도 합천군 삼가면 삼가중앙길 21,N,0,삼가시장 부근,제일치과의원,055-933-9673,,1700,0900,1700,0900,1700,0900,1700,0900,1700,0900,1200,0900,,,,,35.41340810755033,128.12195960642424
경상남도 합천군 초계면 초계2길  6,N,0,축협초계지점 부근,초계치과의원,055-931-2877,,1800,0900,1800,0900,1800,0900,1800,0900,1800,0900,1300,0900,,,,,35.55881095801675,128.26764250588187
"경상남도 합천군 합천읍 대야로 891, 2층",N,0,,탑치과의원,055-934-2804,,1800,0930,1800,0930,1800,0930,1800,0930,1800,0930,,,,,,,35.56807859052842,128.16302740936405
"경상남도 합천군 합천읍 대야로 895, 2층",N,0,,합천미치과의원,055-931-2875,,1800,0930,1800,0930,1800,0930,1800,0930,1800,0930,,,,,,,35.568480536225394,128.16312563213697
강원도 영월군 영월읍 중앙1로 22 (2층),N,0,영월버스터미널 맞은편,송치과의원,033-373-7528,,1800,0900,1930,0900,1800,0900,1800,0900,1800,0900,1230,0900,,,,,37.18312561664066,128.46586748683273
"부산광역시 중구 구덕로 40, 10층 (남포동2가)",N,0,1호선 남포역 1번 출구,강플란트치과의원,051-256-2875,,1830,1000,1830,1000,1830,1000,1830,1000,1830,1000,1300,0900,,,,,35.09845789539086,129.03157056985373
"경기도 동두천시 평화로 2297, 4층 (지행동)",N,0,,ABC치과의원,031-857-2275,,2100,0930,1900,0930,1900,0930,2100,0930,1900,0930,1400,1000,,,,,37.89281069927721,127.05689394300185
"경기도 동두천시 지행로 53, 301,302호 (지행동)",N,0,,가지런이 치과교정과 치과의원,031-868-2828,,1900,1000,1900,1000,2100,1400,,,1900,1000,1500,0900,,,,,37.89275397905164,127.05249875887495
경기도 동두천시 큰시장로 43 삼풍빌딩 2층 (생연동),N,0,,김장연치과의원,031-865-3361,,1800,0900,1800,0900,1800,0900,1800,0900,1800,0900,1300,0900,,,,,37.90026035469224,127.05304513880263
"경기도 동두천시 동두천로 111, 801-803호 (지행동, 송내메가타운)",N,0,지행역1번출구로 나와 양주방면으로 조금 올라오면 됨,동두천유디치과의원,031-868-0600,,1800,0930,1800,0930,1800,0930,1800,0930,1800,0930,1400,0930,,,,,37.89129711618262,127.05463957157356
"경기도 동두천시 중앙로 267-1, 3층 (생연동, 가나프라자)",N,0,,동두천치과의원,031-868-7528,,1830,0930,1830,0930,1830,0930,1830,0930,1830,0930,1530,0930,,,,,37.90544222682112,127.05376282652924
"경기도 동두천시 지행로 59, 402호 (지행동)",N,0,,미메이드치과의원,031-857-2875,,1900,1000,1900,1000,1900,1000,1900,1000,1900,1000,1600,1000,,,,,37.89268963292849,127.05378335583626
"경기도 동두천시 중앙로 112, 302호 (지행동, 메인프라자)",N,0,,미소드림치과의원,031-859-2275,,1830,0930,1830,0930,1830,0930,1830,1430,1830,0930,1300,0930,,,,,37.89147213734163,127.05249099972137
"경기도 동두천시 지행로 56, 506호 (지행동, 스타월드빌딩)",N,0,,서울좋은치과의원,031-862-2080,,2030,0930,1900,0930,1900,0930,2030,0930,1900,0930,1430,0930,,,,,37.8920699686176,127.05337363293327
"경기도 동두천시 중앙로 297, 206호 (생연동)",N,0,,서울치과의원,031-864-4657,,1800,0910,1800,0910,1800,0910,1800,0910,1800,0910,1300,0910,,,,,37.9082270257792,127.05447240609337
경기도 동두천시 동광로 54-1 (생연동),N,0,,성모치과의원,031-858-2804,,1800,0900,2000,0900,1800,0900,2000,0900,1800,0900,,,,,,,37.908455921183446,127.05431335672767
"경기도 동두천시 동두천로 119, 303호 (지행동, 내행역프라자)",N,0,,시카고치과의원,031-859-2859,,1830,0930,1830,0930,1830,0930,1830,0930,1830,0930,1300,0930,,,,,37.89206578907526,127.0546287309435
경기도 동두천시 동두천로 115  (지행동),N,0,,안성훈치과의원,031-864-2050,,1800,0930,1800,0930,1800,0930,2100,1400,1800,0930,1200,0930,,,,,37.89172956858838,127.05463533480571
"경기도 동두천시 지행로 51, 3층 (지행동, 재림빌딩)",N,0,국민은행 건물 3층,연세세브란스치과의원,031-857-7504,,2030,0930,2030,0930,1830,0930,2030,0930,1830,0930,1500,1000,1500,1000,,,37.89268997540622,127.05302847010645
"경기도 동두천시 중앙로 126, 404호 (지행동)",N,0,,연세우람치과의원,031-861-7528,,1900,1000,2100,1000,1900,1000,2100,1000,1900,1000,1400,1000,,,,,37.89276117474011,127.05252604866928
"경기도 동두천시 중앙로 272, 2층 (생연동, 삼성코아)",N,0,,연세치과의원,031-866-2875,,1730,0830,1730,0830,1730,0830,1730,0830,1730,0830,1230,0830,,,,,37.90584410182824,127.05431600667651
경기도 동두천시 중앙로 225 (생연동),N,0,,이웃사랑치과의원,031-858-7528,,1830,0930,1830,0930,1830,0930,1830,0930,1830,0930,1300,0930,,,,,37.901767998351964,127.05280758000582
경기도 동두천시 중앙로 236,N,0,,이치과의원,031-863-2828,,1900,1000,1700,1000,1900,1000,1600,1000,1900,1000,1300,1000,,,,,37.902595414887166,127.05342880486319
"경기도 동두천시 지행로 61 , 4층(지행동,한승빌딩)",N,0,,조은아이치과의원,031-861-2879,,1800,0930,1800,0930,1800,0930,1800,0930,1800,0930,1300,0930,,,,,37.89266070065193,127.05400616248805
"경기도 동두천시 중앙로 125 (지행동, 영스포츠타운)",N,0,,좋은얼굴최선배치과의원,031-861-2822,,1800,0930,1800,0930,1800,0930,1800,0930,1800,0930,1230,0930,,,,,37.892765281870965,127.0518802991322
"경기도 동두천시 중앙로 280, 3-4층 (생연동)",N,0,,즐거운최앤김치과의원,031-865-6633,,1830,0930,1830,0930,1830,0930,1830,0930,1830,0930,1300,0930,,,,,37.90627743785157,127.05435498611712
"경기도 동두천시 지행로 49 , 6층 (지행동)",N,0,,지행수치과의원,070-7733-2880,,2100,0930,1900,0930,1900,0930,2100,0930,1900,0930,1400,0930,,,,,37.89270088692076,127.05280565011101
"경기도 동두천시 지행로 50, 성지에스앤비타워 2층 (지행동)",N,0,,지행열린치과의원,031-859-2080,,2100,0930,1830,0930,1830,0930,2100,0930,1830,0930,1600,0930,,,,,37.89209193725694,127.05260512651254
"경기도 동두천시 큰시장로 42, 401호 (생연동, 고려빌딩)",N,0,,큰치과의원,031-862-7528,,2000,0900,1800,0900,2000,0900,1800,0900,1800,0900,,,,,,,37.900531769792366,127.05310231593593
"경기도 동두천시 중앙로 269, 2층 (생연동)",N,0,구터미널공원 맞은편 우리서점2층,탑치과의원,031-868-2804,,1900,1000,1900,1000,1900,1000,1900,1000,1900,1000,1400,1000,,,,,37.90552629144528,127.05379269760743
"경기도 동두천시 지행로 65, 4층 (지행동, 동현빌딩)",N,0,,하나플란트치과의원,031-867-2804,,1830,0930,1830,0930,1830,0930,2100,0930,1830,0930,1400,0930,,,,,37.8926748979,127.0544791134
"경기도 동두천시 지행로 50, 404호 (지행동, 성지에스앤비)",N,0,,한성치과의원,031-858-2877,,1800,0930,1800,0930,,,1800,0930,1800,0930,1200,0930,,,,,37.89209193725694,127.05260512651254
"부산광역시 사상구 백양대로 880, 상가동 407호 (모라동, 우신모라아파트)",N,0,버스정류장: 동원아파트,이명학치과의원,051-312-2275,,1830,0930,1830,0930,1830,0930,1830,0930,1830,0930,1230,0930,,,,,35.18311269128864,128.99128007051905
경기도 파주시 금빛로 24 4층 402-403호(금촌동),N,0,,OE오이치과의원,031-945-5272,,1830,0930,2100,0930,1830,0930,2100,0930,1830,0930,1400,0900,,,,,37.751986998599996,126.766883207
"경기도 파주시 중앙로 276, 2층 (금촌동)",N,0,,e-편한치과의원,031-942-0028,,1900,1000,1900,1000,1900,1000,1900,1000,1900,1000,1300,0910,,,,,37.76059426600251,126.77731045300322
"경기도 파주시 와석순환로 431 304호(와동동,신운정프라자)",N,0,,가온치과의원,031-942-7528,,1800,0930,1800,0930,,,1800,0930,1800,0930,1400,0930,,,,,37.723672384409156,126.75321082151686
"경기도 파주시 문산읍 문향로 72-1, 4층 405,406호",N,0,,가이드치과의원,031-952-2875,,1830,0930,2100,0930,1830,0930,1830,0930,1830,0930,1600,0930,,,,,37.860052108248404,126.78659863300507
"경기도 파주시 문산읍 독서울1길 14, 203호",N,0,,강남치과의원,031-952-2580,,1900,0930,2100,0930,1900,0930,2100,0930,1900,0930,,,,,,,37.86586064795828,126.80444186608071
경기도 파주시 조리읍 봉천로 22-1,N,0,,고석호치과의원,031-944-3539,,1800,0900,1800,0900,1800,0900,1300,0900,1800,0900,1300,0900,,,,,37.74324167267915,126.80934696721232
경기도 파주시 문화로 57,N,0,,곽치과의원,031-944-3357,,1830,0930,1830,0930,1830,0930,1830,0930,1830,0930,1300,0930,,,,,37.75944723875738,126.7762862435987
경기도 파주시 광탄면 등원로 527,N,0,,광탄하나로치과의원,031-945-2804,,1830,0930,1830,0930,1830,0930,1830,0930,1830,0930,1430,0930,,,,,37.78341939542057,126.84496060668614
"경기도 파주시 미래로602번길 11, 302,303호 (와동동, 메디스타워)",N,0,,교하굿모닝치과의원,031-957-9119,,1900,1000,1900,1000,1900,1000,1900,1000,1900,1000,1400,1000,,,,,37.73139657592525,126.75200994639601
"경기도 파주시 숲속노을로 275, 진원빌딩 402,403호 (문발동)",N,0,,교하리더스치과의원,031-953-2877,,1900,1000,1900,1000,1900,1000,2100,1000,1900,1000,1400,1000,,,,,37.725042867184484,126.71084674959772
경기도 파주시 미래로 620,N,0,,교하이안치과의원,031-949-2875,,1900,0930,2100,0930,1900,0930,1900,0930,2100,0930,1430,0930,,,,,37.732396439729115,126.75107994854258
경기도 파주시 적성면 청송로 1023,N,0,,굿모닝치과의원,031-959-2804,,1830,0930,1830,0930,1830,0930,1830,0930,1830,0930,1500,0930,,,,,37.95456509390668,126.91864734036203
"경기도 파주시 중앙로 263, 2층 (금촌동)",N,0,,금촌뿌리사랑치과의원,031-957-1236,,1830,0930,1830,0930,1830,0930,1830,0930,1830,0930,1400,0930,,,,,37.7596043371521,126.77743596165489
경기도 파주시 중앙로 271,N,0,,금촌세브란스치과의원,031-944-8589,,1830,1000,1830,1000,1830,1000,1830,1000,1830,1000,1400,1000,,,,,37.76001108644558,126.77715154514041
경기도 파주시 중앙로 303,N,0,,금촌연세치과의원,031-941-8841,,1800,0930,1800,0930,1800,0930,1800,0930,1800,0930,1330,0930,,,,,37.76266002600645,126.775332288634
경기도 파주시 후곡로 1 (금촌동),N,0,,금촌제일치과의원,031-948-6673,,1800,0930,1800,0930,1800,0930,1800,0930,1800,0930,1400,0930,,,,,37.75740307780009,126.77401545778726
경기도 파주시 문화로 105 (금촌동),N,0,,금촌치과의원,031-945-8275,,1830,0930,1830,0930,1830,0930,1830,0930,1830,0930,1300,0930,,,,,37.763715220632584,126.77447520153481
경기도 파주시 조리읍 봉천로 42,N,0,,김동선치과의원,031-946-2875,,1900,1000,1900,1000,1900,1000,1900,1000,1900,1000,1300,0930,,,,,37.74376776609553,126.80710820772711
"경기도 파주시 법원읍 술이홀로 887,",N,0,,김두현치과의원,031-958-2875,,1830,1030,1830,1030,1830,1030,1830,1030,1830,1030,1430,1030,,,,,37.850374170697584,126.87359938914932
경기도 파주시 와석순환로 82,N,0,운정지구 한빛마을 6단지 대흥프라자 5층 501.502호,김앤김치과의원,031-8071-2500,,1830,1000,2030,1000,1830,1000,2030,1000,1800,1000,1400,1000,1700,1300,,,37.711265752042124,126.75046155248675
경기도 파주시 금빛로 24-22 (굿닥터스빌딩 5층),N,0,,김우찬치과의원,031-943-8275,,1800,1000,1800,1000,1800,1000,1800,1000,1800,1000,1300,1000,,,,,37.75165026196761,126.76791004384039
경기도 파주시 청석로 262,N,0,,나우치과의원,031-942-7581,,1900,1000,1900,1000,1900,1000,1900,1400,1900,1000,1400,1000,,,,,37.725309089545206,126.71826807719918
"경기도 파주시 미래로 612, 301,302호 (와동동, 미봉프라자)",N,0,,닥터유바른치과의원,031-957-2870,,1830,0930,1830,0930,1830,0930,1830,0930,1830,0930,1400,0930,,,,,37.73195366151658,126.75131285785892
"경기도 파주시 청암로17번길 17, 2층 (목동동, 홈플러스)",N,0,,더플러스치과의원,031-942-2807,,2000,1000,2000,1000,,,2000,1000,2000,1000,1400,1000,1400,1000,1400,1000,37.7295687815,126.736760962
경기도 파주시 시청로 209,N,0,,도영범치과의원,031-944-3645,,1900,1000,1900,1000,1900,1000,1900,1000,1800,1000,1600,1000,,,,,37.770960585160914,126.77582910662669
경기도 파주시 청석로 272,N,0,,루치과의원,031-946-7528,,1900,1000,1900,1000,1900,1000,1900,1000,1900,1000,1500,1000,,,,,37.726125932888664,126.71775679433495
경기도 파주시 중앙로 308,N,0,,리더스치과의원,031-941-9527,,1800,1000,1800,1000,1800,1000,1800,1000,1800,1000,1400,1000,,,,,37.763388656298375,126.77567507422404
"경기도 파주시 탄현면 사슴벌레로 27, 203호",N,0,,리드치과의원,031-949-8215,,1800,0930,1800,0930,1800,0930,1800,0930,1800,0930,1300,0930,,,,,37.77515357855206,126.70219624887028
"경기도 파주시 교하로 75, 503호 (목동동, 신운정프라자3)",N,0,,모두애치과의원,031-943-8928,,2100,0930,1830,0930,2100,0930,1830,0930,2100,0930,1400,0930,,,,,37.72860916870161,126.73322893968091
"경기도 파주시 와석순환로 425, 캐슬프라자 401호 (와동동)",N,0,,모아치과의원,031-944-9500,,1900,0930,1900,0930,1900,0930,2000,0930,1900,0930,1400,0930,,,,,37.72346547100811,126.75248022231406
경기도 파주시 문산읍 문향로67번길 1 401호 (경향빌딩),N,0,,문산본치과의원,031-953-7528,,1830,0930,1830,0930,1830,0930,1830,0930,1830,0930,1400,0930,,,,,37.85786210425686,126.78485886796783
경기도 파주시 문산읍 방촌로 1721,N,0,,문산연세치과의원,031-953-2874,,1800,1000,1800,1000,1800,1000,1800,1000,1800,1000,1400,1000,,,,,37.866483720583595,126.78459630268493
경기도 파주시 문산읍 문향로 52-1 3층,N,0,,문산우리들치과의원,031-954-0428,,1830,0930,1830,0930,1830,0930,1830,0930,1830,0930,1330,0930,,,,,37.856746217474075,126.78556663105647
"경기도 파주시 문산읍 당동1로 43, 202호 (세원프라자)",N,0,,문산원치과의원,031-952-2175,,1830,0930,2030,0930,1830,0930,1830,0930,1830,0930,1400,0930,,,,,37.86334045280281,126.77363326177426
"경기도 파주시 청석로 260, 402,403,404호 (동패동, 트리플메디칼타워)",N,0,,미래치과의원,031-949-2879,,1900,1000,1900,1000,1900,1000,1900,1000,1900,1000,1500,1000,,,,,37.725109603279705,126.71773798576017
"경기도 파주시 와석순환로 72 302,303호(야당동,홍원프라자)",N,0,홍원프라자 302.303호,미소준치과의원,031-8071-3113,,2100,0930,1830,0930,1830,0930,1830,0930,1830,0930,1400,0930,,,,,37.710643857081436,126.75126257844461
"경기도 파주시 청암로17번길 53, 월드타워2 504, 505호 (목동동)",N,0,,미소채움치과의원,031-946-2213,,2100,0930,1830,0930,1830,0930,2100,0930,1830,0930,1400,0930,,,,,37.728181449705694,126.73522315130423
"경기도 파주시 금빛로 24-28, 304호 (금촌동, 우성메디피아)",N,0,,민트그린치과의원,031-948-9253,,1830,0930,1830,0930,2030,0930,1230,0930,1830,0930,1400,0930,,,,,37.75165458026132,126.76827313849851
경기도 파주시 경의로 1080  (야당동),N,0,,바른이고운이치과의원,031-947-4748,,1830,1030,1830,1030,1830,1030,,,1830,1030,1600,1000,,,,,37.71381188147698,126.75995240067722
"경기도 파주시 미래로 371, 씨티타워 601호 (동패동)",N,0,,바른이치과교정과치과의원,031-942-2010,,1900,1000,2100,1000,1900,1000,2100,1000,1900,1000,1600,1000,,,,,37.71108643160001,126.7458628134
경기도 파주시 조리읍 통일로 317,N,0,,바른치과의원,031-949-2825,,1900,0930,1900,0930,1900,0930,1900,0930,1900,0930,1300,0930,,,,,37.74368789522416,126.80894644046568
경기도 파주시 법원읍 술이홀로 873,N,0,,법원치과의원,031-958-7528,,1900,0930,1900,0930,1900,0930,1900,0930,1900,0930,1400,0930,,,,,37.849251061854396,126.87263112202798
"경기도 파주시 경의로 1042, 더진빌딩 407호 (야당동)",N,0,,베스트원치과의원,031-949-1526,,1900,1000,2100,1000,1900,1000,1900,1000,1900,1000,1400,1000,,,,,37.71042015520032,126.75982792582438
"경기도 파주시 송화로 11 305호 (아동동, 팜스프링아파트 상가)",N,0,,베스트치과의원,031-947-2875,,1830,0930,1830,0930,1830,0930,1830,0930,1830,0930,1300,0900,,,,,37.771889328426624,126.77714489815022
"경기도 파주시 교하로 79, 혜인프라자 403호 (목동동)",N,0,,보스톤치과의원,031-942-2833,,1900,1000,2030,1000,1900,1000,2030,1000,1900,1000,1400,1000,,,,,37.728325178551145,126.7334348942719
"경기도 파주시 와석순환로 70, 303호 (야당동, 신운정프라자2)",N,0,,뿌리사랑치과의원,031-946-2871,,1830,0930,2100,0930,1830,0930,1830,0930,1830,0930,1400,0930,,,,,37.71048959914344,126.75153473784806
경기도 파주시 미래로 610,N,0,,새이치과의원,031-942-0032,,1800,0930,1800,0930,1800,0930,1800,0930,1800,0930,1200,0930,,,,,37.73160802230548,126.75146829884326
"경기도 파주시 가람로 53, 현대프라자 301호 (와동동)",N,0,,서울가람치과의원,031-957-2677,,1830,0930,1830,0930,1830,0930,2030,0930,1830,0930,1530,0930,,,,,37.734634060520186,126.75604233847517
경기도 파주시 문산읍 문산로 46-1,N,0,,서울미치과의원,031-953-2875,,1830,0930,1830,0930,1830,0930,2000,1400,1830,0930,1430,0930,,,,,37.857381826013196,126.78469281901212
"경기도 파주시 미래로 369-72, 402,403,404호 (동패동, 우성메디피아)",N,0,,서울보임치과의원,031-1670-2275,,1830,0930,2100,0930,1830,0930,1830,0930,1830,0930,1400,0900,,,,,37.71109045233728,126.74438847792014
"경기도 파주시 가온로 284, 402호 (와동동, 명인빌딩)",N,0,명인빌딩 402호,서울앞선치과의원,031-946-2876,,1830,0930,2030,0930,1830,0930,1830,0930,1830,0930,1400,0930,,,,,37.7256500027,126.7579865352
경기도 파주시 한울로 67,N,0,,서울연합치과의원,031-944-3375,,1830,0930,1830,0930,1830,0930,1830,0930,1830,0930,1400,0930,,,,,37.7108771235351,126.73914473589242
경기도 파주시 청석로 266,N,0,,서울웰치과의원,031-946-0502,,1830,1000,1830,1000,1830,1000,1830,1000,1830,1000,1530,1000,,,,,37.72559577928582,126.71759547706222
"경기도 파주시 청암로17번길 33, 504호 (목동동)",N,0,,서울이고운치과의원,031-944-2080,,1900,0930,1900,0930,1900,0930,1900,0930,1900,0930,1400,0930,,,,,37.7287102246,126.7363873929
경기도 파주시 조리읍 통일로 325 2층,N,0,"파주시 조리읍 통일로 325, 2층",서울정치과의원,031-941-0706,,1800,0900,1800,0900,1800,0900,1800,0900,1800,0900,1300,0900,,,,,37.74423775699999,126.8083703397
"경기도 파주시 청암로17번길 31, 204,205,206호 (목동동)",N,0,,서울주니어스치과의원,031-947-9200,,1830,1000,1830,1000,1800,1000,1830,1000,1830,1000,1400,1000,,,,,37.728452670237786,126.7357341460478
경기도 파주시 적성면 청송로 1016,N,0,,서울치과의원,031-959-2275,,1800,0930,1800,0930,1800,0930,1800,0930,1800,0930,1500,0930,,,,,37.95386933656154,126.91830677941152
"경기도 파주시 광탄면 혜음로 1120,",N,0,,서울치과의원,031-947-9963,,1900,0930,1900,0930,1900,0930,1900,0930,1900,0930,1500,0930,,,,,37.78160941960878,126.84762805364781
"경기도 파주시 문산읍 문향로 61-1, 2층",N,0,,서울하나로치과의원,031-8035-7200,,1800,0900,1800,0900,1800,0900,1800,0900,1800,0900,1400,0900,,,,,37.8575016598,126.7848235529
"경기도 파주시 와석순환로 125, 505,506호 (동패동, 현대프라자)",N,0,,선치과의원,031-945-7522,,1830,0930,2100,0930,1830,0930,2100,0930,1830,0930,1600,0930,,,,,37.71162661005311,126.7456517831894
"경기도 파주시 책향기로 419, 403호(동패동,웰스피아)",N,0,,세강치과의원,031-946-5375,,1800,0930,1800,0930,1800,0930,1800,0930,1800,0930,1400,0930,,,,,37.7245560340927,126.71815808081939
경기도 파주시 문화로 103,N,0,,세종치과의원,031-944-9460,,1830,0930,1830,0930,2000,0930,1830,0930,1830,0930,1400,0930,,,,,37.763310656271194,126.77446779729743
"경기도 파주시 문산읍 문향로67번길 2, 3층",N,0,,수치과의원,031-952-2263,,1800,0930,1800,0930,1800,0930,1800,0930,1800,0930,1500,0930,,,,,37.8579706924092,126.78480140663932
경기도 파주시 법원읍 술이홀로 875-2,N,0,,신플란트치과의원,031-959-2828,,1830,0930,1830,0930,1830,0930,1830,0930,1830,0930,1300,0930,,,,,37.84963286043244,126.87293481164003
경기도 파주시 조리읍 대원로 66,N,0,,아름다운치과의원,031-948-2800,,1830,0930,2000,0930,1830,0930,1830,0930,1830,0930,,,,,,,37.7287256689314,126.81399903639661
"경기도 파주시 교하로 83, 동광위너스프라자 301, 302호 (목동동)",N,0,,아이미즈치과의원,031-949-2275,,1900,1000,1900,1000,1900,1000,1900,1000,1700,1000,1430,0930,,,,,37.727918549,126.7337040584
"경기도 파주시 경의로 1068, 401호 (야당동, 삼융프라자)",N,0,,야당열린치과의원,031-8035-6320,,1900,1000,1900,1000,1900,1000,1900,1000,1900,1000,1800,1000,1800,1000,,,37.7125857627,126.7596666963
경기도 파주시 새꽃로 62  (금촌동),N,0,,어른과아이들치과의원,031-949-8275,,2000,1000,1830,1000,2000,1000,1830,1000,1830,1000,1300,1000,,,,,37.755551450092526,126.7688403911607
"경기도 파주시 미래로 371, 602호 (동패동, 씨티타워)",N,0,,연세구치과의원,031-948-9009,,1900,1000,2000,1000,1900,1000,2000,1000,1900,1000,1430,0930,,,,,37.71108643161777,126.74586281336724
경기도 파주시 가온로 27,N,0,,연세미치과의원,031-948-2855,,1900,0930,1900,0930,1600,0930,1900,0930,1900,0930,1400,0930,,,,,37.72705264242641,126.7430578296689
"경기도 파주시 시청로 25 204호 (금촌동, 광우프라자)",N,0,,연세부부치과의원,031-945-5555,,1800,0930,1800,0930,1800,0930,2030,0930,1800,0930,1330,0930,,,,,37.75916245141866,126.77626614328652
"경기도 파주시 문산읍 당동2로 1, 홈프라자",N,0,파리게바트 5층,연세세브란스치과의원,031-954-7528,,1900,1000,1900,1000,1900,1000,1900,1000,1900,1000,1500,1000,,,,,37.867844387652895,126.78514403346645
"경기도 파주시 청석로 268, 401호 (동패동, 미소시티)",N,0,,연세아이편한치과의원,031-8071-2833,,1830,0930,1830,0930,1830,0930,1830,0930,1830,0930,1400,0930,,,,,37.725801954247785,126.71773139346854
"경기도 파주시 와석순환로 86, 지앤지프라자 303호 (야당동)",N,0,,연세오복치과의원,031-941-3833,,1900,1000,2100,1000,1900,1000,1900,1000,1900,1000,1500,1000,,,,,37.71148146629126,126.75027084369645
"경기도 파주시 교하로 87, 302호 (목동동, 삼성플라자)",N,0,,연세이바름치과의원,031-948-0099,,1900,1000,1900,1000,1900,1000,2100,1400,1900,1000,1500,1000,,,,,37.7276343472,126.7339274077
"경기도 파주시 문산읍 방촌로 1759, 3층(홈플러스)",N,0,홈플러스 3층,연세플러스치과의원,031-953-0208,,2100,1000,2100,1000,2100,1000,2100,1000,2100,1000,1800,1000,,,,,37.869462972968066,126.78498882031255
"경기도 파주시 문화로 100, 2층 (금촌동, 금촌프라자약국)",N,0,,연세필치과의원,031-957-0158,,2000,1000,2000,1000,2000,1000,2000,1000,2000,1000,1500,1000,,,,,37.763264610970445,126.77488283940025
"경기도 파주시 문화로 109, 4층 402호 (금촌동)",N,0,,연세하늘치과의원,031-939-2291,,2030,0930,1830,0930,1830,0930,2030,0930,1830,0930,1400,0930,,,,,37.7638976615,126.774240837
경기도 파주시 중앙로 328 (금촌동),N,0,,예스구구치과의원,031-942-2811,,1800,0930,1800,0930,2100,0930,1800,0930,1800,0930,1400,0930,,,,,37.764965056029574,126.77459438908714
경기도 파주시 금빛로 24-27  (금촌동),N,0,,예스치과의원,031-957-2875,,1830,1000,2100,1000,1830,1000,2100,1000,1830,1000,1600,1000,,,,,37.75195370912121,126.76827522550698
경기도 파주시 새꽃로 197 (금촌동),N,0,,예인치과의원,031-945-5507,,2000,0930,1800,0930,2000,0930,1600,0930,1800,0930,1400,0930,,,,,37.76555565138824,126.7743538294103
"경기도 파주시 금릉역로 84 203(금촌동,청원센트럴타워)",N,0,,예일치과의원,031-949-2804,,1800,0930,2000,0930,1800,0930,2000,0930,1800,0930,1400,0930,,,,,37.75215454407382,126.76595674933985
"경기도 파주시 금빛로 27, 401,402호 (금촌동, 광장프라자 )",N,0,,온누리치과의원,031-944-2275,,1830,0930,2100,0930,1830,0930,1830,0930,1800,0930,1330,0900,,,,,37.75079273390773,126.7680020051452
"경기도 파주시 청석로 256 , 405호 (동패동, 교하일번가)",N,0,,요요한국치과의원,031-949-2810,,2000,1000,2000,1000,2000,1000,2000,1000,2000,1000,1700,1000,,,,,37.72464040398122,126.71764732631132
"경기도 파주시 후곡로 3, 303호 (금촌동,현인메트로)",N,0,,우리치과의원,031-948-2275,,1800,0930,1800,0930,1800,0930,1800,0930,1800,0930,1200,0930,,,,,37.75588010650166,126.7738351427429
경기도 파주시 미래로602번길 3  (와동동),N,0,,운정365치과의원,031-948-0365,,1900,0940,2100,0940,1900,0940,1900,0940,1900,0940,1330,0940,,,,,37.731287657683914,126.7516463412853
"경기도 파주시 미래로408번길 40, 3층 (야당동, 한빛프라자)",N,0,,운정디스플레이치과의원,031-948-2875,,1830,0930,2000,0930,1830,0930,2000,0930,1830,0930,1400,0930,,,,,37.713975847703004,126.74880623930374
"경기도 파주시 청암로17번길 43, 405,406호 (목동동, 베스트프라자)",N,0,,운정에이스치과의원,031-945-7528,,2100,1000,1900,1000,1900,1000,2100,1000,1900,1000,1600,1000,,,,,37.7297101424,126.7355126465
"경기도 파주시 미래로 369-71, 동방프라자 201호 (동패동)",N,0,,유디치과의원,031-941-3907,,1830,0930,1830,0930,1830,0930,1830,0930,1830,0930,1430,0930,,,,,37.711084462756396,126.74495100888305
경기도 파주시 문산읍 문산역로 107,N,0,,이가편한치과의원,031-953-2804,,1800,0930,1800,0930,1800,0930,1800,0930,1800,0930,1300,0930,,,,,37.855760133787456,126.78666109132088
경기도 파주시 문산읍 문향로 64-1,N,0,,이사랑치과의원,031-953-8820,,1830,0930,1830,0930,1830,0930,1830,0930,1830,0930,1400,0930,,,,,37.857591771399214,126.78519673267571
경기도 파주시 문산읍 문향로 71,N,0,,이해승치과의원,031-952-3872,,1800,0930,2030,0930,1800,0930,1800,0930,1800,0930,1400,0930,,,,,37.85836367686618,126.78521195044978
경기도 파주시 적성면 청송로 1026-1 (풍년프라자4층),N,0,,적성웰치과의원,031-958-2804,,1800,0930,1800,0930,1800,0930,1800,0930,1800,0930,1300,0930,,,,,37.95388013056462,126.91874880210662
경기도 파주시 월롱면 엘씨디로 201,N,0,,정다운치과의원,031-8074-0428,,2000,1000,2000,1000,2000,1000,2000,1000,2000,1000,1400,1000,,,,,37.80872359251781,126.76060651879884
"경기도 파주시 문산읍 방촌로 1719, 3층 303호 (센터프라자)",N,0,,정성을다하는치과의원,031-942-2875,,2000,0930,1830,0930,1830,0930,2000,0930,1830,0930,1400,1000,,,,,37.86607065232195,126.78436678119617
"경기도 파주시 조리읍 고봉로 1039, 301호 (아트텔)",N,0,,조은치과의원,031-948-2824,,1730,0900,1730,0900,1730,0900,1730,0900,1730,0900,1230,0900,,,,,37.743860872944296,126.80819547030344
경기도 파주시 새꽃로 13  (금촌동),N,0,,준치과의원,031-957-7559,,1800,0930,1800,0930,1800,0930,1800,0930,1800,0930,1000,0930,,,,,37.75117899762444,126.76833212261894
경기도 파주시 미래로602번길 11,N,0,,키즈웰치과의원,031-948-6822,,1830,0930,1830,0930,1830,0930,1830,0930,1830,0930,1400,0930,,,,,37.73131713221848,126.75195025949914
"경기도 파주시 와석순환로 135, 603호 (동패동, 신한프라자)",N,0,신한프라자 603호,팀치과의원,031-944-2875,,1900,1000,2100,1000,1900,1000,2100,1000,1900,1000,1300,1000,,,,,37.71203130702451,126.74448453841717
"경기도 파주시 파주읍 우계로 57-1, 4층",N,0,,파주본치과의원,031-954-2879,,1800,0900,1800,0900,1800,0900,1800,0900,1800,0900,,,,,,,37.8320153101,126.8166403904
경기도 파주시 책향기로 423  (동패동),N,0,,한결치과의원,031-946-2872,,1900,1000,2000,1000,1900,1000,1900,1000,1900,1000,1400,1000,,,,,37.7249033722282,126.71890028976148
경기도 파주시 와석순환로 66 302호 (야당동),N,0,,한빛365치과의원,031-944-0365,,1800,0930,2000,0930,1800,0930,2000,0930,1800,0930,1400,0930,,,,,37.710320551613165,126.7517581188644
경기도 파주시 황골로 15  (금촌동),N,0,,한사랑치과의원,031-946-2895,,1900,0930,1900,0930,1900,0930,1900,0930,1900,0930,1400,0930,,,,,37.75545390031293,126.77054737800754
"경기도 파주시 미래로 375, 403호 (동패동, 삼성메디컬프라자)",N,0,삼성메디컬프라자 403호,행복치과의원,031-942-2804,,2030,0930,1830,0930,2030,0930,1830,0930,1830,0930,1400,0930,,,,,37.71140355170894,126.74585265755661
경기도 파주시 중앙로 279 ,N,0,,현대치과의원,031-941-8783,,1800,1000,1800,1000,1800,1000,1800,1000,1800,1000,1330,1000,,,,,37.76082445785926,126.77659705396281
경기도 파주시 새꽃로 27  (금촌동),N,0,,화이트치과의원,031-942-7928,,2100,1000,1900,1000,1900,1000,2100,1000,2100,1000,1400,0930,,,,,37.75241510458898,126.768328243542
"경기도 파주시 조리읍 봉천로 43, 2층",N,0,,然(연)치과의원,031-947-2879,,1800,0900,1800,0900,1300,0900,1800,0900,1800,0900,1300,0900,,,,,37.74357231487511,126.8069424715828
충청남도 금산군 금산읍 인삼로 83,N,0,농협 중앙회 앞,금산치과의원,041-751-7511,,1800,0900,1800,0900,1800,0900,1800,0900,1800,0900,,,,,,,36.10304757489817,127.49089565392273
충청남도 금산군 금산읍 비선길 38,N,0,읍사무소 사거리 읍농협맞은편 심미당 2층,금산한치과의원,041-754-6235,,1800,0900,1800,0900,1800,0900,,,1800,0900,1300,0900,,,,,36.101498715188555,127.49002102736891
충청남도 금산군 금산읍 비범로 25,N,0,시외버스터미널 바로 옆,김진현치과의원,041-751-2875,,1730,0845,1730,0845,1730,0845,1730,1400,1730,0845,1200,0845,,,,,36.10511891882488,127.49126975868384
충청남도 금산군 금산읍 건삼전3길  4,N,0,심지약국 근처,김치과의원,041-754-2254,,1730,1000,1730,1000,1730,1000,1730,1000,1730,1000,,,,,,,36.10192045781356,127.49062795857567
충청남도 금산군 금산읍 비범로 12 (법무사문경현사무소),N,0,르까프2층/전 등기소 앞건물,류치과의원,041-753-5845,,1730,0930,1730,0930,1730,0930,1730,0930,1730,0930,1200,0930,,,,,36.103688603766784,127.49107870792547
"충청남도 금산군 금산읍 인삼로 87, 2층",N,0,,서울성모치과의원,041-753-2275,,1800,0900,1800,0900,1800,0900,,,1800,0900,1300,0900,,,,,36.103059849158434,127.49144793227381
충청남도 금산군 추부면 마전로 40  ,N,0,,서울수치과의원,041-751-2888,,1300,1000,1800,1000,1800,1400,1300,1000,1800,1000,1300,1000,,,,,36.190357260195206,127.46810776031897
"충청남도 금산군 금산읍 인삼로 73, 하나은행",N,0,,서울연합수치과의원,041-751-2275,,1800,0900,,,,,,,,,,,,,,,36.1031919095,127.4900095079
충청남도 금산군 후곤천길 80 (금산읍) ,N,0,금산 시외버스터미널 맞은편,이편한치과의원,041-751-7528,,1730,0900,1730,0900,1730,0900,1230,0900,1730,0900,1230,0900,,,,,36.10499206196283,127.49056263835404
충청남도 금산군 금산읍 인삼로 71,N,0,,중앙플란트치과의원,041-152-2876,,1700,0830,1700,0830,1700,0830,1700,0830,1700,0830,1200,0830,,,,,36.1032148636,127.4896853756
"충청남도 금산군 금산읍 비단로 292, 2층",N,0,하나로마트 맞은편,참좋은치과의원,041-754-2803,,1830,0930,1830,0930,1830,0930,1930,0930,1830,0930,1330,0930,,,,,36.109945079997715,127.4869801982899
충청남도 금산군 금산읍 인삼로 65 (엔이씨티 303호),N,0,NECD 빌딩 3층,하나치과의원,041-751-7522,,1730,0900,1730,0900,1300,0900,1730,0900,1730,0900,1330,0900,,,,,36.10333714349345,127.48883631585551
충청남도 금산군 금산읍 금산로 1483  ,N,0,농협/터미널 근처 사거리 방향 ,현치과의원,041-754-7728,,1800,0900,1800,0900,1800,0900,,,1800,0900,1200,0900,,,,,36.10617292620911,127.48916623479458
"강원도 철원군 동송읍 금학로 247, 2층",N,0,,미소드림치과의원,033-455-2875,,1800,0900,1800,0900,1800,0900,1800,0900,1800,0900,,,,,,,38.210369250678944,127.21638480495547
"경기도 용인시 기흥구 동백중앙로 358-19 (동백동,미래도프라자7층)",M,0,,컬럼비아치과병원,031-693-7528,,1900,1000,1900,1000,1900,1000,1900,1000,1900,1000,1600,0930,,,,,37.2815753424,127.1608797197
경기도 용인시 기흥구 죽전로15번길 11-15 (보정동),N,0,,24까페거리의원,031-265-1270,,1800,0900,1800,0900,1800,0900,1800,0900,1800,0900,,,,,,,37.3215177155,127.1092429123
"경기도 용인시 기흥구 마북로 164, 203호 (마북동, 테라스가든 A빌딩)",N,0,,365일이가편한연세치과의원,031-283-3651,,1900,0930,1900,0930,1900,0930,1900,0930,1900,0930,1600,0930,,,,,37.3039624599173,127.12435027651654
"경기도 용인시 기흥구 흥덕2로87번길 18 (영덕동, 이씨티)",N,0,,I-플러스치과의원,031-214-2821,,1900,1000,2100,1000,2100,1000,,,1900,1000,1400,1000,,,,,37.2759107805739,127.07158946838947
경기도 용인시 기흥구 중부대로 343-1 (신갈동),N,0,,e편한치과의원,031-281-8181,,1830,0930,1830,0930,1830,0930,1830,0930,1730,0930,1300,0930,,,,,37.27175639097471,127.10510849928606
"경기도 용인시 기흥구 보정로 109, 405호 (보정동, 현대프라자)",N,0,,e화이트치과의원,031-896-7475,,1900,1000,1900,1000,1900,1000,1900,1000,1900,1000,1400,1000,,,,,37.3194865467397,127.11519679128686
"경기도 용인시 기흥구 동백중앙로 356, 4층 3호 (동백동, 지우프라자)",N,0,,가인치과의원,031-693-9477,,1830,1000,1830,1000,1830,1000,2030,1400,1830,1000,1330,1030,,,,,37.28241682362245,127.15961405342757
경기도 용인시 기흥구 강남동로114번길 28 (상하동),N,0,,갈보리치과의원,031-281-2275,,1830,1000,1830,1000,1830,1000,1830,1000,1830,1000,1400,1000,,,,,37.2731391071,127.1370987249
경기도 용인시 기흥구 강남로 12,N,0,스카이프라자 401번지 2호,구갈강남치과의원,031-274-5075,,1900,1000,1900,1000,1900,1000,1900,1000,1900,1000,1400,1000,,,,,37.27121930929966,127.12748099966069
"경기도 용인시 기흥구 구성로 102 (언남동, 206호)",N,0,,구성수치과의원,031-283-2874,,1830,1000,1830,1000,2030,1000,1830,1400,1830,1000,,,,,,,37.29360555555554,127.12044166666666
경기도 용인시 기흥구 구성로 95 (언남동),N,0,,구성치과의원,031-283-2752,,1830,0930,2000,0930,1830,0930,1830,1400,1830,0930,1400,0930,,,,,37.29417433389042,127.12017504005802
"경기도 용인시 기흥구 중부대로788번길 22, 210호 (상하동, 수원동마을쌍용아파트단지내상가)",N,0,,굿모닝치과의원,031-693-7525,,1900,1000,1930,1000,1900,1000,1900,1000,1900,1000,1430,1000,,,,,37.25750903688236,127.14048468431338
"경기도 용인시 기흥구 기흥역로 63, 3층 (구갈동, 힐스테이트 기흥)",N,0,,기흥서울치과의원,031-307-2275,,1900,1000,2100,1000,1900,1000,2100,1000,1900,1000,1400,1000,1400,1000,,,37.27511613749268,127.11860642731179
경기도 용인시 기흥구 어정로 139,N,0,,김앤진치과의원,031-282-3872,,1830,0930,1830,0930,1830,0930,2100,1300,1830,0930,1400,0930,,,,,37.275838172751556,127.14476688257994
경기도 용인시 기흥구 갈천로7번길 51-26 (신갈동),N,0,,김태진치과의원,031-283-2626,,1800,1000,1800,1000,1800,1000,1800,1000,1800,1000,,,,,,,37.27102444028512,127.10546377166587
경기도 용인시 기흥구 사은로126번길 2,N,0,,나이스치과의원,031-285-3710,,1800,0900,1800,0900,1800,0900,1800,0900,1800,0900,1300,1000,,,,,37.255510945785225,127.11842804869765
"경기도 용인시 기흥구 동백중앙로 283 (중동, 골드프라자)",N,0,,뉴연세치과의원,031-8006-2275,,1900,1000,1900,1000,1900,1000,1900,1000,1900,1000,1400,0900,,,,,37.277697202888696,127.15398476175078
경기도 용인시 기흥구 흥덕1로79번길 24,N,0,아이비타워 2층 202호,뉴욕다나치과의원,031-212-2868,,1900,1000,1900,1000,1900,1000,1900,1000,1900,1000,1500,1000,,,,,37.27677272152762,127.07155530125388
"경기도 용인시 기흥구 동백3로11번길 8-1 (중동, 제일프라자 4층)",N,0,,뉴욕치과의원,031-284-2004,,1900,1000,2100,1000,1900,1000,2100,1000,1900,1000,1400,0900,,,,,37.269793503119615,127.15386059009396
"경기도 용인시 기흥구 죽전로 39, 406.407호 (보정동, SJ타워)",N,0,보정동 주민센터 맞은편 우리은행건물 4층,다봄치과의원,031-261-7528,,1830,0930,2100,0930,1830,0930,1830,0930,1830,0930,1300,0900,,,,,37.320707270980144,127.11332121406204
"경기도 용인시 기흥구 한보라1로 14 (보라동, 베스트프라자)",N,0,스카이프라자앞,당신을위한치과의원,031-8005-7528,,1900,0930,1900,0930,1900,0930,1900,0930,1900,0930,1300,0930,,,,,37.25371723088368,127.10963315479898
"경기도 용인시 기흥구 금화로 92, 한솔프라자 (상갈동)",N,0,,더바른치과의원,031-274-2879,,1900,1000,2030,1000,1900,1000,2030,1000,1900,1000,1400,1000,,,,,37.26649057489463,127.10815322695838
경기도 용인시 기흥구 동백7로 83,N,0,,동백서울치과의원,031-8005-7522,,1800,1000,1800,1000,1800,1000,,,1800,1000,1300,1000,,,,,37.281635192410484,127.16046970162351
경기도 용인시 기흥구 동백중앙로 352,N,0,신동백빌딩 4층,동백열린치과의원,031-693-8275,,1800,0930,1800,0930,1800,0930,,,1800,0930,1400,0930,,,,,37.282101559924946,127.15939719032056
"경기도 용인시 기흥구 동백5로 21-11, 4층 409호 (중동, 동백 훼미리프라자 1)",N,0,,동백쥬니어치과의원,031-285-7522,,1830,0930,1830,0930,1830,0930,1830,0930,1830,0930,1430,0930,,,,,37.277374699408114,127.15252732015917
"경기도 용인시 기흥구 동백죽전대로 444 (중동, 쥬네브썬월드 403,404호)",N,0,동백이마트 클리닉동 4층,동백탑치과의원,031-679-0200,,1800,0930,2000,0930,1800,0930,1800,0930,1800,0930,1600,0930,,,,,37.277011111111108,127.173013888888889
"경기도 용인시 기흥구 동백7로 73 (동백동, 경안빌딩)",N,0,경안빌딩 5층,동백트리플에이치과의원,031-713-8875,,1900,1000,1900,1000,1900,1000,1900,1000,1900,1000,1400,0930,,,,,37.28202563875391,127.1595729399244
경기도 용인시 기흥구 마북로 152 (마북동),N,0,마북프라자 3층,디자인유시치과의원,031-275-2872,,1900,1000,1900,1000,1900,1000,1900,1000,1900,1000,1400,1000,,,,,37.303454222979845,127.1234559658965
"경기도 용인시 기흥구 덕영대로2077번길 16, 305호 (영덕동, 기흥대정프라자)",N,0,,라인치과의원,031-281-7528,,1900,1000,1900,1000,1900,1000,1700,1000,1900,1000,1500,1000,,,,,37.268047222222222,127.096852777777784
"경기도 용인시 기흥구 새천년로26번길 2, 304호 (신갈동, 센타프라자)",N,0,센타프라자 304호,리빙치과의원,031-275-2825,,1830,0900,1830,0900,1300,0900,1830,0900,1830,0900,1600,0900,,,,,37.28904907965002,127.11194761679206
"경기도 용인시 기흥구 마북로 159, 305호 (마북동, 한성프라자)",N,0,,모든치과의원,031-284-2859,,1830,0930,1830,0930,1830,0930,1830,0930,1830,0930,1300,0930,,,,,37.30403531701915,127.12360143914889
"경기도 용인시 기흥구 관곡로 92, 401호 (구갈동, 신건프라자)",N,0,신건프라자 401호,모아치과의원,031-286-1177,,1900,1000,1900,1000,2030,1000,1900,1000,1900,1000,1600,1000,,,,,37.280487718005304,127.11350457898666
"경기도 용인시 기흥구 동백3로11번길 8 (중동, V프라자)",N,0,,미메이드치과의원,031-693-7922,,1900,1000,2100,1000,1900,1000,2100,1400,1900,1000,1400,1000,,,,,37.269559461227054,127.15368423937336
경기도 용인시 기흥구 흥덕중앙로 120,N,0,흥덕 ic부근,미소가득치과의원,031-627-2877,,1900,1000,2000,1000,1900,1000,2000,1000,1900,1000,1400,1000,,,,,37.27459681894779,127.08137161342216
"경기도 용인시 기흥구 용구대로2394번길 10 (마북동, 삼호빌딩 3층)",N,0,,미소가있는치과의원,031-285-1242,,1830,0930,1830,0930,1900,0930,1830,0930,1830,0930,1400,0930,,,,,37.29997769252154,127.10804360107451
"경기도 용인시 기흥구 죽전로 50, 302호 (보정동, 센타프라자)",N,0,,미소그린치과의원,031-261-8228,,1830,0930,1830,0930,1830,0930,1830,0930,1830,0930,1300,0930,,,,,37.32026307192595,127.11426372135593
경기도 용인시 기흥구 새천년로 20,N,0,,미푸른치과의원,031-287-7522,,1900,0930,2100,0930,,,1900,0930,2100,0930,1400,0930,,,,,37.28908655843981,127.1114204344232
"경기도 용인시 기흥구 구성3로28번길 30, 303호 (청덕동, 구성프라자)",N,0,,미플란트치과의원,031-275-2890,,1800,0930,1800,0930,1800,0930,1800,0930,1800,0930,1230,0930,,,,,37.29612245649008,127.15211359561593
경기도 용인시 기흥구 신구로54번길 9 (구갈동),N,0,,박정제치과의원,031-282-2875,,1830,0930,1830,0930,1830,0930,1830,0930,1830,0930,1400,0930,,,,,37.27709605345959,127.11096100255895
경기도 용인시 기흥구 탑실로 36 (공세동),N,0,,베일러연합치과의원,031-283-0316,,1830,0930,1830,0930,1930,0930,1830,0930,1830,0930,1400,0930,,,,,37.23896765507955,127.10972773360208
경기도 용인시 기흥구 한보라1로 56,N,0,보라지구 메디프라자 301호,보라미소치과의원,031-286-8528,,1830,0930,1830,0930,1830,0930,1830,0930,1830,0930,1300,0930,,,,,37.25054365567503,127.10778009751343
경기도 용인시 기흥구 한보라1로 6,N,0,,보라심미치과의원,031-274-2822,,1900,0900,1900,0900,1900,0900,1900,0900,1900,0900,1400,0900,,,,,37.25427258498179,127.1092867697455
경기도 용인시 기흥구 사은로126번길 8,N,0,"민속마을쌍용아파트 상가동 217, 218호",보라하나치과의원,031-286-5528,,1830,1000,1830,1000,1830,1000,1830,1000,1830,1000,1330,1000,,,,,37.255215406444286,127.11842759199274
경기도 용인시 기흥구 구성3로28번길 14,N,0,청덕프라자 401호,보스톤아름다운치과의원,031-274-2857,,1900,1000,1900,1000,1900,1000,1900,1000,1900,1000,1400,0900,,,,,37.294768879833704,127.15199366721477
"경기도 용인시 기흥구 강남동로 6, 305호 (구갈동, 그랜드프라자)",N,0,그랜드프라자 305호,보스톤치과의원,031-275-9928,,2030,0930,1830,0930,1830,0930,1830,0930,1830,0930,1330,0930,,,,,37.271383496717945,127.12776464457835
경기도 용인시 기흥구 동백3로11번길 3,N,0,,본치과의원,031-8005-7600,,1830,0930,2030,0930,1830,0930,1830,0930,1830,0930,1300,0930,,,,,37.269350942977695,127.15327794580494
"경기도 용인시 기흥구 신구로64번길 12 (구갈동, 보성프라자)",N,0,,부부치과의원,031-282-6679,,1830,0930,1830,0930,1830,0930,1830,0930,1830,0930,1400,0930,,,,,37.27754198804664,127.11091126013173
"경기도 용인시 기흥구 보정로 115 (보정동, 우영프라자)",N,0,"우영프라자 4층, 죽전 중앙공원 옆 119 건너편 건물",비젼플러스치과의원,031-898-4594,,1830,0930,1830,0930,1830,0930,1400,0930,1830,0930,1400,0930,,,,,37.3199484871129,127.11533728206365
경기도 용인시 기흥구 중부대로788번길 3 (상하동),N,0,,사랑나무치과의원,031-282-8533,,1900,1000,1900,1000,1900,1000,1900,1000,1900,1000,1400,0930,,,,,37.25797716160419,127.14254525041552
"경기도 용인시 기흥구 금화로 101, 3층 302호 (상갈동, 그린빌프라자)",N,0,,상갈열린치과의원,031-286-2828,,1830,1000,1830,1000,1930,1000,1230,1000,1830,1000,1330,1000,,,,,37.26618532626891,127.106921700756
"경기도 용인시 기흥구 진산로 116 (보정동, 롯데마트)",N,0,롯데마트4층,서울로터스치과의원,031-898-2877,,1800,1000,2100,1000,,,1800,1000,1800,1000,1800,1000,1800,1000,,,37.320780841998136,127.09944000006602
"경기도 용인시 기흥구 새천년로26번길 4, 3층 (신갈동, 보은빌딩)",N,0,,서울리더스치과의원,031-275-2811,,1830,1000,2100,1000,1830,1000,2000,1500,1830,1000,1400,1000,,,,,37.28881481448654,127.11192924612312
"경기도 용인시 기흥구 동백죽전대로 444, C동 505호 (중동, 쥬네브썬월드빌딩)",N,0,,서울미소디자인치과의원,031-274-7001,,1900,1000,2000,1430,1900,1000,1900,1430,1900,1000,1530,1000,,,,,37.2757720816386,127.15156797900765
"경기도 용인시 기흥구 구갈로72번길 10, 3층 302호 (구갈동, 낙원상가)",N,0,,서울삼성치과의원,031-274-1122,,1830,0930,2100,0930,1830,0930,1830,0930,1830,0930,1400,0930,,,,,37.2806004326,127.1124853736
"경기도 용인시 기흥구 동백중앙로 283 (중동, 골드프라자)",N,0,,서울웰치과의원,031-287-1080,,1830,1000,1830,1000,1830,1000,1830,1000,1830,1000,1400,1000,,,,,37.27766832345751,127.15402078515751
"경기도 용인시 기흥구 구갈로60번길 3-0 (구갈동, 골드프라자401,402호)",N,0,,서울위캔치과의원,031-287-2080,,1830,0930,1830,0930,2100,1400,1830,0930,1830,0930,1400,0930,,,,,37.27986221389694,127.11181673952717
"경기도 용인시 기흥구 기흥역로 9, 2층 201호 (구갈동, 기흥역 롯데캐슬 레이시티/주상복합)",N,0,,서울한스마일치과의원,031-284-2280,,1900,1000,2100,1000,1900,1000,2100,1000,1900,1000,1400,1000,,,,,37.2749067012,127.1153588419
경기도 용인시 기흥구 서천로127번길 3-3 (서천동),N,0,,서천프라임치과의원,031-204-1675,,2030,0930,1830,0930,2030,0930,1830,0930,1830,0930,1400,0930,,,,,37.23683739772476,127.07249012758572
"경기도 용인시 기흥구 공세로 83 (공세동, 스마일치과)",N,0,,스마일치과의원,031-285-6566,,1800,1000,1800,1000,1800,1000,1800,1000,1800,1000,1330,1000,,,,,37.23216024430195,127.10874426087426
"경기도 용인시 기흥구 중부대로 353, 3층 (신갈동)",N,0,,시드니치과의원,031-287-2828,,1830,0930,1830,0930,1830,0930,1830,0930,1830,0930,1300,0930,,,,,37.27179037087495,127.10628922164471
경기도 용인시 기흥구 신구로12번길 19 (구갈동),N,0,2층,신갈강남치과의원,031-283-6496,,1830,0930,1830,0930,1830,0930,1830,0930,1830,0930,1430,0930,,,,,37.274103188357266,127.11137074836523
"경기도 용인시 기흥구 새천년로26번길 10, 3층 (신갈동, 반석프라자)",N,0,반석빌딩 3층,신갈트리플에이치과의원,031-281-8875,,1900,1000,1900,1000,1900,1000,1900,1000,1900,1000,1500,1000,,,,,37.2883282461272,127.1119375471497
"경기도 용인시 기흥구 구갈로 74, 구갈스포츠센타 (구갈동)",N,0,,아이가행복한치과의원,031-284-5275,,1800,1000,1800,1000,,,1800,1000,1800,1000,1300,1000,,,,,37.28095140631877,127.11210771712973
"경기도 용인시 기흥구 흥덕1로 13, 흥덕IT밸리 B동 2층 221호 (영덕동)",N,0,,아이티치과의원,031-340-2875,,1900,1000,1900,1000,1900,1000,2100,1400,1900,1000,,,,,,,37.2708132014,127.0676610841
"경기도 용인시 기흥구 신촌로73번길 35, 102호 (보정동, 샤르망)",N,0,,압구정부부치과의원,031-266-2876,,1800,1000,1800,1000,1800,1000,1800,1000,1800,1000,,,,,,,37.30812376,127.1103064268
경기도 용인시 기흥구 금화로 103,N,0,,에이스치과의원,031-274-7522,,1900,1000,1900,1000,1900,1000,1900,1000,1900,1000,1400,1000,,,,,37.26619388059859,127.10661607943968
"경기도 용인시 기흥구 구갈로60번길 11 (구갈동, 삼성프라자)",N,0,기흥구청사거리 수지신협 옆  삼성프라자,연세드림치과의원,031-283-2275,,2000,0930,2000,0930,1900,0930,2000,0930,1900,0930,1400,0930,,,,,37.279812030216156,127.11261120780958
경기도 용인시 기흥구 구성로 93,N,0,,연세림치과의원,031-275-0275,,1830,0930,1830,0930,1830,0930,1830,0930,1830,0930,1400,0930,,,,,37.29460338165645,127.12001782126316
"경기도 용인시 기흥구 흥덕중앙로 41 (영덕동, 흥덕웰스프라자)",N,0,2호 흥덕웰스프라자 401호,연세미소누리치과의원,031-215-2875,,1900,1000,1900,1000,1900,1000,2000,1000,1900,1000,1400,1000,,,,,37.276509087232775,127.07156297392109
경기도 용인시 기흥구 죽전로 29 (보정동),N,0,포레스트프라자 4층,연세미소라인치과의원,031-265-2000,,1830,1000,2100,1000,1830,1000,2100,1000,1830,1000,1700,1000,,,,,37.320729926596876,127.11222464195684
"경기도 용인시 기흥구 죽전로 49 (보정동, 시티프라자 4층)",N,0,,연세봄치과의원,031-261-2875,,1800,0930,1800,0930,2100,1400,1800,0930,1800,0930,1300,0930,,,,,37.320730876337485,127.11426453758702
"경기도 용인시 기흥구 죽전로 20 (보정동, 대덕누리에뜰 310)",N,0,,연세에이스치과의원,031-889-2275,,1830,0930,1830,0930,1830,0930,1830,0930,1830,0930,1400,0930,,,,,37.320298296582536,127.11129889412972
"경기도 용인시 기흥구 죽전로 46 (보정동, 타워시티)",N,0,타워시티빌딩 405호/외환은행건물 4층,연세웰치과의원,031-896-3939,,1830,0930,1830,0930,1830,0930,2030,1000,1830,0930,1400,0930,,,,,37.32028149154916,127.11384406278094
경기도 용인시 기흥구 죽전로 46 (보정동),N,0,,연세웰키즈치과의원,031-889-6332,,1830,0930,1830,0930,1830,0930,1830,0930,1830,0930,1500,0930,,,,,37.32030672024243,127.11384410032682
"경기도 용인시 기흥구 흥덕중앙로 59 (영덕동, 용인흥덕노블레스흥덕노블레스)",N,0,"흥덕노블레스 504호, 흥덕이마트 맞은편",연세위더스치과의원,031-214-9330,,1900,1000,1900,1000,1900,1000,1900,1000,1900,1000,1400,1000,,,,,37.276493889108266,127.07374246078524
"경기도 용인시 기흥구 한보라1로 5, 503층 (보라동, 보라메가타운)",N,0,,연세의치과의원,031-275-2842,,1830,0930,1830,0930,1830,0930,1830,1400,1830,0930,1300,0930,,,,,37.25431525844359,127.10991806482652
경기도 용인시 기흥구 동백중앙로 265,N,0,,연세이튼치과의원,031-8005-5660,,1830,1000,1830,1000,1830,1000,1830,1000,1830,1000,1400,0930,,,,,37.27639422910065,127.15264262500948
경기도 용인시 기흥구 동백중앙로 175,N,0,우함빌딩 402호,연세지세븐치과의원,031-693-5650,,1830,1000,1830,1000,1830,1000,1830,1400,1830,1000,1500,1000,,,,,37.26997676720099,127.15428487562443
경기도 용인시 기흥구 중부대로 343 (신갈동),N,0,신갈오거리 수원방면,연세최태순치과의원,031-282-2275,,1800,1030,1800,1030,1800,1030,1800,1030,1800,1030,1300,1030,,,,,37.2717591894817,127.1048956013052
"경기도 용인시 기흥구 구성로 88, 401호 (언남동, 국민은행)",N,0,,연세플러스치과의원,031-283-2863,,1900,1000,1900,1000,1900,1000,1900,1000,1900,1000,1500,1000,,,,,37.29415753259477,127.11895248048017
"경기도 용인시 기흥구 용구대로2394번길 2, 304호 (마북동)",N,0,,연세허브치과의원,031-283-7522,,1830,0930,1830,0930,1830,0930,2030,1400,1830,0930,1400,0930,,,,,37.29976191970163,127.10751544801789
"경기도 용인시 기흥구 구갈로 70, 303호 (구갈동, 메가타운)",N,0,,연세화이트치과의원,031-274-9955,,1830,0930,1830,0930,1830,0930,1830,0930,1830,0930,1400,0930,,,,,37.28055433017919,127.11167796051376
경기도 용인시 기흥구 연원로 8,N,0,,연승환치과의원,031-286-2875,,1830,0900,1830,0900,1830,0900,1830,0900,1830,0900,1400,0900,,,,,37.30027704475039,127.10780942222505
"경기도 용인시 기흥구 용구대로 2398, 3층 308호 (마북동, 연원마을벽산아파트)",N,0,,연원필치과의원,031-287-2876,,1830,0930,1730,0930,1830,0930,1730,0930,1830,0930,1330,0930,,,,,37.30028034722484,127.10724064216654
"경기도 용인시 기흥구 구성로 98, 401호 (언남동, 구성빌딩)",N,0,,열린치과의원,031-284-2882,,1830,0930,1830,0930,1830,0930,1830,0930,1830,0930,1400,0930,,,,,37.293744617854244,127.11997551365795
"경기도 용인시 기흥구 흥덕2로117번길 23 , 306,307호 (영덕동,하워드힐하우스)",N,0,"하워드힐하우스 306,307호 흥덕이마트 근처 하워드힐요양병원 건물 3층",예스안치과의원,031-216-2804,,1900,1000,2100,1000,1900,1000,2100,1400,1900,1000,1400,0930,,,,,37.27784989388757,127.07146501759361
경기도 용인시 기흥구 흥덕2로87번길 18,N,0,흥덕 이마트 옆 이시티상가 A동,오블리제치과의원,031-215-2809,,1900,1000,1900,1000,1900,1000,2200,1430,1900,1000,1400,1000,,,,,37.27601572055496,127.07178010546227
"경기도 용인시 기흥구 동백중앙로 358-12, 403호 (동백동, 유타운 403)",N,0,,오케이치과의원,031-287-5365,,1830,1000,1830,1000,1830,1000,1830,1000,1830,1000,1400,1000,,,,,37.28194920735282,127.16025470411708
"경기도 용인시 기흥구 기흥역로58번길 10 (구갈동, 기흥역센트럴푸르지오)",N,0,,올바름치과의원,031-890-2879,,1900,1000,1900,1000,2100,1000,1900,1000,1900,1000,1400,1000,,,,,37.27409549116352,127.11927231060427
"인천광역시 계양구 봉오대로477번길 19, 501호 (효성동, 태산상가)",N,0,태산아파트 상가,2080치과의원,032-545-7242,,1900,1000,1900,1000,1900,1000,1900,1000,1900,1000,1600,1000,,,,,37.52970783956887,126.70105738176949
"충청남도 보령시 희망1길 8, 2,3,4층 (동대동)",N,0,,그랜드치과의원,041-927-2277,,1830,0930,1830,0930,1830,0930,1830,0930,1830,0930,1430,0930,,,,,36.34854029511806,126.60364722607355
"인천광역시 계양구 장제로 735, 3층 (작전동)",N,0,계양구청 맞은편,GM치과의원,032-552-4393,,1800,1000,1800,1000,1800,1000,1800,1000,1800,1000,1700,0930,,,,,37.538164202571714,126.7385170014428
인천광역시 계양구 안남로565번길 2 (효성동),N,0,대림아파트 입구,UP백 치과의원,032-547-3433,,1830,1000,1830,1000,1830,1000,1830,1000,1830,1000,1400,1000,,,,,37.533564829504556,126.7099844141261
"인천광역시 계양구 오조산공원로 14, 홈플러스계산점 4층 일부호 (계산동)",N,0,,가온치과의원,032-544-2879,,1900,1030,1900,1030,,,2100,1030,1900,1030,1600,1030,1600,1030,,,37.5394708766,126.7361860765
"인천광역시 계양구 용종로 2, 201호 (계산동)",N,0,부현동초등학교 맞은편 계산프라자 건물 2층에 위치.,계산서울치과의원,032-288-2875,,1830,0930,1830,0930,1830,0930,1830,1400,1830,0930,1300,0930,,,,,37.533908516089596,126.74140871509849
"인천광역시 계양구 경명대로 1088, 4층 (계산동)",N,0,계산역 2번출구 ,계산센트럴치과의원,032-715-7532,,1830,0930,2030,0930,1830,0930,2030,1400,1830,0930,1400,0930,,,,,37.5430412292,126.7277186084
인천광역시 계양구 계산새로 1 (계산동),N,0,,계산청원치과의원,032-555-2805,,1900,1000,1900,1000,1900,1000,2100,1000,1900,1000,1400,1000,,,,,37.537540341401986,126.72821244004538
"인천광역시 계양구 계양대로 53, 3층 (작전동, 휘림빌딩)",N,0,인천한마음병원 옆 우리팜약국 건물 2층.,계양미치과의원,032-543-1590,,1830,0930,1830,0930,1830,0930,1830,0930,1830,0930,1300,0930,,,,,37.52853560431064,126.72210908984638
"인천광역시 계양구 장제로 717, 2층 (작전동, 준타워)",N,0,,계양본치과의원,032-546-2875,,1830,0930,2030,0930,1830,0930,1830,0930,1830,0930,1300,0930,,,,,37.531835279744726,126.7335384063577
인천광역시 계양구 장제로 907 (병방동),N,0,,계양수치과의원,032-555-2227,,1900,1000,1900,1000,1900,1000,1900,1000,1900,1000,1600,1000,,,,,37.54776403025942,126.74063182699167
"경기도 용인시 기흥구 구갈로60번길 1, 4층 (구갈동, 오래메디칼센타)",N,0,403호,우리가족치과의원,031-282-1050,,1900,0930,1900,0930,1900,0930,1900,0930,1900,0930,1400,0930,,,,,37.279866086114104,127.11153259162884
"경기도 용인시 기흥구 흥덕중앙로 59, 용인흥덕노블레스 405호 (영덕동)",N,0,,우리아이치과의원,031-213-5228,,1830,0930,1830,0930,1830,0930,1830,1400,1830,0930,1400,0930,,,,,37.27649333367349,127.07374137358818
"경기도 용인시 기흥구 중부대로 579, 503,504호 (구갈동, 강남대프라자)",N,0,,웰치과의원,031-275-8575,,1900,1000,1900,1000,1900,1000,1900,1000,1900,1000,1400,1000,,,,,37.270437769053686,127.12695656358147
경기도 용인시 기흥구 흥덕2로 115,N,0,"미래도프라자 406호, 영덕주민센터 건물 4층",위즈플러스치과의원,031-212-7522,,1830,0930,1300,0930,1830,0930,1830,0930,1830,0930,1330,0900,,,,,37.27782375508075,127.07383844603982
경기도 용인시 기흥구 신갈로 43 (신갈동),N,0,"원덕빌딩 6층, (구)대벌뷔페 자리",유디신갈치과의원,031-287-6363,,1830,0930,1830,0930,1830,0930,1830,0930,1830,0930,1430,0930,,,,,37.27041540557223,127.10539077798305
"경기도 용인시 기흥구 동백중앙로 199, 에이스 프라자 603호 (중동)",N,0,동백동 주민센터 옆,유디치과의원,031-287-4554,,1800,0900,1800,0900,1800,0900,1800,0900,1800,0930,1400,0900,,,,,37.27124826688175,127.15206410139116
경기도 용인시 기흥구 한보라1로64번길 2,N,0,,유앤미치과의원,031-8005-7928,,1830,0930,1830,0930,1830,0930,1830,0930,1830,0930,1400,0930,,,,,37.250266697438306,127.10715301661139
"경기도 용인시 기흥구 흥덕2로87번길 18 (영덕동, 이씨티)",N,0,이시티상가  C동 309,유앤아이시카고치과의원,031-214-2801,,1900,1000,1900,1000,1900,1000,1900,1000,1900,1000,1500,1000,,,,,37.2759107805739,127.07158946838947
"경기도 용인시 기흥구 삼성로 1, 삼성전자(주)기흥캠퍼스 (농서동)",N,0,,의료법인삼성의료재단강북삼성기흥치과의원,031-209-7148,,1700,0830,1700,0830,1700,0830,1700,0830,1700,0830,,,,,,,37.225666604662734,127.08181577366211
경기도 용인시 기흥구 보정로 32 (보정동),N,0,,이좋은치과의원,031-897-7575,,1800,1000,1800,1000,1800,1000,2000,1400,1800,1000,1300,1000,,,,,37.31401578330483,127.1111001953645
경기도 용인시 기흥구 구갈로 74 (구갈동),N,0,,이프라임치과의원,031-275-2880,,1900,1000,1900,1000,1900,1000,1900,1000,1900,1000,1400,1000,,,,,37.28095527977119,127.11181905688633
"경기도 용인시 기흥구 예현로35번길 2 (서천동, 203호)",N,0,,이플러스넷치과의원,031-203-2872,,1800,0900,1800,0900,1800,0900,,,1800,0900,1300,0900,,,,,37.243843769493694,127.06660009410454
"경기도 용인시 기흥구 금화로 3, 201호 (상갈동, 주공프라자)",N,0,,정다운치과의원,031-284-2879,,1900,1000,1900,1000,1900,1000,1900,1000,1900,1000,1400,1000,,,,,37.26172646695044,127.10466187195419
"경기도 용인시 기흥구 신갈로58번길 17 (신갈동, 효진빌딩 303호)",N,0,효진빌딩/우체국 바로 옆,조아치과의원,031-281-7814,,1900,0930,1900,0930,1900,0930,1900,0930,1900,0930,1400,0930,,,,,37.272577532223636,127.10767149747144
"경기도 용인시 기흥구 용구대로 2398, 3층 305호 (마북동, 연원마을벽산아파트)",N,0,,조이치과의원,031-285-2828,,1900,0930,1900,0930,1900,0930,1900,0930,1900,0930,1300,0930,,,,,37.30028034722484,127.10724064216654
"경기도 용인시 기흥구 죽전로 57 (보정동, 호암빌딩 404호)",N,0,,좋은솜씨365죽전치과의원,031-889-2877,,2100,0930,2100,0930,1800,0930,2100,0930,2100,0930,1600,0930,1600,0930,1600,0930,37.32076323459929,127.11510835881197
"경기도 용인시 기흥구 죽전로 33, 3층 (보정동, 이데아프라자)",N,0,,죽전모아치과의원,031-898-2879,,1830,0930,1830,0930,1830,0930,1830,0930,1830,0930,1630,0930,,,,,37.32076497505968,127.11251814878766
"인천광역시 계양구 경명대로 1059, 2층 (계산동)",N,0,,계양스마일치과의원,032-541-7929,,1830,1000,1830,1000,1830,1000,1830,1000,1830,1000,1400,1000,,,,,37.54370106699109,126.72474248828544
"인천광역시 계양구 어사대로41번길 8, 3층(계산동,정우빌딩)",N,0,계산역 2번 출구방향에서 도보로 150m.,계양치과의원,032-551-2882,,2030,1200,2030,1200,2030,1200,2030,1200,2030,1200,1400,1100,,,,,37.54088663049424,126.72797539658612
인천광역시 계양구 계양대로 156 (계산동),N,0,경인교대역 2번출구 주변.,고영관치과의원,032-551-2828,,1900,1000,1900,1000,1900,1000,1900,1000,1900,1000,1400,1000,,,,,37.53765108517933,126.72291028423306
"인천광역시 계양구 동양로 107, 302호 (동양동, 동양타운)",N,0,,고운이치과의원,032-556-2879,,1900,1000,1900,1000,1900,1000,1900,1000,1900,1000,1400,1000,,,,,37.559066737485594,126.75679245882028
"인천광역시 계양구 봉오대로 708, (작전동)",N,0,작전역 3번 출구 인근 ,국두환치과의원,032-543-0446,,1900,1030,1900,1030,1900,1030,1900,1030,1900,1030,1300,1030,,,,,37.5297548925,126.7284049889
"인천광역시 계양구 장제로 912, 2층 (병방동)",N,0,임학역 1번출구 병방사거리 주변 굿모닝약국 건물.,굿모닝치과의원,032-548-4393,,2000,1000,1830,1000,1830,1000,2000,1000,1830,1000,1300,1000,,,,,37.5477568011554,126.74123558264045
"인천광역시 계양구 계양대로 214, 301호 (계산동, 에이스타운)",N,0,계산삼거리 신축건물,굿모닝치과의원,032-552-2870,,1830,0930,1830,0930,1830,0930,1830,0930,1830,0930,1300,0930,,,,,37.543048354428635,126.72303399543462
인천광역시 계양구 주부토로 477 (계산동),N,0,복개천사거리 농협 옆건물,권영택치과의원,032-552-8123,,1830,1000,1830,1000,1830,1000,1700,1000,1830,1000,1400,1000,,,,,37.53674152354895,126.7277505876479
인천광역시 계양구 양지로 25 ,N,0,,기분좋은치과,032-552-2878,,1900,1030,1900,1030,2100,1030,1900,1030,1900,1030,1400,1030,,,,,37.5610562622,126.7551109045
인천광역시 계양구 장제로 789 (계산동),N,0,"하이마트 옆건물, 성베드로한방병원 맞은편.",길치과의원,032-548-8020,,1900,0930,2030,0930,1900,0930,2030,0930,1830,0930,1600,0930,,,,,37.53842464643777,126.73410334670993
인천광역시 계양구 계산로 89 (계산동),N,0,경인교대역 5번출구 베스킨라빈스 2층,김계선치과의원,032-549-2611,,1800,1000,1800,1000,1800,1000,1800,1000,1800,1000,1300,1000,,,,,37.53773039307599,126.72215191101432
인천광역시 계양구 새벌로 126 (효성동),N,0,"효성남초교 맞은편, 아름다운약국 건물 3층.",나움치과의원,032-556-7522,,1900,0930,1900,0930,1900,0930,2100,0930,1900,0930,1600,0930,,,,,37.52817495420731,126.71707040651876
"인천광역시 계양구 계산새로 71, C동 3층 304,305호 (계산동, 하이베라스빌딩)",N,0,계양경찰서 맞은편 하이베라스C동 3층,뉴욕치과의원,032-551-9678,,2000,1000,1900,1000,1900,1000,2000,1000,1900,1000,1600,1000,,,,,37.538366214228994,126.73636501065887
"인천광역시 계양구 동양로 101, 302호 (동양동, 명일프라자)",N,0,뜨란채3단지 4거리 농협건물 3층,동양수치과의원,032-552-7528,,1830,0930,2030,0930,1830,0930,1830,0930,1830,0930,1400,0930,,,,,37.55902363387395,126.75616128163173
"인천광역시 계양구 효서로 141, (효성동)",N,0,효성동우체국 맞은편.,두리부부치과의원,032-547-9235,,1900,0930,1900,0930,2100,0930,1900,0930,1900,0930,1600,0930,,,,,37.52799043320426,126.71155933687191
"인천광역시 계양구 양지로 151, 3층 (귤현동, 샤인빌딩)",N,0,,라인플란트치과의원,032-543-2889,,1900,1000,1900,1000,1900,1000,1900,1000,1900,1000,1400,1000,,,,,37.566953655320084,126.74717279271624
인천광역시 계양구 병방로 13 (병방동),N,0,서원아파트 후문 맞은편,명치과의원,032-553-2875,,1830,1100,2100,1100,1900,1100,1900,1100,1900,1100,1300,1000,,,,,37.54686691286429,126.74219486150122
"인천광역시 계양구 장제로 867, 4층 (임학동)",N,0,,미소담치과의원,032-547-7528,,2030,0930,1830,0930,1830,0930,2030,0930,1830,0930,1430,0930,,,,,37.57928307712808,126.73415734221967
"경기도 용인시 기흥구 죽전로 53, 503호 (보정동, 야후빌딩)",N,0,,죽전사과나무치과의원,031-262-6868,,1830,0930,1830,0930,1830,0930,1300,0930,1830,0930,1400,0930,,,,,37.320744896726346,127.11466170679055
"경기도 용인시 기흥구 죽전로 3 (보정동, 메트로프라자 501호)",N,0,,죽전예치과의원,031-896-6633,,1830,1000,2100,1400,1830,1000,2100,1400,1830,1000,1400,0930,,,,,37.320803603992076,127.10976312957152
경기도 용인시 기흥구 신구로54번길 1,N,0,,참서울치과의원,031-281-1171,,1830,1000,1830,1000,1830,1000,1830,1000,1830,1000,1330,1000,,,,,37.276999845121026,127.10976115833839
"경기도 용인시 기흥구 구성로39번길 3, 3층 306호 (마북동, 리딩프라자)",N,0,,청치과의원,031-274-2828,,1830,0930,1830,0930,1830,0930,1830,0930,1830,0930,1300,0930,,,,,37.295063974956165,127.11336445467336
경기도 용인시 기흥구 신갈로 52,N,0,신갈오거리 근처,트리베일러(Baylor)치과의원,031-284-0022,,1830,0930,1830,0930,1830,0930,1830,0930,1830,0930,1500,0930,,,,,37.271362831681174,127.1059152201604
"경기도 용인시 기흥구 동백평촌로 15, 2층 (동백동, 호수마을계룡리슈빌 단지내상가)",N,0,,푸른치과의원,031-899-6400,,1900,1000,1900,1000,1900,1000,1900,1000,1900,1000,1400,1000,,,,,37.2839900267899,127.15397039229676
"경기도 용인시 기흥구 동백7로 77-0 (동백동, 여강)",N,0,,해바라기의료복지사회적협동조합COOP해바라기치과의원,031-282-0791,,1830,0930,1830,0930,1830,0930,1830,0930,1830,0930,1530,0930,,,,,37.28188679545872,127.15977531185848
"경기도 용인시 기흥구 구성로 103, 3층 306호 (언남동, 멀티프라자)",N,0,,해바라기치과의원,031-283-8275,,1830,0930,1830,0930,1830,0930,1830,0930,1830,0930,1300,0930,,,,,37.29386384521241,127.1207068710542
경기도 용인시 기흥구 죽전로 2,N,0,,행복한미소치과의원,031-897-9711,,1800,0900,1800,0900,1800,0900,1800,0900,1800,0900,1400,0900,,,,,37.320213935589265,127.10897019254567
경기도 용인시 기흥구 예현로 45,N,0,"천일플라자 2층, 서천동 뜨란채 아파트 입구상가",현치과의원,031-202-1215,,1900,1000,1900,1000,1900,1000,1900,1000,1900,1000,1400,1000,,,,,37.24368272190327,127.06585787999649
"인천광역시 계양구 봉오대로555번길 14, 301호 (효성동, 썬프라자)",N,0,,미소진치과의원,032-543-2882,,2100,0930,1830,0930,1830,0930,2100,0930,1830,0930,1600,0930,,,,,37.531921524970095,126.71010169643782
"인천광역시 계양구 주부토로 506, 2층 (계산동, 웅진빌딩)",N,0,삼천리아파트 맞은편,미소치과의원,032-547-1777,,1830,1000,1830,1000,1830,1000,1830,1400,1830,1000,1400,1000,,,,,37.53929741988503,126.72843150156311
인천광역시 계양구 계양대로 27,N,0,"성지초교 옆, 홈플러스 4층.",미플러스치과의원,032-547-8090,,1900,1000,2100,1000,1900,1000,1900,1000,2100,1000,1500,1000,,,,,37.5261753414104,126.72133500505724
"인천광역시 계양구 아나지로 195, 2층 (효성동)",N,0,뉴서울5차아파트 옆 훼미리마트 건물.,박경렬치과의원,032-545-0404,,1900,1000,1900,1000,1900,1000,1900,1000,1900,1000,1400,1000,,,,,37.525510160141145,126.71348300812963
인천광역시 계양구 아나지로417번길 21 (작전동),N,0,현대2차아파트 2단지 정문 건너편 파리바게트건물 3층,박민호치과의원,032-546-7817,,1900,1000,1900,1000,1900,1000,1900,1000,1900,1000,1400,1000,,,,,37.52746548802171,126.73854401341083
"인천광역시 계양구 계양산로 219, 2층,3층 (병방동)",N,0,롯데리아 옆건물.,박진천치과의원,032-546-6644,,1900,0930,1900,0930,1900,0930,1900,0930,1900,0930,1300,0930,,,,,37.54761752734997,126.74017800668633
"인천광역시 계양구 장제로 999, 2층 (박촌동)",N,0,박촌역 4번 출구.,박촌에이스치과의원,032-515-7522,,1830,0930,1830,0930,1830,0930,1830,0930,1830,0930,1430,0930,,,,,37.55492205093345,126.74520805372079
"인천광역시 계양구 주부토로363번길 28, 201호 (작전동, 동보1차아파트상가)",N,0,동보1차아파트 상가2층.,반석치과의원,032-541-2744,,1900,0930,1900,0930,2100,0930,1900,0930,1900,0930,1530,0930,,,,,37.525852805291926,126.72671202388442
"인천광역시 계양구 안남로 577, 201호 (효성동, 대림아파트상가동)",N,0,대림아파트 상가 2층,베스트치과의원,032-555-2876,,1830,0930,1830,0930,1830,0930,1830,0930,1830,0930,1300,0930,,,,,37.5345296371,126.709986359
인천광역시 계양구 계양대로 56 (작전동),N,0,"작전역 4번출구, 아웃백스테이크하우스 건물 2층.",보스턴웰치과의원,032-549-2875,,1900,0930,2100,0930,1900,0930,2100,0930,1900,0930,1600,0930,,,,,37.52880093989245,126.72366927649466
인천광역시 계양구 장제로 876,N,0,임학역 인근 학마을서해아파트 상가 3층.,사랑이가득한치과의원,032-553-2818,,1830,0930,1830,0930,1830,0930,1830,0930,1830,0930,1330,0930,,,,,37.544935019335476,126.73904844546553
"인천광역시 계양구 주부토로 469 (작전동, 원광빌딩)",N,0,삼천리아파트 맞은편 건물 3층.,서광원 푸른솔치과의원,032-546-0671,,1830,1000,2100,1000,1830,1000,1830,1000,1830,1000,1400,0900,,,,,37.536092816183185,126.72775292543393
"인천광역시 계양구 계산새로65번길 17, 502호 (계산동, 계양메디칼)",N,0,태산아파트 맞은편,서울명문치과의원,032-556-2882,,1830,0930,1830,0930,1830,0930,1830,0930,1830,0930,1400,0900,,,,,37.5398342768636,126.73531884606663
"인천광역시 계양구 계산새로 71, 하이베라스빌딩 B동 2층 206호 (계산동)",N,0,계산동 홈플러스 4층.,서울플라워치과교정과치과의원,032-541-0777,,1900,1030,2000,1030,1900,1030,1900,1030,1900,1030,1700,1030,,,,,37.53947087662135,126.73618607654474
"인천광역시 계양구 장제로 910, 5층 (병방동)",N,0,,서울하이치과의원,032-299-2875,,1900,1000,1900,1000,2100,1000,1900,1000,1900,1000,1400,1000,,,,,37.5476412912,126.7411499588
"인천광역시 계양구 효서로 230 (작전동, 삼성프라자)",N,0,"한마음병원 맞은편, 사우나 건물 2층",세느치과의원,032-556-1370,,1900,1000,2000,1000,1900,1000,2000,1000,1900,1000,1300,1000,,,,,37.5277546375943,126.72165491366395
인천광역시 계양구 장제로 1004,N,0,수자인아파트 상가 건물,수자인치과의원,032-543-9957,,1800,0930,1800,0930,1800,0930,1800,0930,1800,0930,1300,0930,,,,,37.555354573140455,126.74585654995448
"인천광역시 계양구 장제로 822, 지하2층 (계산동, 롯데마트)",N,0,계산동 롯데마트 지하 2층.,스마일수치과의원,032-544-2875,,1830,1000,1830,1000,1830,1000,1830,1000,1830,1000,1530,1000,1530,1000,1530,1000,37.54086658049799,126.73601670671675
"인천광역시 계양구 계양문화로 96, 4층 (용종동, 강북프라자)",N,0,"홈플러스 맞은편, 국민은행 건물 4층.",스마일치과의원,032-541-0275,,1830,1000,1830,1000,1830,1000,1830,1000,1830,1000,1530,1000,,,,,37.53922882459283,126.73713852906951
"인천광역시 계양구 장제로 672 , 302호 (작전동, 신영프라자)",N,0,화전사거리 유민한방병원 옆건물 3층.,스마일탑치과의원,032-542-7588,,1830,1000,2100,1000,1830,1000,1830,1000,1830,1000,1400,1000,,,,,37.52780653427625,126.7337699496682
"인천광역시 계양구 효서로 53, 302호 (효성동, 현대프라자)",N,0,북인천여중 맞은편,스마트치과의원,032-543-2825,,1830,0930,1730,0930,1830,0930,1830,0930,1830,0930,1300,0900,,,,,37.527721061481955,126.70177566774535
"인천광역시 계양구 계양대로 178, 3층 일부호 (계산동)",N,0,,시카고치과의원,032-549-2275,,1900,1000,2030,1000,1300,1000,2030,1000,1900,1000,1400,1000,,,,,37.5397074014,126.7230101461
"인천광역시 계양구 오조산공원로 22, 305호 (용종동, 계양프라자)",N,0,홈플러스 옆 건물.,신동인치과의원,032-541-1031,,1800,1000,1800,1000,1800,1000,1800,1000,1800,1000,1300,1000,,,,,37.53970197058698,126.73719344270304
"인천광역시 계양구 계양대로 101, 204호 (작전동, 삼성프라자)",N,0,"작전역 주변, 인천안경백화점 건물 2층.",신세계치과의원,032-545-2275,,1900,1000,1900,1000,1900,1000,2100,1400,1900,1000,,,,,,,37.532813490198755,126.72208529850206
인천광역시 계양구 경명대로 1138,N,0,계산주공아파트 정문 주변.,실로암치과의원,032-543-6833,,1730,0930,1730,0930,1730,0930,1730,0930,1730,0930,1230,0930,,,,,37.5427958058747,126.7333168247168
"인천광역시 계양구 오조산공원로 22, 404호 (용종동, 계양프라자)",N,0,홈플러스 맞은편.,아름다운치과교정과치과의원,032-551-7528,,1830,1000,1830,1000,1830,1000,1830,1000,1830,1000,1300,1000,,,,,37.5396368577598,126.73727927506187
"인천광역시 계양구 계양대로 44, 2층 (작전동, 덕용프라자)",N,0,신대사거리 즐거운온누리약국 건물 2층.,안진수치과의원,032-549-7575,,1830,0930,1830,0930,1830,0930,1830,0930,1830,0930,1300,0930,,,,,37.527724606306236,126.72283387492324
"인천광역시 계양구 오조산로 1, 402호 (작전동)",N,0,,알프스치과의원,032-545-3719,,1830,1030,1830,1030,1830,1030,1830,1030,1830,1030,1300,1030,,,,,37.53093664161612,126.73781361866994
"인천광역시 계양구 계양대로 94, 9층 (작전동, 영화빌딩)",N,0,"작전역 1번출구, 우리은행 건물 영화빌딩 9층",양심선언치과의원,032-543-7522,,1830,0930,1830,0930,2030,1400,1830,0930,1830,0930,1330,0930,,,,,37.53211858546857,126.7229872003306
인천광역시 계양구 봉오대로 739 (작전동),N,0,무지개아파트 맞은편 한길온누리약국 건물 2층.,엄인석치과의원,032-545-2041,,1830,0930,1830,0930,1830,0930,1830,0930,1830,0930,1300,0930,,,,,37.530719160009404,126.73125140032654
"인천광역시 계양구 용종로 8, 2층 201호 (계산동)",N,0,,연세선치과의원,032-467-2804,,1900,1000,2100,1000,1900,1000,1900,1000,1900,1000,1400,1000,,,,,37.53454864071424,126.74144412924877
"인천광역시 계양구 장제로875번길 1, 202호 (임학동, 대산빌딩)",N,0,임학역 대한약국 건물 2층.,연세유앤이치과의원,032-555-2871,,1900,1000,1900,1000,1900,1000,2100,1000,1900,1000,1400,1000,,,,,37.545252969252665,126.73839040168532
"인천광역시 계양구 주부토로 479, 3층 (계산동)",N,0,"삼천리아파트 주변, 진약국 건물 3층.",연세차치과의원,032-543-2875,,1900,0900,1900,0900,1900,0900,1900,0900,1900,0900,1600,0900,,,,,37.53698649378862,126.7277067018996
"인천광역시 계양구 경명대로1071번길 6-4, 2층 (계산동,신세계빌딩)",N,0,"계산역 4번출구, 비전샘물교회 옆 건물 2층.",연세치과의원,032-545-7472,,1800,0930,1800,0930,1800,0930,1800,0930,1800,0930,1230,0930,,,,,37.543589125888644,126.72620148959368
"인천광역시 계양구 장제로 676, 4층 401호 (작전동, 초선빌딩)",N,0,,연세허브치과의원,032-546-7528,,1830,0930,1830,0930,1830,0930,2030,0930,1830,0930,1400,0930,,,,,37.52826045063962,126.73368688142449
"인천광역시 계양구 경명대로 1074, 5층 (계산동, 삼환빌딩)",N,0,"삼환빌딩 5층. 점심시간 13:00-14:00
",유디계산치과의원,032-556-8008,,1830,0930,1830,0930,1830,0930,1830,0930,1830,0930,1430,0930,,,,,37.5430954285917,126.72622024764786
"인천광역시 계양구 효서로 266, 2,3층 (작전동)",N,0,,유디치과의원,032-552-6500,,1830,0930,1830,0930,2000,0930,1830,0930,1830,0930,1430,0930,,,,,37.52780871358208,126.72566976412653
"인천광역시 계양구 계산새로 93, 2층 202호 (용종동, 밀레니엄프라자)",N,0,삼보아파트 상가 3층.,유명치과의원,032-541-6780,,1830,0930,1830,0930,1830,0930,1830,1400,1830,0930,1300,0930,,,,,37.538125943734684,126.73851110843282
"인천광역시 계양구 경명대로 1096, 4층 (계산동)",N,0,계산역 1번 출구,이데이치과의원,032-551-2275,,1900,1000,1900,1000,1900,1000,1900,1000,1900,1000,1600,1000,,,,,37.542962621479674,126.72879953699689
"인천광역시 계양구 주부토로 475, (계산동)",N,0,"삼천리아파트 대각선 맞은편, 버스정류장 뒷 건물 2층.",이사랑치과의원,032-552-2828,,1400,1000,1400,1000,1400,1000,1400,1000,1400,1000,1400,1000,,,,,37.536538069250994,126.7278248711969
인천광역시 계양구 계양대로 215,N,0,계산삼거리 신도브래뉴아파트 상가 2층.,이승택치과의원,032-541-2828,,1900,1000,1900,1000,1900,1000,1900,1000,1900,1000,1400,1000,,,,,37.543098283259326,126.72232175384443
인천광역시 계양구 효서로 233-1 3층,N,0,,이엘치과의원,032-547-8879,,2000,0930,1830,0930,2000,0930,1830,1400,1830,0930,1400,0930,,,,,37.5282116565,126.72189871450001
"인천광역시 계양구 경명대로 1116, 202호 (계산동, 하나상가)",N,0,계산하나아파트 상가 2층.,이원근치과의원,032-541-8585,,1830,1000,1830,1000,1830,1000,1830,1000,1830,1000,1400,1000,,,,,37.54275733439174,126.73122288389444
"인천광역시 계양구 용종로 97 (용종동, 신대진아파트단지내상가)",N,0,신대진아파트 상가 2층.,이종수치과의원,032-553-7528,,1900,1000,1900,1000,1900,1000,1900,1000,1900,1000,1400,1000,,,,,37.54139066354417,126.74155471540159
"인천광역시 계양구 효서로 300, 2층 (작전동, 삼호빌딩)",N,0,"화전초교 대각선으로 맞은편, 건강도우미약국 옆 건물 2층.",이튼치과의원,032-549-8275,,1900,0930,2100,0930,1900,0930,1900,0930,2100,0930,1400,0930,,,,,37.527872059493106,126.7296970082968
"인천광역시 계양구 장제로1009번길 2, (박촌동)",N,0,"한화꿈에그린아파트 맞은편, 성모당약국건물 1층.",이편한치과의원,032-521-2119,,1800,1000,1800,1000,1800,1000,1900,1000,1800,1000,1300,1000,,,,,37.55587121688183,126.74540174432336
"인천광역시 계양구 계산새로 71, D동 204,205호 (계산동, 하이베라스)",N,0,"홈플러스 맞은편, 하이베라스 D동 2층",인서울치과의원,032-566-2875,,1830,0930,1830,0930,1830,0930,1830,0930,1830,0930,1400,0930,,,,,37.53878075794891,126.73640427574509
"인천광역시 계양구 경명대로 1090, 201호~205호 (계산동, 계산메가타운)",N,0,계산역2번출구 계산메가타운 205호,인천W 치과의원,032-541-2878,,2100,1000,1900,1000,1900,1000,2100,1000,1900,1000,1600,1000,,,,,37.543000430524316,126.72825135044815
인천광역시 계양구 계산새로 71 (계산동),N,0,"홈플러스 맞은편, 하이베라스 건물 C동 2층.",인천어린이치과의원,032-553-5275,,1830,1000,1830,1000,1830,1000,1830,1000,1830,1000,1600,1000,,,,,37.53837342209488,126.73636498513766
인천광역시 계양구 경명대로 1049 (계산동),N,0,"계산삼거리, 농협 건물 2층",인치과의원,032-545-2875,,1830,0930,1830,0930,1830,0930,1830,0930,1830,0930,1300,0930,,,,,37.543922584619594,126.72353319268821
인천광역시 계양구 새벌로 120 (효성동),N,0,효성남초교 대각선 맞은편.,인치과의원,032-542-2812,,1830,0930,1830,0930,1830,0930,1830,0930,1830,0930,1300,0930,,,,,37.527689812999185,126.71714805136521
"인천광역시 계양구 장제로 903, 3층 (임학동)",N,0,"병방초교 맞은편, 경희한의원 건물 3층.",임선희치과의원,032-544-2828,,1830,1000,1830,1000,1830,1000,1830,1000,1830,1000,1300,1000,,,,,37.547363739529,126.74031128574046
인천광역시 계양구 계양대로 45 (작전동),N,0,홈플러스에서 부개천사거리 던킨도너츠 2층,임창하치과의원,032-547-2196,,1830,0930,1830,0930,1830,0930,1830,0930,1830,0930,1300,0930,,,,,37.52778621913634,126.7222136879248
"인천광역시 계양구 계양산로 194, 4층 (임학동)",N,0,,임학현치과의원,032-555-2080,,1830,0930,1830,0930,1830,0930,1830,0930,1830,0930,1330,0930,,,,,37.54735166550879,126.73729443975806
인천광역시 계양구 안남로 548,N,0,뉴서울2차아파트 맞은편 한사랑동물병원건물 3층,정우현치과의원,032-547-2875,,1800,1000,1800,1000,1800,1000,1800,1000,1800,1000,1200,1000,,,,,37.532118180760456,126.71085440990808
"인천광역시 계양구 계양대로 85, 2층 (작전동)",N,0,"작전역 8번 출구, 작전메디칼약국 건물 2층.",정원치과의원,032-545-6422,,1830,0930,1830,0930,1830,0930,1830,0930,1830,0930,1400,0930,,,,,37.53137684396659,126.72227504192368
대구광역시 달서구 용산로 235 (용산동),N,0,,용산제일치과의원,053-521-2875,,1830,0930,1830,0930,1830,0930,1830,0930,1830,0930,1400,0930,,,,,35.858505555555553,128.530163888888893
"부산광역시 연제구 월드컵대로 125, 301호 (연산동, 더웰타워)",N,0,1호선 연산역 4번 출구/더펠타워 301호,서울MS치과의원,051-866-2275,,1830,1000,1830,1000,1830,1000,2000,1000,1830,1000,1400,1000,,,,,35.185335705890544,129.08187634738508
"울산광역시 울주군 온양읍 대운길 27, 2층",N,0,온양 써니마트 2층,e열린치과의원,052-239-7575,,1900,0930,1900,0930,1900,0930,1900,0930,1900,0930,1300,0930,,,,,35.41292681082345,129.28070311584673
"울산광역시 울주군 온산읍 덕남로 5, 2층",N,0,,e튼튼치과의원,052-237-2208,,1830,0930,2030,0930,1830,0930,2130,1400,1830,0930,1300,0930,,,,,35.4333776972409,129.31177702102477
"울산광역시 울주군 언양읍 헌양길 84, 3층",N,0,언양초등학교 옆,강남치과의원,052-262-2889,,1830,0930,1830,0930,1830,0930,1830,0930,1830,0930,1400,0930,,,,,35.56509861103386,129.12232739056938
"울산광역시 울주군 범서읍 구영로 104, 2층",N,0,,구영연세뷰치과의원,052-212-2875,,1900,1000,2100,1000,1900,1000,2100,1430,1900,1000,,,,,,,35.57320475114766,129.24164256337374
울산광역시 울주군 언양읍 동문길 66,N,0,,김치과의원,052-264-4647,,1830,0930,1830,0930,,,1830,0930,1830,0930,1300,0930,,,,,35.56545272015237,129.12452913343785
울산광역시 울주군 온양읍 온양로 101,N,0,온양 농협 맞은편,노엘치과의원,052-238-2875,,1900,0930,1900,0930,1900,0930,1900,0930,1900,0930,1300,0930,,,,,35.41026728639328,129.28296596191956
"울산광역시 울주군 온양읍 온양로 105, 6층",N,0,,뉴욕스마트치과의원,052-707-8275,,1900,0930,2100,0930,1900,0930,2100,0930,1900,0930,1400,0930,,,,,35.4102949883,129.2834070102
"울산광역시 울주군 언양읍 반구대로 826, 2층",N,0,언양시외터미널 맞은편,뉴욕플란트치과의원,052-700-2804,,1900,0930,2100,0930,1900,0930,2100,0930,1900,0930,1400,0930,,,,,35.5634473425,129.127727895
울산광역시 울주군 범서읍 구영로 94,N,0,푸르지오2차 아파트 맞은편 농협 4층,니즈연합치과의원,052-245-2875,,1800,0930,1800,0930,1800,0930,,,1800,0930,1400,0930,,,,,35.57426157646894,129.24121318695865
"울산광역시 울주군 언양읍 동문길 65, 5층",N,0,,더젊어지는치과의원,052-274-1275,,1830,0930,1830,0930,1830,0930,1830,0930,1830,0930,1300,0930,,,,,35.5653942059,129.1250443749
울산광역시 울주군 구영로 78 (범서읍) ,N,0,"서진프라자 4층, 부산은행 건물",미라인치과의원,052-211-2804,,1900,0930,1900,0930,1300,0930,1900,0930,1900,0930,1400,0930,,,,,35.575449972558125,129.2406610140496
"울산광역시 울주군 범서읍 구영로 100, 501호 (구영프라자)",N,0,구영프라자 501호,미소를심는치과의원,052-243-5900,,1900,0930,2000,0930,1900,0930,1900,0930,1900,0930,1300,0930,,,,,35.57362779455888,129.2413764141049
울산광역시 울주군 범서읍 천상중앙길 95,N,0,천상지구,미소치과의원,052-211-2806,,1900,0930,1900,0930,1900,0930,1900,0930,1900,0930,1400,0930,,,,,35.56248266831405,129.22604218994917
"울산광역시 울주군 온산읍 덕신로 279, 수산업협동조합(온산점) 5층",N,0,,바른정치과의원,052-708-7528,,1900,1000,1900,1000,1900,1000,2030,1000,1900,1000,1400,1000,,,,,35.4342397274,129.3119337914
"울산광역시 울주군 온산읍 덕남로 31, 2층",N,0,덕신정형외과 2층,박치과의원,052-237-8811,,1900,0930,1900,0930,2100,0930,1900,0930,1900,0930,1300,0930,,,,,35.43205891172587,129.31025081617614
"울산광역시 울주군 언양읍 헌양길 175, 2층",N,0,"한라빌리지 아파트 맞은편, 우리아동병원건물 2층",봉주르치과의원,052-254-7528,,1930,0900,1930,0900,1930,0900,1930,0900,1700,0900,,,,,,,35.564834080121315,129.12287687824806
"울산광역시 울주군 언양읍 헌양길 12, 2층",N,0,,삼성치과의원,052-263-2830,,1900,0930,1900,0930,1900,0930,1900,0930,1900,0930,1400,0930,,,,,35.564234875473105,129.12695845725253
"울산광역시 울주군 범서읍 장검길 3, 2층",N,0,,서영희치과의원,052-277-2879,,1800,0930,1800,0930,1800,0930,1800,0930,1800,0930,1300,0930,,,,,35.55774903622682,129.25559127072938
울산광역시 울주군 언양읍 헌양길 18,N,0,,서울박치과의원,052-263-2879,,1900,1000,2100,1000,1900,1000,2100,1000,1900,1000,,,,,,,35.56445686857584,129.1266334794962
울산광역시 울주군 온양읍 연안3길 1,N,0,,서울유니온치과의원,052-239-0522,,1830,0930,2000,0930,1830,0930,2000,0930,1830,0930,1300,0930,,,,,35.40909785401764,129.28248617387996
울산광역시 울주군 온산읍 덕신로 267 (2층4호.3층),N,0,,성모치과의원,052-238-2895,,1930,0930,1930,0930,1930,0930,1930,0930,1900,0930,1300,0930,,,,,35.433443989165916,129.3104856294461
"울산광역시 울주군 청량읍 덕하로 218, 1층",N,0,,소망치과의원,052-265-2879,,1800,0930,1800,0930,1800,0930,,,1800,0930,1200,0930,,,,,35.490581290367388,129.304696853116752
울산광역시 울주군 범서읍 대리2길 39,N,0,,신미치과의원,052-248-7080,,1900,0930,1900,0930,1900,0930,1900,1400,1900,0930,1300,0930,,,,,35.56964025601814,129.2457032429656
울산광역시 울주군 온산읍 덕망로 7-2,N,0,덕신우체국 맞은편 나이스마트 옆건물,아리아치과의원,052-238-2870,,1900,1000,1900,1000,1900,1000,1900,1000,1900,1000,,,,,,,35.43422267834185,129.30849382406478
울산광역시 울주군 범서읍 구영로 142,N,0,,애플치과의원,052-248-2882,,2000,1000,2000,1000,2000,1000,2000,1000,2000,1000,1200,1000,,,,,35.57006128231758,129.2430284330356
울산광역시 울주군 언양읍 헌양길 30,N,0,,언양치과의원,052-264-0265,,1900,0930,1900,0930,1900,0930,1900,0930,1900,0930,1300,0930,,,,,35.56480207556865,129.1258618067127
"울산광역시 울주군 언양읍 남문길 22, 2층",N,0,,언양탑치과의원,052-254-2879,,1900,0930,1900,0930,1900,0930,1900,0930,1900,0930,1230,0930,,,,,35.56480879864301,129.12261530507328
"울산광역시 울주군 언양읍 반구대로 820, 3층",N,0,,오복치과의원,052-254-2875,,1800,0910,1800,0910,1800,0910,1800,0910,1800,0910,1330,0910,,,,,35.564330555555557,129.126236111111098
울산광역시 울주군 온양읍 연안2길 2,N,0,,온양치과의원,052-237-2875,,1830,0930,1830,0930,1830,0930,1830,1400,1830,0930,1400,0930,,,,,35.409920922214475,129.28251311757504
울산광역시 울주군 온양읍 온양로 98,N,0,,온양하나치과의원,052-237-2808,,1830,0930,2000,0930,1830,0930,2000,0930,1830,0930,1300,0930,,,,,35.41012077260264,129.28223698280524
울산광역시 울주군 범서읍 구영로 86,N,0,,우리치과의원,052-248-5528,,1900,1000,1900,1000,,,1900,1000,1900,1000,1400,1000,,,,,35.57482797784057,129.2409907292415
울산광역시 울주군 범서읍 천상중앙길 76,N,0,,우치과의원,052-244-2830,,1830,0930,1830,0930,1830,0930,1830,0930,1830,0930,1530,0930,,,,,35.563116019024875,129.22812526739906
"울산광역시 울주군 온산읍 덕신로 266, 3층",N,0,,울산플러스치과의원,052-237-4889,,1830,0930,1830,0930,1830,0930,1700,0930,1830,0930,1300,0930,,,,,35.43350949386557,129.3103990807084
"울산광역시 울주군 범서읍 천상중앙길 86, 2층",N,0,천상 한라 아파트 맞은편,이건우치과의원,052-242-0330,,1900,0930,1900,0930,1900,0930,1900,0930,1900,0930,1300,0930,,,,,35.56276102471067,129.2232621079031
울산광역시 울주군 범서읍 장검길 91,N,0,문수산 더 샵 아파트 정문 맞은편 위치,장검에이스치과의원,052-225-2882,,1900,1000,1900,1000,1900,1000,2030,1000,1900,1000,1400,1000,,,,,35.551362484516645,129.2519149753271
울산광역시 울주군 언양읍 동문길 72,N,0,,전치과의원,052-262-0975,,1730,0930,1730,0930,1730,0930,1730,0930,1730,0930,1230,0930,,,,,35.564994444444444,129.124544444444439
울산광역시 울주군 언양읍 헌양길 37 (지역농협),N,0,언양시외버스 터미널 위쪽.,정겨운치과의원,052-254-3377,,1830,0900,2000,0900,1830,0900,2000,1400,1830,0900,1300,0900,,,,,35.5647020488104,129.1251974794185
울산광역시 울주군 언양읍 헌양길 24,N,0,,조은치과의원,052-225-2275,,1900,1000,1900,1000,2000,1000,1900,1400,1900,1000,1300,1000,,,,,35.564616577748495,129.1261612843164
울산광역시 울주군 범서읍 점촌4길 26,N,0,,진치과의원,052-211-6395,,1830,0930,1830,0930,1830,0930,1830,0930,1830,0930,1300,0930,,,,,35.570441666666667,129.238030555555554
울산광역시 울주군 온산읍 덕신로 256,N,0,"온산우체국좌측 200미터 지점 백장미제과2층 ,5층건물",천승욱치과의원,052-237-1789,,1830,0930,1830,0930,1830,0930,2100,1400,1830,0930,1300,0930,,,,,35.433399999999999,129.309422222222224
울산광역시 울주군 온산읍 덕신로 289,N,0,온산읍사무소와 현대자동차사이,킴플란트치과의원,052-936-2875,,1800,1000,1900,1000,1800,1000,1900,1000,1230,1000,,,,,,,35.43433816550123,129.31311781441184
울산광역시 울주군 삼남면 반구대로 163 (삼성SDI주식회사사업장내),N,0,삼성SDI 내 문화센트2층,플러스치과의원,055-380-2260,,1800,0930,1800,0930,1800,0930,1800,0930,1800,0930,1300,0930,,,,,35.51730839382046,129.09176037103597
울산광역시 울주군 청량면 삼정로 92-12 (24-202 (쌍용하나빌리지상가)),N,0,쌍용하나빌리지 아파트 입구,하나치과의원,052-224-2826,,1900,1000,1900,1000,1900,1000,1900,1000,1900,1000,,,,,,,35.495224415756894,129.23817892721814
울산광역시 울주군 온산읍 덕신로 273,N,0,,하얀치과의원,052-237-2804,,1900,1000,1900,1000,1900,1000,1900,1000,1900,1000,1300,1000,,,,,35.434152777777776,129.311313888888890
강원도 양양군 양양읍 양양로 44,N,0,빵과함께 하는 사람들(빵집) 앞. cu편의점 2층,연세이튼치과의원,033-673-2875,,1830,0930,1830,0930,1830,0930,1830,0930,1830,0930,1300,0930,,,,,38.076426207663985,128.62379520165257
"경기도 평택시 탄현로 58, 3층 (서정동)",N,0,,서울매일치과의원,031-662-2882,,1900,0930,1900,0930,2100,0930,1900,0930,1900,0930,1400,0930,1500,1100,,,37.0576192761058,127.05395726415568
"인천광역시 남동구 만수로 43, 3층 (만수동, 가야쇼핑)",N,0,"새말초교 맞은편, 만수종합쇼핑 옆 건물 3층.",선치과의원,032-471-7528,,1900,1000,1900,1000,1900,1000,1900,1000,1900,1000,1400,1000,,,,,37.46029398774931,126.73324995038516
경기도 이천시 영창로 223  (창전동),N,0,,이천치과의원,031-638-2007,,1900,1000,1900,1000,1900,1000,1900,1000,1900,1000,1330,1000,,,,,37.28093703297432,127.44771680834455
"경기도 이천시 중리천로 76, 3층 (중리동, 이천라온팰리스)",N,0,,이탑치과의원,031-632-7528,,2000,1000,2000,1000,1900,1000,2000,1000,1900,1000,1400,1000,,,,,37.27844646871387,127.44583487552467
"경기도 이천시 증신로291번길 106 1층 (송정동,송정프라자)",N,0,,이편한치과의원,031-631-2831,,1900,1000,1900,1000,2100,1000,1900,1000,1900,1000,1300,1000,,,,,37.295720981931495,127.43472808493295
경기도 이천시 영창로 214,N,0,,장세훈치과의원,031-637-5006,,1830,0930,1830,0930,1830,0930,1830,0930,1830,0930,1500,0930,,,,,37.28071508890157,127.4463578808724
"경기도 이천시 중리천로 71, 2층 (창전동)",N,0,,참건강의료생협인플란트치과의원,031-637-0285,,1800,0930,1800,0930,1800,0930,1800,0930,1800,0930,1300,0930,,,,,37.27946563668172,127.44462944123941
경기도 이천시 영창로 156 (관고동),N,0,,참좋은치과의원,031-635-2825,,1830,0930,1830,0930,1830,0930,1830,0930,1830,0930,1300,0930,,,,,37.281636111111112,127.439661111111107
"경기도 이천시 이섭대천로 1203, 2층 (중리동, 하나빌딩)",N,0,,청아치과의원,031-638-6938,,1830,0930,2000,0930,1830,0930,2100,0930,1830,0930,1530,0930,,,,,37.277761049841445,127.44650017435783
경기도 이천시 이섭대천로 1200,N,0,,푸른치과의원,031-635-6349,,1800,0930,1800,0930,1800,0930,1800,0930,1800,0930,1300,0930,,,,,37.27682394014469,127.44697542088682
경기도 이천시 영창로 201-3 (창전동),N,0,,플랜트치과의원,031-637-0028,,1800,0930,2100,1400,1800,0930,2000,1300,1800,0930,1400,0900,,,,,37.281247222222220,127.444719444444445
경기도 이천시 부발읍 경충대로 2091 (하이닉스 11동),N,0,,하이플란트치과의원,031-635-2871~2,,1800,0830,2100,0830,1800,0830,1800,0830,1800,0830,,,,,,,37.25214681946939,127.4866475921253
"경기도 이천시 어재연로 36, (창전동)",N,0,,한국치과의원,031-637-1060,,1800,1000,1800,1000,1800,1000,1800,1000,1800,1000,1400,1000,,,,,37.279611111111109,127.445327777777777
경기도 이천시 신둔면 경충대로 3157 3층 ( 청수빌딩),N,0,청수빌딩3층,함께하는중앙치과의원,031-631-2075,,2000,0930,1830,0930,1830,0930,2000,0930,1830,0930,1300,0900,,,,,37.30811653387235,127.40181648622504
"경기도 이천시 부발읍 무촌로 125, 1층",N,0,,행복치과의원,031-631-2726,,1830,0930,1930,0930,1830,0930,1300,0930,1930,0930,1300,0930,,,,,37.28447685122293,127.48782771924587
경기도 이천시 이섭대천로 1215,N,0,,현대치과의원,031-635-2439,,1800,0900,1800,0900,1800,0900,1800,0900,1800,0900,1300,0900,,,,,37.2788073743932,127.44666237127807
경기도 이천시 이섭대천로 1229,N,0,,화이트e치과의원,031-637-8866,,1800,0930,1800,0930,1800,0930,1800,0930,1800,0930,1230,0930,,,,,37.280043604929865,127.44665612038598
경상남도 창녕군 영산면 영산계성로 59,N,0,영산사거리 부근,가나치과의원,055-521-2208,,1800,0900,1800,0900,1800,0900,1800,0900,1800,0900,1300,0900,,,,,35.45652651810195,128.52619182851834
경상남도 창녕군 창녕읍 명덕로 66-1,N,0,명덕초등학교 맞은편,경남치과의원,055-532-0018,,1730,0900,1730,0900,1730,0900,1200,0900,1730,0900,1200,0900,,,,,35.542527313171114,128.49644615348478
"경상남도 창녕군 남지읍 낙동로 519, 2층",N,0,,굿스마일치과의원,055-521-2885,,1800,0930,2000,0930,1800,0930,2000,0930,1800,0930,1300,0930,,,,,35.389325794407306,128.48131180459157
경상남도 창녕군 창녕읍 명덕로 47,N,0,한성병원 부근,김민성치과의원,055-533-5237,,1720,0930,1720,0930,1720,0930,,,1720,0930,1130,0930,,,,,35.54321644811984,128.4946506140548
"경상남도 창녕군 남지읍 남지중앙로 112, 302호 (광산빌딩3층)",N,0,,남지치과의원,055-536-7528,,1800,0930,1800,0930,1800,0930,1800,0930,1800,0930,1300,0930,,,,,35.39202416675769,128.48174416021598
"경상남도 창녕군 창녕읍 우포2로 1215, 2층",N,0,,미소부부치과의원,055-533-2871,,1800,0900,1800,0900,1800,0900,2000,0900,1800,0900,1300,0900,,,,,35.5435808062,128.4889600359
경상남도 창녕군 남지읍 선창길 6-2,N,0,남지지구대 맞은편,박치과의원,055-526-5230,,1730,0930,1730,0930,1730,0930,1730,0930,1730,0930,,,,,,,35.388778118381175,128.48177469466617
"강원도 삼척시 진주로 19, 2층 201,202호 (남양동)",N,0,남양동 현대타운2층,중앙치과의원,033-572-2828,,1600,0900,1600,0900,1600,0900,1600,0900,1600,0900,1300,0900,,,,,37.441858036433715,129.1638676085627
경상남도 창녕군 남지읍 동포로 3,N,0,,서울민치과의원,055-521-2882,,1800,0900,1800,0900,1800,0900,2000,1400,1800,0900,1330,0900,,,,,35.3894579994979,128.48170161620214
경상남도 창녕군 창녕읍 명덕로 28-1,N,0,,연세고운치과의원,055-532-2875,,1830,0930,2100,0930,1830,0930,1830,0930,1830,0930,,,,,,,35.54258590076102,128.49245685547885
"경상남도 창녕군 창녕읍 명덕로 54,",N,0,신내과 맞은편,연합치과의원,055-532-0275,,1800,0930,1800,0930,1800,0930,1800,1400,1800,0930,1300,0930,,,,,35.54265690772582,128.4951618590706
경상남도 창녕군 영산면 영산중앙길 1,N,0,영산터미널 부근,영산치과의원,055-536-1300,,1800,0900,1800,0900,1800,0900,1800,0900,1800,0900,1300,0900,,,,,35.456693427658095,128.52696158922345
경상남도 창녕군 창녕읍 군청길 18,N,0,,창녕보스톤치과의원,055-532-2871,,1730,0900,1730,0900,1730,0900,1730,0900,2000,0900,1300,0900,,,,,35.542516543118644,128.49207512328553
경상남도 창녕군 창녕읍 명덕로 3-4,N,0,오리정사거리 부근,하나치과의원,055-533-4875,,1800,0930,1800,0930,1800,0930,1800,0930,1800,0930,,,,,,,35.54318867198163,128.4898999225967
경기도 수원시 팔달구 효원로 257 (인계동),N,0,홈플러스 4층,플러스치과의원,031-221-2846,,2000,1000,2000,1000,2000,1000,2000,1000,2000,1000,1800,1000,1800,1000,1800,1000,37.263050000000000,127.029449999999997
경기도 이천시 중리천로 58 (중리동),M,0,,이천 연세스위트치과병원,031-636-7522,,1900,1000,2030,1000,1900,1000,2030,1000,1900,1000,1500,1000,,,1900,1000,37.279644013003434,127.44415690611889
경기도 이천시 경충대로 2664 (중리동),N,0,,H플란트치과의원,031-635-2833,,1830,0930,1830,0930,1830,0930,1830,0930,1830,0930,1400,0930,,,,,37.2765559172,127.4372066702
경기도 이천시 이섭대천로 1437,N,0,,골드치과의원,031-637-2824,,1830,0930,1830,0930,2000,1400,1830,0930,1830,0930,1400,0930,,,,,37.29603208729515,127.45689164765501
"경기도 이천시 이섭대천로 1233, 301호 (창전동,화창빌딩)",N,0,,곽경호치과의원,031-635-6640,,1800,0900,1800,0900,1800,0900,1800,0900,1800,0900,1500,0900,,,,,37.28035833333333,127.44652777777777
"경기도 이천시 부발읍 대산로 476-8, 3층",N,0,,굿모닝치과의원,031-636-2872,,1830,0930,1830,0930,1830,0930,1830,0930,1830,0930,1300,0930,,,,,37.25968450578949,127.47922447347082
"경기도 이천시 영창로227번길 69, 2층 (창전동)",N,0,,금강치과의원,031-638-2802,,1800,0900,1800,0900,1800,0900,1800,0900,1800,0900,1500,0930,,,,,37.283962182318724,127.44736931299597
