주소,분류,응급여부,간이약도,이름,Tel,Tel_E,월close,월open,화close,화open,수close,수open,목close,목open,금close,금open,토close,토open,일close,일open,공close,공open,위도,경도
전라북도 군산시 오룡로 54,C,0,명산시장 입구,이외과의원,063-462-4565,,1730,0900,1730,0900,1730,0900,1730,0900,1730,0900,1230,0900,,,,,35.9820171768081,126.70990227719484
제주특별자치도 서귀포시 중앙로 25-3 (서귀동),C,0,,대림외과의원,064-764-6362,,1800,0830,1800,0830,1800,0830,1800,0830,1800,0830,1300,0830,,,1300,0830,33.24708938144887,126.561538517071
"인천광역시 중구 운남로 167, 2~3층 (운남동)",C,0,용종자이아파트 부근 새마을금고 인근,서울외과의원,032-746-7582,,1900,0900,1900,0900,1900,0900,1900,0900,1900,0900,1500,0900,,,,,37.49263806794504,126.53295651461293
경상남도 창원시 성산구 동산로 124  (상남동),C,0,대동백화점맞은편,고외과의원,055-281-0156,,1900,0900,1900,0900,1900,0900,1900,0900,1900,0900,1400,0900,,,,,35.219370742247435,128.691593449779
경상남도 창원시 의창구 사화로 6 (팔용동) ,C,0,,굿모닝외과의원,055-277-8275,,1730,0900,1730,0900,1730,0900,1730,0900,1730,0900,1300,0900,,,,,35.257258657,128.6086401916
경상남도 창원시 성산구 마디미로21번길 17  (상남동),C,0,한마음병원 부근 피아노빌딩 8층,길흉부외과의원,055-264-1199,,1800,1000,1800,1000,1800,1000,1800,1000,1800,1000,1500,0930,,,,,35.22167711765869,128.68621599045707
경상남도 창원시 성산구 원이대로 654  (상남동),C,0,은아아파트 부근,새롬외과의원,055-262-7533,,1800,0930,1800,0930,1200,0930,1800,0930,1800,0930,1300,0930,,,,,35.224394161277225,128.68499376826315
"경상남도 창원시 의창구 서상로 69 (서상동, 정원빌딩2층)",C,0,중동우체국 부근,서울외과의원,055-298-3533,,1900,0900,1900,0900,1300,0900,1900,0900,1900,0900,1400,0900,,,,,35.264697745,128.6200920727
"경상남도 창원시 마산합포구 해안대로 11 (해운동, 월드프라자)",C,0,,위즈여성외과의원,055-245-5222,,1800,0930,1800,0930,1800,0930,1800,0930,1800,0930,,,,,,,35.18066103141691,128.5602317081111
"경상남도 창원시 성산구 대암로 247, A동 6층 (성주동, 더스퀘어)",C,0,,화사랑외과의원,055-602-3119,,2359,0000,2359,0000,2359,0000,2359,0000,2359,0000,2359,0000,2359,0000,2359,0000,35.2038232258,128.7116633204
경상남도 창원시 성산구 원이대로 716  (상남동),C,0,대동백화점 부근,대동외과의원,055-289-6770,,1830,0900,1830,0900,1830,0900,1830,0900,1830,0900,1300,0900,,,,,35.221009694293734,128.69013384714964
경상남도 창원시 성산구 상남로 122 (상남동),C,0,삼성전자서비스 옆,미즈유외과의원,055-263-6875,,1730,0930,1730,0930,1730,0930,1730,0930,1730,0930,1500,0930,,,,,35.2237157541774,128.68332840405017
경상남도 창원시 의창구 대산면 주남로 574-8,C,0,대산면사무소,박외과의원,055-291-4271,,1830,0900,1830,0900,1830,0900,1830,0900,1830,0900,1300,0900,,,,,35.3347083446901,128.70868465276345
전라북도 정읍시 중앙1길 58 (수성동),C,0,장기형정형외과 건강종합약국사이,하나외과의원,063-535-9966,,1730,0830,1730,0830,1730,0830,1730,0830,1730,0830,1230,0830,,,,,35.56856572482555,126.85173674734358
경상남도 거창군 거창읍 거열로 202,C,0,SK북부주유소 옆,최창수외과의원,055-944-1230,,1800,0900,1800,0900,1800,0900,1800,0900,1800,0900,1200,0900,,,1200,0900,35.69076279087259,127.91555915250502
충청남도 서산시 율지11로 10 (동문동),C,0, 새마을금고 맞은편,서산성심외과의원,041-664-7666,,1800,0830,1800,0830,1800,0830,1800,0830,1800,0830,1300,0830,,,,,36.7806889478177,126.46079091064683
충청남도 서산시 안견로 173,C,0,삼성생명 옆,서산연합외과의원,041-668-3017,,1800,0830,1800,0830,1300,0830,1800,0830,1800,0830,1300,0830,,,,,36.78286789658139,126.45954977141045
"충청남도 서산시 안견로 189, 2,3층 (동문동)",C,0,유니소아과 옆,서산외과의원,041-663-7799,,1800,0830,1800,0830,1800,0830,1800,0830,1800,0830,1230,0830,,,,,36.78154134039111,126.45951878297853
경기도 파주시 금정28길 35 (금촌동),C,0,,라온외과의원,031-946-9119,,2100,0900,2100,0900,2100,0900,2100,0900,2100,0900,1400,0900,,,,,37.764401624,126.7739396895
"경기도 파주시 적성면 청송로 1006, 2층",C,0,적성파출소 맞은편,적성이강흉부외과의원,031-959-2119,,1900,0900,1900,0900,1900,0900,1900,0900,1900,0900,1500,0900,,,,,37.95310843919436,126.91758399880361
경기도 파주시 시청로 1,C,0,,한사랑외과의원,031-942-4500,,2000,0900,2000,0900,2000,0900,2000,0900,2000,0900,1600,0900,,,1300,1000,37.75823215791048,126.77410202523689
경기도 파주시 법원읍 사임당로 835-1 ,C,0,,법원중앙외과의원,031-959-1112,,1830,0900,1830,0900,1830,0900,1830,0900,1830,0900,1400,0900,,,,,37.84927690058091,126.87369441011567
"인천광역시 계양구 장제로 808, 3층 (계산동)",C,0,그랜드마트 바로 옆,계양장문외과의원,032-545-7899,,1800,0900,1800,0900,2100,0900,1800,0900,1800,0900,1500,0900,,,,,37.53986661625711,126.73507131182728
인천광역시 계양구 계양대로 214 (계산동),C,0,계산삼거리 KFC 건물 4층,계양하루여성외과의원,032-542-6875,,1800,0900,1800,0900,1800,0900,1800,0900,1800,0900,1500,0900,,,,,37.543048354428635,126.72303399543462
"경기도 용인시 기흥구 동백중앙로 283 (중동, 골드프라자)",C,0,,고려외과의원,031-693-5501,,1800,0900,1800,0900,1800,0900,1800,0900,1800,0900,1300,0900,,,,,37.2780134382,127.1534888395
경기도 용인시 기흥구 중부대로 563 (구갈동),C,0,명문프라자 3층,굿모닝외과의원,031-287-0431,,1800,0900,1800,0900,1800,0900,1800,0900,1800,0900,1600,0900,,,1300,1000,37.27140369030083,127.12573523742397
충청남도 금산군 금산읍 후곤천길  58,C,0,우리집 마트근처/ 금산 을지병원 바로 옆 붙어 있음 ,금산송외과의원,041-754-7552,,1830,0830,1830,0830,1830,0830,1830,0830,1830,0830,1300,0830,,,,,36.105886111111111,127.488713888888896
경기도 이천시 영창로 214,C,0,,연세학운외과의원,031-631-7175,,1830,0900,1830,0900,1830,0900,1830,0900,1830,0900,1530,0900,,,,,37.280678896142405,127.44639826106426
충청북도 옥천군 옥천읍 삼양로 96,C,0,,삼성외과의원,043-732-5975,,1800,0800,1800,0800,1800,0800,1800,0800,1800,0800,1300,0800,,,,,36.303038888888892,127.569683333333330
"부산광역시 수영구 수영로 577, 6층 (광안동)",C,0,2호선 광안역 4번출구,유대우외과의원,051-758-8080,,1700,0800,1700,0800,1700,0800,1700,0800,1700,0800,,,,,,,35.157336140400005,129.11271932330166
"인천광역시 계양구 경명대로 1115, 602호 (계산동, 인평프라자)",C,0,"임학역 4번 출구, 임학중학교 맞은편",J&B학운외과의원,032-554-7738,,1800,0900,1800,0900,1800,0900,1800,0900,1800,0900,1600,0900,,,,,37.5434810806,126.7309351352
대구광역시 중구 국채보상로 716 (동인동4가),C,0,,부강연합외과의원,053-252-1190,,1800,0830,1800,0830,1800,0830,1800,0830,1800,0830,1200,0830,,,1200,0830,35.86839975546586,128.60887599957312
경상남도 창녕군 남지읍 동포로 11,C,0,삼성화재 근처,김외과의원,055-526-5225,,1830,0900,1830,0900,1830,0900,1830,0900,1830,0900,1300,0900,,,,,35.39019085424007,128.48161378660006
부산광역시 수영구 수영로384번길 39 (남천동) 3층,C,0,2호선 남천역 3번출구/청운빌딩 3층,최원만외과의원,051-627-0291,,1700,0930,1700,0930,1700,0930,1700,0930,1700,0930,1300,0930,,,,,35.13952511760636,129.1082041492856
"경기도 이천시 이섭대천로 1203, 3층 (중리동, 하나빌딩)",C,0,,미래로연합외과의원,031-634-9195,,1930,0830,1930,0830,1930,0830,1930,0830,1930,0830,1400,0830,,,,,37.27776104979999,127.4465001744
"경기도 이천시 중리천로 76, 401호 (중리동, 라온펠리스)",C,0,라온팰리스 4층,서울삼성연합외과의원,031-637-3119,,2200,0800,2200,0800,2200,0800,2200,0800,2200,0800,2200,0800,2200,0900,2200,0900,37.278441483860526,127.4457419603812
경기도 이천시 이섭대천로 1212 (창전동),C,0,,서울외과의원,031-633-1122,,1800,0900,1800,0900,1800,0900,1800,0900,1800,0900,1200,0900,,,,,37.27838611111111,127.44710555555556
경기도 시흥시 월곶중앙로 90  (월곶동),C,0,,파티마외과의원,031-317-4341,,1900,0900,1900,0900,1900,0900,1900,0900,1900,0900,1400,0900,,,,,37.39024839342388,126.7357477676685
경상북도 포항시 남구 연일읍 연일중앙로 19,C,0,,신명준외과의원,054-285-8001,,1900,0900,1900,0900,1900,0900,1900,0900,1900,0900,1700,0900,1300,0900,1300,0900,35.99760444607881,129.34633924520548
충청남도 부여군 부여읍 중앙로 3,C,0,터미널 맞은편,제일외과의원,041-833-8575,,1730,0830,1730,0830,1730,0830,1730,0830,1730,0830,1500,0830,,,,,36.28077688563982,126.91078912135063
전라남도 순천시 신월큰길 1-4,C,0,홈플러스바로 옆,연합홍문외과의원,061-724-0975,,1830,0900,1830,0900,1830,0900,1200,0900,2100,0900,1200,0900,,,,,34.96042587913025,127.52078887719995
"경기도 남양주시 와부읍 덕소로 87-1, 2층",C,0,,덕소성외과의원,031-577-6596,,1900,0900,1900,0900,1900,0900,1900,0900,1900,0900,1500,0900,,,1500,1000,37.586380555555557,127.212336111111114
경상북도 김천시 김천로 92  (평화동),C,0,,강외과의원,054-431-1311,,1830,0900,1830,0900,1830,0900,1830,0900,1830,0900,1230,0900,,,,,36.12433710643218,128.11218600817662
경상북도 김천시 김천로 174  (남산동),C,0,,안외과의원,054-432-9999,,1800,0900,1800,0900,1230,0900,1800,0900,1800,0900,1230,0900,,,,,36.12005574272919,128.119834014331
충청북도 진천군 진천읍 중앙북4길 30,C,0,kt전화국,성심흉부외과의원,043-533-2900,,2000,0900,2000,0900,2000,0900,2000,0900,2000,0900,1700,0900,1700,0900,1700,0900,36.85736684140172,127.44317916284584
"경기도 시흥시 정왕대로 174, 301호,306-308호 (정왕동, 광개토빌딩)",C,0,,동서외과의원,031-433-8275,,1930,0900,1930,0900,1930,0900,1930,0900,1930,0900,1800,0900,1700,1000,1700,1000,37.348042965648204,126.7334850651287
"인천광역시 중구 우현로 41, 2층 (신포동)",C,0,,성모외과의원,032-773-7772,,,,,,,,,,,,,,,,,
"서울특별시 영등포구 여의대방로 383, 3층 (여의도동, 경도빌딩)",C,0,인도네시아 대사관 맞은편,성모외과의원,02-786-2334,,1730,0930,1730,0930,1730,0930,1730,0930,1730,0930,,,,,,,37.51934341811493,126.93150430362685
"서울특별시 영등포구 경인로 729, 지하1,1,2층 (문래동2가)",C,0,문래동 사거리,영등포종도외과의원,02-2678-3233,,1730,0900,1730,0900,1730,0900,1730,0900,1730,0900,1600,1300,,,,,37.512702802777404,126.89450571390887
"서울특별시 영등포구 가마산로 354, 송림빌딩 2층 (대림동)",C,0,대림3동 사거리 인근,우리들외과의원,02-835-2500,,1830,0900,1830,0900,1830,0900,1830,0900,1830,0900,1400,0900,,,,,37.5001317396,126.8983367893
"서울특별시 영등포구 경인로 841, 5층 (영등포동4가, 영등포우체국)",C,0,영등포우체국 5층,유앤유외과의원,02-2068-0424,,1800,0900,1800,0900,1800,0900,1800,0900,1800,0900,1400,0900,,,,,37.51652919427212,126.90604253287945
경상남도 남해군 남해읍 화전로 106-1,C,0,농협 옆,남해삼성외과의원,055-862-9975,,1730,0830,1730,0830,1730,0830,1730,0830,1730,0830,1230,0830,,,,,34.84071080110001,127.8940587675
"서울특별시 동작구 동작대로 25, 6층 (사당동)",C,0,,연세흉부외과의원,02-523-7007,,1730,0900,1730,0900,1730,0900,1730,0900,1730,0900,1300,0900,,,,,37.47874444398077,126.98134549907533
"서울특별시 동작구 동작대로 89, 3층 (사당동, 골든세네마타워)",C,0,이수역 7번출구 골든시네마타워 301호,구원창문외과의원,02-583-0009,,1800,0900,1800,0900,2000,0900,1800,0900,1800,0900,1400,0900,,,,,37.4846154681034,126.98166514808764
서울특별시 동작구 동작대로 51 (사당동),C,0,"사당역과 이수역 중간지점, 현대자동차 길 건너편",김용철외과의원,02-523-5544,,1800,0900,1800,0900,1800,0900,1800,0900,1800,0900,1330,0900,,,,,37.48118800353197,126.98148961003053
"서울특별시 동작구 보라매로5가길 16, 506,507호 (신대방동)",C,0,신대방동 롯데백화점 관악점 근처 위치 ,정다운외과의원,02-6274-7575,,1800,0900,1800,0900,1800,0900,1300,0900,1800,0900,1600,0900,,,,,37.491297222222222,126.924002777777773
"서울특별시 광진구 자양로 281, 2층 (구의동)",C,0,아차산역 2번출구,일신외과의원,02-2201-7582,,1900,0900,1900,0900,1900,0900,1900,0900,1900,0900,1500,0900,,,1300,0900,37.551089917117494,127.09148400671913
경기도 가평군 조종면 현창로 39 (김의과의원),C,0,현리 버스터미널 맞은편,김외과의원,031-585-2200,,2030,0700,2030,0700,2030,0700,2030,0700,2030,0700,2030,0700,,,2030,0700,37.8183202311,127.3481385951
"서울특별시 강서구 강서로 385, 4층 401~403호 (마곡동, 우성에스비타워)",C,0,발산역 2번 출구,봄날의외과의원,02-2138-1064,,1830,0930,1830,0930,1830,0930,1830,0930,1830,0930,1330,0930,,,,,37.5600930886,126.8383060298
"서울특별시 강서구 화곡로 176-4, 6층 (화곡동, 화곡메디칼빌딩)",C,0,화곡역 3번출구 6층,비너스여성외과의원,02-2690-6075,,1800,0930,1800,0930,1800,0930,1800,0930,1800,0930,1500,0930,,,,,37.54165893411954,126.8411475016767
"경기도 포천시 영북면 영북로 180-1, 2층",C,0,,성심외과의원,031-532-3500,,1800,0900,1800,0900,1800,0900,1800,0900,1800,0900,1200,0900,,,,,38.0903286101851,127.27519273765009
경기도 포천시 구절초로 17 (신읍동),C,0,,포천외과의원,031-535-4756,,1830,0930,1830,0930,1830,0930,1830,0930,1830,0930,1300,0930,,,,,37.89567364884934,127.20261312490507
경기도 포천시 구절초로 16-1 (신읍동),C,0,,홍외과의원,031-535-9740,,1700,0930,1700,0930,1700,0930,1700,0930,1700,0930,1400,0930,,,,,37.89586411843596,127.20293087007738
경상남도 밀양시 밀성로 12 (내이동),C,0,밀성여자중학교,신일외과의원,055-355-3877,,1800,0900,1800,0900,1230,0900,1800,0900,1800,0900,1230,0900,,,,,35.501783639362046,128.7496315877964
서울특별시 강서구 월정로 140 (화곡동),C,0,까치산역 4번출구 도보 10~15분,황외과의원,02-2695-6300,,1800,0900,1800,0900,1800,0900,1800,0900,1800,0900,1500,0900,,,1200,0900,37.53145490949045,126.83768452638249
전라남도 해남군 해남읍 홍교로 27,C,0,홍교주차장 바로 앞,김동식외과의원,061-535-2256,,1800,0830,1800,0830,1800,0830,1800,0830,1800,0830,1230,0800,,,1230,0800,34.56971853714762,126.5993672057106
"울산광역시 남구 삼산로 216, 5,6,11층 (달동)",C,0,,비너스외과의원,052-716-0075,,1830,0930,1830,0930,1830,0930,1830,0930,1830,0930,1400,0930,,,,,35.537774396,129.3309313481
충청북도 증평군 증평읍 중앙로 203,C,0,,우외과의원,043-836-7887,,1830,0900,1830,0900,1830,0900,1830,0900,1830,0900,1230,0900,,,1230,0900,36.78420001099173,127.58122610750081
울산광역시 남구 삼산로 273 12층,C,0,킴스빌딩 8층,송은영유반외과의원,052-266-6075,,1800,0900,1930,0900,1800,0900,1800,0900,1800,0900,1300,0900,,,,,35.53951003016111,129.33678472810945
울산광역시 남구 삼산로 281,C,0,,울산정백외과의원,052-273-1717,,1800,0900,1800,0900,1800,0900,1800,0900,1800,0900,1600,0900,,,,,35.53961070167338,129.3376418389862
"울산광역시 남구 삼산로 260, 9층 (삼산동, 주연클리닉)",C,0,,유사랑외과의원,052-260-6075,,1800,0900,1800,0900,1800,0900,1800,0900,1800,0900,1300,0900,,,,,35.538724999999999,129.335633333333334
"경상남도 진주시 대신로 294, 7, 8층 (상대동)",C,0,,삼성홍문외과의원,055-762-8118,,1730,0900,1730,0900,1730,0900,1730,0900,1730,0900,1245,0900,,,,,35.188696526447714,128.12242325015683
"울산광역시 남구 북부순환도로 13, 5층 (무거동, 보령메디칼빌딩)",C,0,좋은삼정병원 맞은편,김형규학문외과의원,052-224-0717,,1900,0900,1900,0900,1900,0900,1900,0900,1900,0900,1500,0900,,,1300,0900,35.5514562074,129.2651454873
"울산광역시 남구 삼산로 283, 소망빌딩 7층 (삼산동)",C,0,,다정흉부외과의원,052-267-7582,,1830,1000,1830,1000,1830,1000,1830,1000,1830,1000,1600,1000,,,,,35.539735745909695,129.3379686809852
"울산광역시 남구 삼산로 231, 울산 센트럴 자이 4층 411호 (달동)",C,0,,바른맥흉부외과의원,052-267-7500,,1730,0900,1730,0900,1730,0900,1730,0900,1730,0900,1230,0900,,,,,35.538858173653026,129.33266484327675
"경기도 고양시 일산동구 정발산로 38, 장항동이스턴시티 307-1, 308호 (장항동)",C,0,,새봄외과의원,031-901-7777,,1830,0900,1830,0900,1830,0900,1830,0900,1830,0900,1300,0900,,,,,37.6583994242,126.7733956474
경기도 안산시 단원구 광덕3로 178  (고잔동),C,0,,고려정외과의원,031-487-9897,,1900,0900,1900,0900,1900,0900,1900,0900,1900,0900,1400,0900,,,,,37.31206502736806,126.83235233977746
"울산광역시 남구 삼산로 274, 15층 (삼산동, W-CENTER)",B,0,,울산청맥외과병원,052-266-2975,,1800,0900,1800,0900,1800,0900,1800,0900,1800,0900,1400,0900,,,,,35.5389445961,129.3371343197
"울산광역시 남구 삼산중로 65, 8층 (달동)",C,0,,이희정유앤갑외과의원,052-227-8880,,1930,1000,1400,1000,1930,1000,1930,1000,1930,1000,1600,1000,,,,,35.5393152919,129.3351166324
울산광역시 남구 번영로 96 (달동),C,0,달동주공아파트 맞은편,탑흉부외과의원,052-266-7077,,1730,0930,1730,0930,1730,0930,1730,0930,1730,0930,1200,0930,,,,,35.53423540474715,129.32979272558475
경기도 고양시 일산동구 정발산로 43-20,C,0,,유앤미여성외과의원,031-901-6075,,1900,0900,1900,0900,1900,0900,1900,0900,1900,0900,1500,0900,,,,,37.65824554255413,126.7735188502087
"서울특별시 강남구 테헤란로 410, 5층 503~505호 (대치동, 금강타워)",C,0,선릉역 1번 출구,강남아름다운유외과의원,02-3453-7575,,1900,1000,2100,1300,1900,1000,2100,1300,1900,1000,1400,1000,,,,,37.5045542914,127.0507305601
경기도 고양시 일산동구 중앙로 1080,C,0,,일산수외과의원,031-901-5397,,1800,0900,1800,0900,1800,0900,1800,0900,1800,0900,1600,0900,,,,,37.645711305372586,126.78505576608721
"울산광역시 남구 삼산중로 56, 1~2층 (삼산동, UM빌딩)",C,0,,화사한외과의원,052-716-1192,,2100,0900,1800,0900,2100,0900,1800,0900,2100,0900,1300,0900,,,1300,0900,35.5385139408,129.3357371989
"경기도 고양시 일산동구 중앙로 1172 (마두동, 그랜드프라자 411호 일부)",C,0,,진외과의원,031-901-3984,,1800,0930,1800,0930,1800,0930,1800,0930,1800,0930,1300,0930,,,,,37.651649763124986,126.77839428185434
경기도 고양시 일산동구 정발산로 43-20,C,0,,푸른맥외과의원,031-908-3575,,1700,0900,1700,0900,1700,0900,1700,0900,1700,0900,1200,0900,,,,,37.658400272313465,126.77339598250649
"울산광역시 남구 대학로 138, 5층 (무거동, 신정빌딩)",C,0,신복로타리에서 울산대 방향 울산대후문 근처 신한은행 건물 5층,굿모닝창문외과의원,052-249-8275,,1830,0930,1830,0930,1830,0930,1830,0930,1830,0930,1400,0930,,,1300,0900,35.54682812469723,129.26208362403867
경기도 수원시 권선구 경수대로 321 (세류동),C,0,,한마음외과의원,031-235-7766,,1800,0900,1800,0900,1800,0900,1800,0900,1800,0900,1400,0900,,,,,37.255736421507535,127.02122548381044
전라남도 화순군 능주면 죽수길 99,C,0,능주버스정류장 근처 ,명인외과의원,061-371-0202,,1730,0930,1730,0930,1730,0930,1730,0930,1730,0930,1230,0830,,,,,34.99196782644164,126.95792748076732
"대구광역시 수성구 달구벌대로 2421, 5층 (범어동)",C,0,,퀸스유외과의원,053-421-6875,,1800,0900,1800,0900,2000,0900,1800,0900,1800,0900,1500,0900,,,,,35.85943859695623,128.62764221126156
대구광역시 수성구 파동로 204 (파동),C,0,,현대연합제통외과의원,053-763-4328,,1830,0900,1830,0900,1830,0900,1830,0900,1830,0900,1500,0900,,,1500,0900,35.821036363807735,128.61215326479277
"대구광역시 수성구 달구벌대로 3117, (시지동)",C,0,,유스외과의원,053-792-1919,,1800,0900,1800,0900,1800,0900,1800,0900,1800,0900,1300,0900,,,,,35.842791666666663,128.698133333333345
경기도 성남시 분당구 돌마로 68,C,0,,좋은하루외과의원,031-719-8275,,1800,0930,1800,0930,1800,0930,1800,1400,1800,0930,1500,0930,,,,,37.3497741973071,127.10954953423234
"경기도 성남시 분당구 성남대로 385, 503호 (정자동, 분당클리닉)",C,0,분당클리닉503호,최성림유외과의원,031-713-3510,,1800,0900,1800,0900,1800,0900,1800,0900,1800,0900,1600,0900,,,,,37.37057134153251,127.10748963804796
경기도 성남시 분당구 서현로 192,C,0,,연세베스트외과의원,031-707-7100,,1800,0900,1800,0900,1800,0900,1800,0900,1800,0900,1400,0900,,,,,37.38769999208308,127.12420671207596
"경기도 성남시 분당구 서현로 184, 엘지분당에클라트 208호 (서현동)",C,0,,연세유앤유외과의원,031-781-6875,,1800,0930,1800,0930,1800,0930,1800,0930,1800,0930,1500,0930,,,,,37.38777150072125,127.12442972072793
대구광역시 수성구 청수로 11 (중동),C,0,,황보외과의원,053-762-7248,,1830,0930,1830,0930,1830,0930,1830,0930,1830,0930,1500,0930,,,1300,0930,35.841283115785,128.60941206359197
경기도 성남시 분당구 돌마로 46,C,0,,수흉부외과의원,031-715-7536,,1800,0900,1800,0900,1800,0900,1800,0900,1800,0900,1600,0900,,,,,37.34970803765696,127.1069806807031
"부산광역시 금정구 온천장로 136-1, 패밀리외과병원 지하1~지상6층 (장전동)",C,0,1호선 온천장역 3번 출구,패밀리외과의원,051-515-0079,,1800,0900,1800,0900,1800,0900,1800,0900,1800,0900,1300,0900,,,,,35.22258059463877,129.08562892498693
"경기도 성남시 분당구 야탑로81번길 10, 3층 310호 (야탑동, 분당아미고타워)",C,0,,황혜원유외과의원,031-622-0011,,1900,0900,1900,0900,1900,0900,1900,0900,1900,0900,1400,0900,,,,,37.41059574096712,127.1282085119275
대구광역시 수성구 수성로 244 (중동),C,0,,정무달외과의원,053-762-3003,,1830,0930,1830,0930,1830,0930,1830,0930,1830,0930,1300,0930,,,1300,0930,35.847397222222220,128.613225000000000
"대구광역시 수성구 동대구로 311, 12층 (범어동,애플타워)",C,0,,수외과의원,053-423-7582,,1800,0900,1800,0900,1800,0900,1800,0900,1800,0900,1500,0900,,,,,35.85814968483928,128.62515102637988
대구광역시 수성구 달구벌대로 2514,C,0,,조외과의원,053-756-4669,,1830,0900,1830,0900,1830,0900,1830,0900,1830,0900,1300,0900,,,,,35.858492378939346,128.63759890213393
강원도 양양군 양양읍 양양로 48,C,0,양양읍 남문리 (축협 맞은편),중앙외과의원,033-672-0911,,1830,0830,1830,0830,1830,0830,1830,0830,1830,0830,1500,0830,1500,0900,,,38.07620026467844,128.6236882312398
"경상남도 창원시 마산회원구 내서읍 삼계로 12, 4층 402호",C,0,롯데마트 근처,시원한통사랑외과의원,055-231-7573,,1830,0900,1830,0900,1830,0900,1830,0900,1830,0900,1300,0900,,,,,35.232247866281256,128.50349862090636
경상남도 창원시 마산회원구 내서읍 삼계4길 17,C,0,롯데마트 뒤,큰사랑외과의원,055-232-3160,,1900,0900,1900,0900,1900,0900,1900,0900,1900,0900,1300,0900,,,1300,0900,35.232974140615866,128.5036441497835
경상남도 창원시 마산회원구 3·15대로 800  (합성동),C,0,시외버스터미널 부근,경남학문외과의원,055-256-0975,,1800,0930,1800,0930,1800,0930,1800,0930,1800,0930,1230,0930,,,,,35.24242101474464,128.58602885282338
경상남도 창원시 마산회원구 3.15대로 727,C,0,합성교회 옆,김창수수외과의원,055-253-7532,,1800,0900,1800,0900,1800,0900,1800,0900,1800,0900,1300,0900,,,,,35.23724987407067,128.58119606658104
경상남도 창원시 마산합포구 문화북1길 25-1,C,0,SK금성주유소 뒷편,남마산외과의원,055-246-2797,,1830,0900,1830,0900,1830,0900,1830,0900,1830,0900,1400,0900,,,,,35.1878670854823,128.561370531762
"경상남도 창원시 마산합포구 삼호로 45, 4, 5층 (산호동)",C,0,마산 산호동 홈플러스 맞은편,서울대화외과의원,055-241-2119,,2200,0900,2200,0900,2200,0900,2200,0900,2200,0900,2200,0900,1900,1000,1900,1000,35.2214516288,128.585374956
경상남도 창원시 마산합포구 진동면 진북산업로 31,C,0,,서울명외과의원,055-272-0083,,1900,0900,1900,0900,1900,0900,1900,0900,1900,0900,1400,0900,,,,,35.11903069670708,128.48787938752713
경상남도 창원시 마산합포구 북성로 87,C,0,마산상남동우체국 맞은편,마산제일외과의원,055-245-3456,,1800,0900,1800,0900,1800,0900,1800,0900,1800,0900,1230,0900,,,,,35.21497037103513,128.5704722232074
"인천광역시 연수구 컨벤시아대로 165, 4층 (송도동, 동북아트레이드타워)",C,0,포스코타워송도 4층,송도외과의원,032-230-5500,,1900,0900,1900,0900,1900,0900,1900,0900,1900,0900,1400,0900,,,,,37.389242164573936,126.64421397858825
전라북도 전주시 완산구 여울로 19 (서신동),C,0,롯데백화점후문 코뎀빌딩5층,전주서울하정외과의원,063-271-2800,,1800,0900,1800,0900,1800,0900,1800,0900,1800,0900,1300,0900,,,,,35.835219094698175,127.12132337103411
전라북도 전주시 덕진구 백제대로 752 (인후동2가),C,0,,전주외과의원,063-242-0088,,1800,0900,1800,0900,1800,0900,1800,0900,1800,0900,1300,0900,,,,,35.8457752401,127.1511950302
"전라북도 전주시 완산구 백제대로 241, 1,2층 (중화산동2가)",C,0,전주병원맞은편 이중본옆,학문외과의원,063-227-0377,,1800,0900,1800,0900,1800,0900,1800,0900,1800,0900,1500,0900,,,,,35.81470438658024,127.1226700369199
"경상남도 창원시 마산합포구 북성로 99 (상남동, 동광빌딩)",C,0,롯데리아 2층,회산흉부외과의원,055-223-1177,,1900,0900,1900,0900,1900,0900,1900,0900,1900,0900,1300,0900,,,,,35.216061500864264,128.5702205892038
전라북도 전주시 완산구 용머리로 177-1 (효자동1가),C,0,효자동주공@3단지정문에서서부시장쪽으로30m건너편,최외과의원,063-221-1374,,1830,0900,1830,0900,1830,0900,1830,0900,1830,0900,1300,0900,,,,,35.80688892540468,127.12949364587209
"경상남도 창원시 마산합포구 문화의길 5 (오동동, 창동학문외과의원)",C,0,새마을금고 부근,창동학문외과의원,055-223-0975,,1830,0930,1830,0930,1830,0930,1830,0930,1830,0930,1500,0930,,,,,35.2068573433,128.5799742023
"인천광역시 연수구 청능대로 103, 3층 (연수동, 비와이씨)",C,0,"롯데마트옆, BYC3층",연수함문외과의원,032-821-0565,,1830,0900,1830,0900,1830,0900,1300,0900,1830,0900,1300,0900,,,,,37.41364588823042,126.67626257241417
"인천광역시 연수구 먼우금로 194, 3층 304호 (연수동, 두손메카)",C,0,"롯데마트, 힘찬병원 옆",우리외과의원,032-814-9393,,1700,0900,1700,0900,1700,0900,1700,0900,1700,0900,1300,0830,,,,,37.41443714215243,126.67698439280477
인천광역시 연수구 앵고개로246번길 10 (동춘동),C,0,,이강연유외과의원,032-818-6825,,1800,0900,1800,0900,1900,0900,1800,0900,1800,0900,1400,0900,,,,,37.40841518392372,126.67060588897338
"인천광역시 연수구 송도국제대로 157, 오네스타 6층 (송도동)",C,0,,송도유외과의원,032-817-6875,,1800,0900,1800,0900,1800,0900,1800,0900,1800,0900,1300,0900,,,,,37.38094131994393,126.65666201462199
전라북도 전주시 완산구 용머리로 34  (효자동1가),C,0,홈플러스 맞은편 하나은행건물 4층,양빛나유외과의원,063-228-9336,,1830,0930,1830,0930,1230,0930,1830,0930,1830,0930,1300,0930,,,,,35.80575417392449,127.11409280389734
전라북도 전주시 완산구 용머리로 57 (효자동1가),C,0,"전주마트사거리,메디프랜드건물9층",오성수외과의원,063-223-6075,,1830,0930,1830,0930,1830,0930,1830,0930,1830,0930,1300,0930,,,,,35.80689483428045,127.11634703467766
전라북도 전주시 완산구 홍산로 261 (효자동2가),C,0,,미고외과의원,063-243-8300,,1930,1100,1930,1100,1930,1100,1930,1100,1930,1100,1500,1100,,,,,35.8170162268,127.1054845433
경기도 안성시 일죽면 금일로 460,C,0,,중앙외과의원,031-675-0068,,1900,0900,1900,0900,1900,0900,1900,0900,1900,0900,1500,0900,,,,,37.09261242130112,127.47832331031015
경기도 안성시 중앙로379번길 29 (대천동),C,0,,차외과의원,031-674-2251,,1830,0930,1830,0930,1830,0930,1830,0930,1830,0930,1300,0930,,,,,37.00886999766129,127.26915976326518
경기도 안성시 중앙로 391 ,C,0,,한외과의원,031-673-4567,,1830,0900,1830,0900,1200,0900,1830,0900,1830,0900,1400,0900,,,,,37.00762358743213,127.27044521186364
전라북도 전주시 완산구 모악로 4754  (평화동1가),C,0,평화동사거리에서 교도소방향쪽의 국민은행 옆에 위치,보람외과의원,063-286-2222,,1800,0900,1800,0900,1800,0900,1800,0900,1800,0900,1300,0900,,,,,35.79284774329209,127.13231361883734
전라북도 전주시 덕진구 안덕원로 288 (인후동1가),C,0,유일여자고등학교 맞은편,서울외과의원,063-243-6387,,1900,0900,1900,0900,1900,0900,1900,0900,1900,0900,1700,0900,,,1700,0900,35.8369730269725,127.1585918181659
"전라북도 전주시 완산구 세내로 285, 3층 301호 (효자동3가, 샘물아동병원)",C,0,,유라인외과의원,063-228-8010,,1830,0900,1830,0900,1830,0900,1830,0900,1830,0900,1300,0900,,,,,35.81554722198317,127.11142241201025
"전라북도 전주시 완산구 당산로 120, (서신동)",C,0,이마트 야외주차장 맞은편 2층,유사랑외과의원,063-253-6075,,1800,0900,1800,0900,1800,0900,1800,0900,1800,0900,1600,0900,,,,,35.832018867487946,127.12140731606774
전라북도 전주시 완산구 온고을로 26,C,0,,유앤유외과의원,063-251-7633,,1830,0930,1830,0930,1830,0930,1830,0930,1830,0930,1230,0900,,,,,35.834073089403745,127.12002969336929
"전라북도 전주시 완산구 홍산로 250, 502호 (효자동3가)",C,0,신도청앞 우리들정형외과와 연결된 우리들빌딩5층,유앤장외과의원,063-223-9090,,1800,0900,1800,0900,1400,0800,1800,0900,1800,0900,1400,0800,,,,,35.8160384106089,127.10644814335353
"충청남도 예산군 예산읍 예산로194번길 2, 2층",C,0,예산 우체국 옆,박외과의원,041-332-2695,,1830,0900,1830,0900,1830,0900,1830,0900,1830,0900,1200,0900,,,1100,0900,36.679116661361874,126.8466666802171
충청남도 예산군 덕산면 봉운로 18,C,0,신협 뒤 덕산초등학교주변 ,삼성외과의원,041-338-9700,,1800,0830,1800,0830,1800,0830,1800,0830,1800,0830,1300,0830,,,,,36.705448595493515,126.67103159016023
전라북도 전주시 덕진구 안덕원로 190  (인후동2가),C,0,모래내 생명과학고등학교(농고) 맞은편에 위치 함,은성흉부외과의원,063-252-3543,,1745,0845,1745,0845,1745,0845,1745,0845,1745,0845,1115,0845,,,,,35.83478117571793,127.1480765987242
충청남도 예산군 예산읍 임성로23번길 14,C,0,예산 경찰서 옆,을지성심외과의원,041-335-8888,,2100,0800,2100,0800,2100,0800,2100,0800,2100,0800,1300,0800,,,1200,0800,36.68050637619605,126.84820784327895
충청남도 예산군 예산읍 예산로 86,C,0,주교 로타리근처 1-2분,조외과의원,041-332-4000,,1800,0900,1800,0900,1800,0900,1800,0900,1800,0900,1300,0900,,,1300,0900,36.680138931130145,126.83482797921789
"전라북도 전주시 덕진구 안덕원로 182 (인후동2가, 이명래외과의원)",C,0,농고 맞은편,이영래외과의원,063-277-0066,,1200,0900,1200,0900,1200,0900,1200,0900,1200,0900,,,,,,,35.834520129475216,127.14736136914186
전라북도 전주시 완산구 전라감영로 6 (다가동2가),C,0,완산교다리 못가서 SK주유소 옆,이영민외과의원,063-282-6881,,1800,0900,1800,0900,1800,0900,1800,0900,1800,0900,1230,0900,,,,,35.81384208488649,127.1405906644585
충청남도 예산군 고덕면 고덕중앙로 70-2,C,0,면사무소 근처,한영철외과의원,041-337-0188,,1800,0800,1800,0800,1800,0800,1800,0800,1800,0800,1230,0800,,,,,36.74577250847584,126.70417185689754
전라북도 전주시 완산구 쑥고개로 315 (효자동2가),C,0,,자연미라인외과의원,063-221-2237,,1800,0930,1800,0930,1800,0930,1800,0930,1800,0930,1600,0930,,,,,35.81601759985013,127.10551863132563
"부산광역시 동래구 여고북로 192, 2층 (사직동)",C,0,"1,4호선 동래역 6번출구",보람외과의원,051-501-8275,,1830,0900,1830,0900,1830,0900,1830,1400,1830,0900,1400,0900,,,,,35.202505555555554,129.075255555557
"부산광역시 동래구 동래로 161, (복천동)",C,0,버스정류장: 내성초등학교,복천외과의원,051-556-5310,,1830,0900,1830,0900,1830,0900,1830,0900,1830,0900,1500,0900,,,1300,0900,35.20419722222224,129.08834722222375
서울특별시 서대문구 통일로 467 (홍제동),C,0,홍제역 4번출구,동민외과의원,02-395-2008,,1730,0900,1730,0900,1730,0900,1730,0900,1730,0900,1200,0900,,,,,37.58987936044377,126.94246789497391
"광주광역시 동구 남문로 780, 2층 202호 (학동)",C,0,,선형유외과의원,062-710-0810,,1800,0930,1800,0930,1800,0930,1800,0930,1800,0930,1300,0930,,,,,35.13908950135453,126.92361091279822
"부산광역시 동래구 중앙대로 1325, 602호 (온천동, 이센타워)",C,0,"1,4호선 동래역 7번 출구",손명집창문외과의원,051-558-8880,,1800,0900,1800,0900,1800,0900,1300,0900,1800,0900,1300,0900,,,,,35.20531111111111,129.07746944444736
서울특별시 서대문구 통일로 433,C,0,홍제역 3번출구 신한은행건물 9층 ,연세송도외과의원,02-3417-7175,,1800,0900,1800,0900,1800,0900,1300,0900,1800,0900,1500,0900,,,,,37.58767863523455,126.94513744362786
서울특별시 서대문구 응암로 81 (북가좌동),C,0,,원상희외과의원,02-308-2301,,1800,0900,1800,0900,1800,0900,1300,0900,1800,0900,1300,0900,,,,,37.58043937565227,126.91143264059802
서울특별시 서대문구 통일로 451 (홍제동),C,0,홍제역 4번출구,이용진창문외과의원,02-3216-7020,,1800,0900,1800,0900,1800,0900,1800,0900,1800,0900,1300,0900,,,,,37.58873753968486,126.94379122702693
서울특별시 서대문구 신촌로 243-1 (북아현동),C,0,아현역1번출구,참빛외과의원,02-364-7686,,1800,0900,1800,0900,1800,0900,1800,0900,1800,0900,1300,0900,,,,,37.557459072280444,126.95311328177975
서울특별시 서대문구 수색로 48,C,0,모레내 시장 외한은행 건물 4층,삼성창문외과의원,02-376-7275,,1800,0930,1800,0930,1800,0930,1800,0930,1800,0930,1500,0930,,,,,37.57040730523004,126.91364601883285
"서울특별시 광진구 능동로 294, 5층 (능동, 능동빌딩)",C,0,군자역 6번 출구,세이유외과의원,02-456-6075,,1830,0930,1830,0930,1830,0930,1830,0930,1830,0930,1400,0930,,,,,37.55585252992539,127.07909501882332
서울특별시 광진구 뚝섬로 511 (자양동),C,0,섬김의 교회 맞은편,신일외과의원,02-466-8397,,1800,0900,1800,0900,1300,0900,1800,0900,1800,0900,1300,0900,,,,,37.535749590433795,127.06722086251348
"서울특별시 광진구 능동로 409, 2.3층 (중곡동)",C,0,중곡역 2번출구,주함외과의원,02-466-1515,,1700,0830,1700,0830,1200,0830,1700,0830,1700,0830,1200,0830,,,,,37.5656088695,127.0838139831
"서울특별시 광진구 광나루로36길 14, 2층 (구의동)",C,0,"화성빌딩2,3층",진광준외과의원,02-452-6556,,1800,0930,1800,0930,1800,0930,1800,0930,1300,0930,1300,0930,,,,,37.544463888888892,127.086519444444448
"인천광역시 남동구 인하로507번길 63, 4층 410, 410 전체호 (구월동, 모아메디컬타운)",C,0,,라라외과의원,032-422-1055,,1800,0920,1800,0920,1800,0920,1800,0920,1800,0920,1300,0830,,,,,37.4461845872,126.7028330196
인천광역시 남동구 만수로 65,C,0,"숭덕여고입구 정류장 내츄럴페이스샵,빵집 있는 건물 2층",만수성심외과의원,032-471-2546,,1900,0900,1900,0900,1900,0900,1900,0900,1900,0900,1900,0900,,,,,37.4615985246297,126.73511717692054
"인천광역시 남동구 인주대로 645, 2, 3층 (구월동)",C,0,길병원 큰 사거리 볼보자동차 차외과 옆건물 2층,맘마외과의원,032-434-6875,,1800,0900,1800,0900,1800,0900,1800,0900,1800,0900,1500,0900,,,,,37.449960725127724,126.7086270151276
인천광역시 남동구 인하로 497-5 푸른세상안과빌딩 12층,C,0,,모식외과의원,032-423-7888,,1900,0900,1900,0900,1900,0900,1900,0900,1900,0900,1500,0900,,,,,37.44359736923527,126.70159568491363
서울특별시 광진구 강변역로 50  (구의동),C,0,동서울터미널 2층,푸른맥흉부외과의원,02-469-8275,,1800,0900,1800,0900,1800,0900,1800,0900,1800,0900,1600,0900,,,,,37.534538240137095,127.09418371115775
"인천광역시 미추홀구 독정이로 7, 2층 (용현동, 청도하이텔)",C,0,"독정이삼거리, 남인천농협3층",전외과의원,032-884-0080,,1830,0900,1830,0900,1830,0900,1830,0900,1830,0900,1300,0900,,,,,37.456850887603124,126.65481548053509
"인천광역시 미추홀구 인주대로 410, 탑클래시아 201호 (주안동)",C,0,,제일유외과의원,032-437-1212,,1800,0930,1800,0930,1800,0930,1800,0930,1800,0930,1400,0930,,,,,37.45097794317526,126.68205087816735
"인천광역시 남동구 인주대로 506-1, 2,3층(구월동)",C,0,신기4거리 부근 GS 칼텍스 옆옆 건물,서울외과의원,032-429-4848,,1800,0900,1800,0900,1800,0900,1800,0900,1800,0900,1400,0900,,,,,37.45032820274553,126.69291545862904
인천광역시 미추홀구 인주대로 348 (주안동),C,0,"신기사거리~용일사거리 중간지점, 국민건강보험공단 옆",최광호외과의원,032-429-7570,,1800,1000,1800,1000,1800,1000,1800,1000,1800,1000,1500,1000,,,,,37.451420395542854,126.67511434508326
"인천광역시 남동구 인주대로 582, (구월동)",C,0,예술회관역 3번출구 방향,서울지에이치하지외과의원,032-424-8575,,1830,0900,1830,0900,1830,0900,1830,0900,1830,0900,1430,0900,,,,,37.449778302776714,126.70159827799251
인천광역시 남동구 호구포로 788 (구월동),C,0,구월시장입구,남동성모외과의원,032-465-6342,,1900,0900,1900,0900,1900,0900,1900,0900,1900,0900,1600,0900,,,1300,0900,37.4526680018206,126.71931592319168
"인천광역시 남동구 만수로 43, 5층 전부호 (만수동)",C,0,만수종합쇼핑 옆 가야빌딩 5층,신통외과의원,032-205-8282,,1830,0900,1830,0900,1830,0900,1830,0900,1830,0900,1300,0900,,,,,37.46031478544496,126.73320928702306
"인천광역시 남동구 경인로 551, (간석동)",C,0,"주원고개 수림공원웨딩홀맞은편, GS칼텍스옆",안흉부외과의원,032-424-2252,,1800,0900,1800,0900,1800,0900,1800,0900,1800,0900,1530,0900,,,,,37.46282991686656,126.6996576323489
"경기도 안산시 상록구 선진4길 39-1, 1~4층 (사동)",C,0,,고외과의원,031-502-8100,,1900,0900,1900,0900,1900,0900,1900,0900,1900,0900,1600,0900,1300,0900,1300,0900,37.28023309788257,126.85177479462103
"인천광역시 남동구 정각로 10, 파크에비뉴빌딩 5층 501 일부호 (구월동)",C,0,,정담외과의원,032-429-8553,,1800,0900,1800,0900,1800,0900,1800,0900,1800,0900,1300,0900,,,,,37.454795080765706,126.70300691435047
인천광역시 남동구 인주대로 643 (구월동),C,0,길병원사거리,차외과의원,032-461-5123,,1800,0900,1800,0900,1800,0900,1800,0900,1800,0900,1530,0900,,,,,37.449936228535414,126.70855476093429
"인천광역시 남동구 인하로507번길 4, 801호 (구월동,벽성빌딩)",C,0,한성빌딩 801호,푸른맥외과의원,032-422-1113,,1800,0900,1800,0900,1800,0900,1800,0900,1800,0900,1530,0900,,,,,37.44347524887011,126.7031963281801
경기도 김포시 양촌읍 양곡1로 56,C,0,,승리외과의원,031-982-3981,,1800,0900,1800,0900,1800,0900,1800,0900,1800,0900,1400,0900,,,,,37.65558359074141,126.623498232483
"경기도 김포시 김포한강9로76번길 37, 4층 401호 (구래동, 경서프라자)",C,0,,연세온유외과의원,031-989-9775,,1800,0900,1800,0900,1800,0900,1800,0900,1800,0900,1400,0900,,,,,37.6441965704,126.6273265583
"부산광역시 해운대구 해운대로 793, 2층 (좌동, 해운대자생한방병원)",C,0,2호선 장산역 12번출구,곽희숙외과의원,051-704-9277,,1700,0930,1700,0930,1700,0930,1700,0930,1700,0930,1300,0930,,,,,35.16966664400627,129.17526332835513
"부산광역시 해운대구 센텀남대로 50, A1502호 (우동, 센템임페리얼타워빌딩)",C,0,버스정류장: 2호선 센텀시티역 9번출구(센텀브라이언빌딩 403호),길맥흉부외과의원,051-754-9975,,1800,0930,1800,0930,1800,0930,1800,0930,1800,0930,1300,0930,,,,,35.16806198005217,129.13137925464187
부산광역시 해운대구 반송로 896 (반송동),C,0,4호선 동부산대학역 2번출구,김대석외과의원,051-542-8844,,1900,0900,1900,0900,1900,0900,1900,0900,1900,0900,1300,0900,,,,,35.23111781124312,129.15202524668825
전라남도 광양시 중마중앙로 61  (중동),C,0,광양시 중동 터미널 사거리 SK텔레콤 2층,김외과의원,061-794-7733,,1700,0900,1700,0900,1700,0900,1200,0900,1700,0900,1200,0900,,,,,34.935701060318955,127.69774855070176
"전라남도 광양시 광영로 70, 4층 (광영동)",C,0,동광양 농협 근처,정외과의원,061-792-8561,,1830,0900,1830,0900,1830,0900,1830,0900,1830,0900,1230,0900,,,,,34.9621958013874,127.72091538653181
"전라남도 광양시 광양읍 칠성로 60-1, 2층",C,0,들풀 한의원 근처  신형 광양중앙본점 맞은편 ,현대외과의원,061-763-7788,,1800,0830,1800,0830,1800,0830,1800,0830,1800,0830,1300,0830,,,,,34.978677594355666,127.58513198124416
"경상남도 양산시 동면 금오로 253, 6,7,8층",C,0,,양산우리외과의원,055-785-1234,,1830,0900,1830,0900,1830,0900,1830,0900,1830,0900,1300,0900,,,,,35.3160180102,129.0269544019
"경상남도 양산시 양산역6길 3, 센트럴스위트 2층 206호 (중부동)",C,0,,양산유외과의원,055-785-2345,,1730,0930,1830,0930,1730,0930,1830,0930,1730,0930,1300,0930,,,,,35.3378208562,129.0266015422
"경기도 고양시 일산서구 강선로 49, 303호 (주엽동, 일산비스타오피스텔)",C,0,,플라워여성외과의원,031-911-7599,,1830,0900,1830,0900,1830,0900,1830,0900,1830,0900,1500,0900,,,,,37.66875542690833,126.7633762058574
"부산광역시 해운대구 센텀3로 32, 402호 (우동, 트럼프월드센텀2 상가)",C,0,2호선 센텀시티역 3번 출구,유창현외과의원,051-747-0400,,1500,0800,1500,0800,1500,0800,1500,0800,1500,0800,,,,,,,35.16650710909676,129.13391099518515
"경기도 고양시 일산서구 중앙로 1416, 401호 (주엽동, 한사랑빌딩)",C,0,,박세호여성외과의원,031-911-1135,,1900,0900,1900,0900,1900,0900,1900,0900,1900,0900,1600,0900,,,,,37.669806943491295,126.76296481969763
경상남도 양산시 덕계로 41 (덕계동),C,0,동일아파트 2차,황외과의원,055-366-7582,,2000,0900,2000,0900,2000,0900,2000,0900,2000,0900,1300,0900,1300,1000,1300,0900,35.372052551355345,129.14903690045438
"부산광역시 해운대구 선수촌로165번길 6, 2층 (반여동)",C,0,버스정류장: 반여동 삼어동입구,이헌용외과의원,051-523-8254,,1800,0900,1800,0900,1800,0900,1800,0900,1800,0900,1300,0900,,,,,35.20770000000002,129.12272222222734
"경기도 고양시 일산서구 덕이로 10 (덕이동, 지하1층 일부,2층 일부)",C,0,,아이산외과의원,031-929-3111,,1800,0900,1800,0900,1800,0900,1800,0900,1800,0900,1300,0900,,,,,37.689360456397075,126.75833582176344
"부산광역시 해운대구 해운대로 794, 603호 (좌동, 삼정엘리움)",C,0,2호선 장산역 13번출구/삼정엘리움 603호,삼성뉴방외과의원,051-703-3651,,1830,0900,1830,0900,1830,0900,1830,0900,2030,0900,1430,0900,,,,,35.168792978657,129.17574047513392
"부산광역시 해운대구 양운로 82, 해운대화인크리닉센타 5층 502호 (좌동)",C,0,2호선 장산역 10번 출구/화인크리닉건물 5층,서울외과의원,051-704-7273,,1800,0900,1800,0900,1300,0900,1800,0900,1800,0900,1300,0900,,,,,35.17046324737444,129.17555918841205
부산광역시 해운대구 해운대로 407  (우동),C,0,2호선 시립미술관역 2번 출구/센텀프라자빌딩 301호,센텀외과의원,051-704-7222,,1800,0930,1800,0930,1800,0930,1800,0930,1800,0930,1200,0900,,,,,35.16774925018702,129.14053229922362
"부산광역시 해운대구 해운대로 365, 7층 701호 (우동)",C,0,2호선 벡스코역 8번 출구,센텀화외과의원,051-710-8253,,1900,0930,1900,0930,1900,0930,1900,0930,1900,0930,1400,1000,,,,,35.17042300863898,129.13744781872907
"부산광역시 해운대구 재반로 253-1, 2층 (반여동)",C,0,버스정류장: 반여3동 우체국,손외과의원,051-784-2243,,1830,0900,1830,0900,1830,0900,1830,0900,1830,0900,1400,0900,,,,,35.19997739164422,129.1312881307777
경상북도 영덕군 영해면 예주시장길 8,C,0,영해 시외버스 정류장 앞,권외과의원,054-734-4663,,1800,0900,1800,0900,1800,0900,1800,0900,1800,0900,1300,0900,,,,,36.53836145442862,129.40471811379194
"대구광역시 동구 경안로 850, 5층 501,502호 (각산동)",C,0,"1.혁신도시입구[각산동]: 각산네거리에서 혁신도시방면(북쪽) 600m
2.버스 [혁신도시입구2] 동구4, 708
",경북연합외과의원,053-962-6991,,1900,0900,1900,0900,1900,0900,2000,1300,1900,0900,,,,,,,35.87824792798023,128.71443998978384
서울특별시 노원구 노해로 456,C,0,노원역 6번 출구 동방프라자 4층,선두외과의원,02-935-7535,,2100,0900,1900,0900,1900,0900,1900,0900,1900,0900,1400,0900,,,,,37.65366952385188,127.05895286171138
서울특별시 노원구 동일로 1413,C,0,,세이유외과의원,02-951-6075,,1800,0930,1800,0930,1800,0930,1300,0930,1800,0930,1500,0900,,,,,37.65476819187273,127.06001441104628
서울특별시 노원구 동일로 1339,C,0,중계역 6번 출구/상계백병원 반대편/,슐다이스외과의원,02-951-1119,,1800,0900,1800,0900,1800,0900,1800,0900,1800,0900,1500,0900,,,,,37.64814311482034,127.06220295357025
서울특별시 노원구 노해로 457 은성빌딩 3층,C,0,노원역 7번 출구/,동인외과의원,02-951-5678,,1800,0930,1800,0930,1800,0930,1800,0930,1800,0930,1300,0930,,,,,37.65418042951913,127.05874666060526
서울특별시 노원구 동일로 1417,C,0,노원역 8번출구/삼양빌딩 401호/,미유여성외과의원,02-930-7878,,1800,0900,1800,0900,1800,0900,1800,0900,1700,0900,,,1300,0900,,,37.65507093731099,127.05997838501011
"서울특별시 노원구 동일로 1401, 7층 (상계동)",C,0,노원롯데백화점 사거리 국민은행옆건물 상아빌딩 7층,상쾌한아침외과의원,02-3391-7775,,1800,0900,1800,0900,1800,0900,1800,0900,1800,0900,1600,0900,,,,,37.65357414330212,127.06038255411347
"경기도 부천시 소사로 712, 2층일부 (원종동)",C,0,,호산외과의원,032-677-8765,,1800,0930,1800,0930,1800,0930,1800,0930,1800,0930,1300,0930,,,,,37.51959540039041,126.8051545583079
서울특별시 노원구 동일로 1371 (상계동) ,C,0,7호선 노원역 6번출구/,김영돈여성외과의원,02-952-8822,,1900,0900,1900,0900,1900,0900,1900,0900,1900,0900,1330,0900,,,,,37.6509536968343,127.06113739739787
"경기도 안양시 만안구 안양로314번길 24, 1,2,3,5,6층 (안양동)",C,0,,연세신통외과의원,031-444-8275,,1800,0900,1800,0900,1800,0900,1800,0900,1800,0900,1300,0800,,,,,37.40056598055045,126.92179129457821
경기도 안양시 만안구 박달로 502 (박달동),C,0,,우성외과의원,031-446-5157,,1900,0900,1900,0900,1900,0900,1900,0900,1900,0900,1500,0900,,,1700,0900,37.40241236589591,126.90828144091523
충청남도 계룡시 엄사면 번영로 14,C,0,성원아파트8동앞,김광석외과의원,042-841-4411,,1800,0900,1800,0900,1800,0900,1800,0900,1800,0900,1300,0900,,,,,36.28820515898522,127.24357337629849
"경기도 안양시 만안구 만안로 241, 4,12층 (안양동, 대성빌딩)",C,0,,한나이브외과의원,031-441-4477,,1900,1000,2100,1000,2100,1000,1900,1000,2100,1000,1500,1000,,,,,37.40163625814212,126.92158688739715
"서울특별시 노원구 동일로192길 20, (공릉동)",C,0,"7호선 공릉역 1,2번 출구",중앙외과의원,02-977-1001,,1900,0900,1900,0900,1900,0900,1900,0900,1900,0900,1600,0900,,,,,37.6259023957385,127.07425736195134
대구광역시 동구 팔공로 170 (불로동),C,0,,신세계외과의원,053-984-6551,,1800,0900,1800,0900,1800,0900,1800,0900,1800,0900,,,,,,,35.91394838825692,128.64122203283972
대구광역시 동구 효신로 24,C,0,,안태수외과의원,053-754-6226,,1830,0900,1830,0900,1830,0900,1830,0900,1830,0900,1200,0900,,,,,35.874164474832014,128.63471471376576
대구광역시 동구 효목로 45 (효목동),C,0,,우리제통외과의원,053-755-7005,,1830,0900,1830,0900,1830,0900,1830,0900,1830,0900,1330,0900,,,,,35.877461985833264,128.63967166105098
"대구광역시 동구 안심로 58, 5층 (율하동)",C,0,,이자현유외과의원,053-965-6900,,1800,0900,1800,0900,1800,0900,1800,0900,1800,0900,1400,0900,,,,,35.8699390209,128.6919281875
서울특별시 노원구 상계로 84 큐비스트빌딩 3층,C,0,4호선 노원역 1번출구 큐비스트빌딩 3층,푸름외과의원,02-931-0365,,1900,0900,1900,0900,1900,0900,1900,0900,1900,0900,1400,0900,,,,,37.6563326894299,127.06428774549297
"서울특별시 노원구 동일로 1624, 통일상가 (상계동)",C,0,수락산역 3번출구 노일초등학교 맞은편,한세외과의원,02-939-3993,,1830,0930,1830,0930,1830,0930,1830,0930,1830,0930,1400,0930,,,,,37.673354710797966,127.05585088980634
대구광역시 동구 아양로 236 (효목동),C,0,,현대외과의원,053-942-3993,,1830,0900,1830,0900,1830,0900,1730,0900,1830,0900,1300,0900,,,,,35.886533333333333,128.638688888888879
대구광역시 동구 아양로 200,C,0,,황금빛학문외과의원,053-939-7275,,1800,0900,1800,0900,1800,0900,1300,0900,1800,0900,1300,0900,,,,,35.88568930315332,128.63489378428142
"전라북도 군산시 중앙로 155, 3층 (중앙로1가)",C,0,구 경찰서 옆 ,동남외과의원,063-445-5464,,1730,0900,1730,0900,1730,0900,1730,0900,1730,0900,,,,,,,35.9862504499901,126.71302888543958
경상북도 칠곡군 약목면 약목로5길 3,C,0,,영남외과의원,054-975-2567,,1650,0900,1650,0900,1650,0900,1650,0900,1650,0900,1300,0900,,,1300,0900,36.03441069332965,128.3648927749344
경기도 부천시 부흥로 440 (심곡동),C,0,원미초등학교 맞은편,가톨릭외과의원,032-654-6661,,1830,0900,1830,0900,1830,0900,1830,0900,1830,0900,1530,0900,,,,,37.48740737825771,126.7880876636343
"경기도 부천시 상동로 87, 404~406호, 가나베스트타운3 (상동)",C,0,세이브존대각선맞은편 롯데리아건물 4층,상쾌한장문외과의원,032-323-6119,,2100,0900,2100,0900,2100,0900,2100,0900,2100,0900,1300,0900,,,,,37.505210556995685,126.75252483826676
경기도 부천시 부천로 128 ,C,0,,서울외과의원,032-651-1420,,1700,1000,1700,1000,1700,1000,1700,1000,1700,1000,1200,1000,,,,,37.49561290261545,126.78562641520274
"경기도 부천시 길주로 195, 502호 (중동, 금영프라자2차)",C,0,,서울정맥외과의원,032-328-6662,,1730,0900,1730,0900,1730,0900,1730,0900,1730,0900,1200,0900,,,,,37.5050867298,126.7642239834
충청남도 천안시 동남구 만남로 43,C,0,고속버스 터미널 건물 윗층,Dr.원흉부외과의원,041-564-3770,,1830,0930,1830,0930,1400,0930,1830,0930,1830,0930,1400,0900,,,,,36.81921556831527,127.15444226852819
경기도 부천시 길주로 183,C,0,부천시청역 4번출구 앞 영라이프 6층,미웰유외과의원,032-719-8288,,1800,0930,1800,0930,1530,0930,1800,0930,2000,0930,1530,0930,,,,,37.505277185212584,126.7629601981684
"경기도 부천시 부천로 364, 2층 (도당동)",C,0,부개중 도당동사무소바로앞,바른연세외과의원,032-677-8822,,1830,0900,1830,0900,1830,0900,1830,0900,1830,0900,1300,0900,,,,,37.51651394940473,126.7848958931338
경기도 부천시 소사로 188 (소사본동),C,0,소사초교사거리 실로암한의원 맞은편,본외과의원,032-345-8575,,1900,0900,1900,0900,1900,0900,1900,0900,1900,0900,1500,0900,,,,,37.47501673279462,126.79577175656467
경기도 부천시 길주로 191,C,0,중동이마트맞은편 하나은행옆건물,부천우방외과의원,032-236-6075,,1800,0930,1800,0930,1800,0930,1800,0930,1800,0930,1530,0900,,,,,37.50515652873382,126.76389249498017
"경기도 부천시 길주로 275, 201호 (중동, 중동프라자)",C,0,,비너스여성외과의원,032-322-6075,,1800,0930,1800,0930,1800,0930,1800,0930,1800,0930,1500,0930,,,,,37.50390439913372,126.77332056123656
"경기도 부천시 역곡로 7, 6층 (역곡동, 스카이빌딩)",C,0,역곡북부역 주변,김앤정외과의원,032-347-5005,,1800,0900,1800,0900,2000,0900,1800,0900,1800,0900,1500,0900,,,,,37.48601230424296,126.81128872779806
충청남도 천안시 동남구 만남로 52 (신부동) 401호,C,0,문타워 건물 4층,삼성흉부외과의원,041-564-8877,,1830,0930,1830,0930,1830,0930,1830,0930,1830,0930,1600,0900,,,,,36.818658154191205,127.15783887922463
"경기도 부천시 중동로254번길 90, 301호,302호 (중동, 중동파크타운)",C,0,중동현대백화점과 E마트 사이길로 가다보면 나오는 농협 건너편 건물 2층,원용순흉부외과의원,032-326-3535,,1800,0900,1800,0900,1800,0900,1800,0900,1800,0900,1300,0900,,,,,37.50140370399999,126.7735769227
"대구광역시 수성구 달구벌대로 2296, 5층 (수성동1가, 영광빌딩)",C,0,,대구송도외과의원,053-744-7175,,1900,0900,1900,0900,1900,0900,1900,0900,1900,0900,1500,0900,,,,,35.859508333333331,128.613574999999997
"대구광역시 수성구 달구벌대로 3204, 6층 (신매동, 시지메디빌)",C,0,,대구학문외과의원,053-791-6001,,1830,0930,1830,0930,1830,0930,1830,0930,1830,0930,1300,0930,,,,,35.839980555555556,128.706952777777786
"대구광역시 수성구 달구벌대로 2296, 6층 (수성동1가, 영광빌딩)",C,0,,더블유외과의원,053-744-6075,,1800,0900,1800,0900,1400,0900,1800,0900,1800,0900,1400,0900,,,,,35.859487142281296,128.61361104047953
경기도 성남시 분당구 황새울로258번길 36,C,0,,분당서울외과의원,031-717-1345,,1830,0930,1830,0930,1830,0930,1830,0930,1830,0930,1400,0930,,,,,37.379195672116765,127.11573837982282
"대구광역시 수성구 달구벌대로 2280, 5층 (수성동1가)",C,0,,마크원외과의원,053-285-6001,,1800,0900,1800,0900,1800,0900,1800,0900,1800,0900,1300,0900,,,,,35.859728387301466,128.61164909782676
대구광역시 수성구 달구벌대로 2395,C,0,,미즈유외과의원,053-746-6075,,1800,0900,1800,0900,1800,0900,1800,0900,1800,0900,1300,0900,,,,,35.85960662879325,128.6245460793086
대구광역시 수성구 지범로 57-5,C,0,,백상헌외과의원,053-783-1816,,1830,0900,1830,0900,1830,0900,1830,0900,1830,0900,1400,0900,,,1300,0900,35.826291457956444,128.62895294324454
"경기도 성남시 분당구 황새울로335번길 5, 403호 (서현동, 엔타운빌딩)",C,0,,더유외과의원,031-696-1212,,1830,0930,1830,0930,2030,0930,1830,0930,1830,0930,1600,0930,,,,,37.3860515972227,127.12169875482863
대구광역시 수성구 동대구로 273 (범어동),C,0,,선일외과의원,053-745-6633,,1750,0830,1750,0830,1750,0830,1750,0830,1750,0830,1430,0830,,,,,35.85484468153009,128.62483863335916
대구광역시 수성구 화랑로 48  (만촌동),B,0,,동인외과병원,053-745-2001,,1900,0900,1900,0900,1900,0900,1900,0900,1900,0900,1400,0900,,,1400,0900,35.8700976920241,128.63345324950768
"전라북도 완주군 삼례읍 삼봉로 35, 1층",C,0,삼례우체국사거리에서 봉동방향으로 100m,홍외과의원,063-291-3888,,1800,0900,1800,0900,1800,0900,1800,0900,1800,0900,1300,0900,,,,,35.912661871,127.0754417576
충청북도 충주시 대소원면 쇠실로 1016,C,0,,우리들외과의원,043-851-6004,,1800,0800,1800,0800,1800,0800,1800,0800,1800,0800,1500,0800,,,,,36.97501781663455,127.81900119124059
대구광역시 수성구 달구벌대로 3218 (신매동),C,0,,경대연합외과의원,053-793-0075,,1900,0900,1900,0900,1900,0900,1900,0900,1900,0900,1500,0900,,,,,35.8393181421378,128.70838711791936
경기도 부천시 부일로205번길 26,C,0,"송내역 북부광장으로나와서 로데오가는거리 둘리공원 바로앞 , 투나맞은편",송내외과의원,032-324-0804,,1900,0900,1900,0900,1900,0900,1900,0900,1900,0900,1500,0900,,,,,37.489673950452314,126.7534483828309
충청북도 충주시 주덕읍 신양로 120,C,0,입원실 없음,주덕성모외과의원,043-845-0803,,1800,0830,1800,0830,1800,0830,1800,0830,1800,0830,1300,0830,,,,,36.9731589862,127.8003660364
"경기도 부천시 지봉로 117, 2층 (역곡동)",C,0,대림e-편한세상1차아파트 주변 다솜동물병원 맞은편 성심약국 건물 2층.,임동현외과의원,032-345-2208,,1900,0930,1900,0930,1900,0930,1900,0930,1900,0930,1400,0930,,,,,37.48873104926797,126.81210503586581
"경기도 부천시 신흥로 228, 602(중동,중동메디칼빌딩)",C,0,,중동서울외과의원,032-323-7781,,1900,0930,1900,0930,1900,0930,1900,0930,1900,0930,1500,0930,,,,,37.50414543079673,126.77640397125668
"서울특별시 서초구 강남대로 349, 9층 (서초동, 우남빌딩)",C,0,강남역 5번 출구,마음편한유외과의원,02-733-3200,,1900,1000,2000,1000,1900,1000,1900,1000,2000,1000,1600,0930,,,,,37.4939081656,127.0288445572
"대전광역시 서구 대덕대로176번길 9, 6,7층 (둔산동)",C,0,미래여성 병원 옆,삼성외과의원,042-361-5500,,1800,1000,1800,1000,1800,1000,1800,1000,1800,1000,1230,1000,,,1230,1000,36.348690949322915,127.3776604317216
"대전광역시 서구 대덕대로 183, 2층 (둔산동)",C,0,갤러리아백화점 부근,삼성흉부외과의원,042-471-3075,,1900,0900,1900,0900,1900,0900,1900,0900,1900,0900,1700,0900,,,,,36.34980004473047,127.37700984897819
"대전광역시 서구 대덕대로 203, 302호 (둔산동)",C,0,갤러리아 타임월드 맞은편,서울하정외과의원,042-716-1106,,1800,0900,1800,0900,1800,0900,1800,0900,1800,0900,1500,0900,,,,,36.351163321989524,127.3779299078142
"서울특별시 서초구 남부순환로 2632 (양재동, 프레콘빌딩)",C,0,,세란외과의원,02-3463-5658,,1800,0900,1800,0900,1800,0900,1800,0900,1800,0900,1500,0900,,,,,37.4848953641,127.0384155922
"서울특별시 서초구 서초대로77길 9, 801호 (서초동, 강남누드죤빌딩)",C,0,,센스동안외과의원,02-534-7745,,1845,1000,1845,1000,1845,1000,1845,1000,1845,1000,1400,1000,,,,,37.49859040929876,127.02621368124262
"서울특별시 서초구 동작대로 108, 401호 (방배동, 디오슈페리움2)",C,0,총신대입구(이수)역 3번 출구 앞. ,소중한유여성외과의원,02-6326-9770,,1800,0900,1800,0900,1800,0900,1800,0900,1800,0900,1500,0900,,,,,37.48608966195583,126.98261908721281
서울특별시 구로구 고척로 148 (고척동),C,0,,고광송일반외과의원,02-2684-7170,,1800,0900,1800,0900,1800,0900,1800,0900,1800,0900,1500,0900,,,,,37.5027870976,126.850177869
"서울특별시 구로구 구로동로 153, 이스턴프라자 3~5층 (구로동)",C,0,,고려튼튼외과의원,02-857-8511,,1900,0900,1900,0900,1900,0900,1900,0900,1900,0900,1400,0830,,,1300,0830,37.4923549055,126.8834345989
서울특별시 구로구 구로동로 188 (구로동),C,0,,구로중앙외과의원,02-857-1189,,1830,0900,1830,0900,1830,0900,1830,0900,1830,0900,1300,0900,,,,,37.49538900798796,126.88294136653465
"대전광역시 서구 신갈마로 110-1, 3층 (갈마동)",C,0,갈마프라자 건너편 ,한빛외과의원,042-524-7701,,1830,0900,1830,0900,1830,0900,1830,0900,1830,0900,1400,0900,,,1230,0900,36.34386672896388,127.36878797379872
"서울특별시 서초구 강남대로 623, 3층 (잠원동, 우일빌딩)",C,0,,염차경유외과의원,02-516-6875,,1900,0930,1900,0930,1900,0930,2100,1430,1900,0930,1500,0930,,,,,37.51740841867082,127.01873199081665
"대전광역시 서구 배재로 180, 1,2층 (도마동)",C,0,도마동 여성회관 건너편,한솔외과의원,042-533-9797,,1830,0850,1830,0850,1830,0850,1830,0850,1830,0850,1330,0900,,,,,36.32450372698396,127.37062560741019
"서울특별시 서초구 강남대로 421, 8층 (서초동, 삼영빌딩)",C,0,강남역 10번출구 60m 직직 왼편 삼영빌딩 8층 ,제이제이서연외과의원,02-537-2821,,1800,1000,1800,1000,1800,1000,1800,1000,1800,1000,1500,1000,,,,,37.50008969453413,127.02616444586505
"서울특별시 중랑구 겸재로 194, 2,3층 (면목동, 용현빌딩)",C,0,지하철/면목역2번출구로 나와서 일직선방향으로 30m,면목성심외과의원,02-493-1940,,1900,0900,1900,0900,1900,0900,1900,0900,1900,0900,1600,0900,,,1300,0900,37.58851374780476,127.0890969317497
서울특별시 서초구 잠원로8길 25  (잠원동),C,0,잠원역 4번출구 래미안신반포팰리스 아파트상가 2층,이동윤외과의원,02-592-3801,,1830,0930,1830,0930,1830,0930,1830,0930,1830,0930,1400,0930,,,,,37.51434379002546,127.01162462333687
"경기도 용인시 수지구 문정로 32, 4,6,7층 (풍덕천동)",C,0,수지구청 사거리 수지코아빌딩4층,늘푸른외과의원,031-262-8275,,1800,0900,1800,0900,1800,0900,1800,0900,1800,0900,1700,0900,1200,0900,1200,0900,37.323537069428916,127.09553089677087
서울특별시 중랑구 용마산로 541 (망우동),C,0,망우4거리 하나은행 옆,성누가외과의원,02-491-1727,,1900,0900,1900,0900,1900,0900,1900,0900,1900,0900,1500,0900,,,1300,0900,37.599244751113005,127.10016160548723
"서울특별시 중랑구 망우로 412, 6층 (망우동)",C,0,KB국민은행 망우동지점 맞은편,강북송도외과의원,02-496-8002,,1700,0900,1700,0900,1400,0900,1700,0900,1800,0900,1400,0900,,,,,37.59908075991216,127.09799626968406
"서울특별시 관악구 남부순환로 1814, 대연빌딩 7층 (봉천동)",C,0,서울대입구역 8번출구 서호메디컬빌딩 7층,참하지외과의원,02-6959-1550,,1800,0800,1800,0800,1800,0800,1800,0800,1800,0800,1600,0800,,,,,37.481035364357766,126.95156465477139
"서울특별시 관악구 관악로 248, (봉천동)",C,0,강남고려병원 인근,최정학외과의원,02-877-1267,,1830,0900,1830,0900,1830,0900,1830,0900,1830,0900,1500,0900,,,,,37.4862093117,126.9571514372
"서울특별시 중랑구 사가정로 399, 2층 (면목동)",C,0,사가정역 4번출구에서 맞은편,동부외과의원,02-494-1004,,1900,0900,1900,0900,1900,0900,1900,0900,1900,0900,1400,0900,,,,,37.58077406072521,127.08921079802958
"경기도 구리시 검배로 78 (수택동, 행복한외과)",B,0,,행복한외과병원,031-557-7582,,1900,0900,1900,0900,1900,0900,1900,0900,1900,0900,1600,0900,1600,0900,1600,0900,37.59546048138554,127.14666962510085
강원도 춘천시 약사고개길 15 (죽림동),C,0,중앙시장 제일백화점 옆,김호준외과의원,033-251-0129,,1730,0830,1730,0830,1730,0830,1730,0830,1730,0830,1230,0830,,,,,37.877024882468646,127.72611157234317
강원도 춘천시 후석로 22,C,0,하이마트 삼성디지털센터 건너편,상쾌한아침외과의원,033-264-5100,,1800,1000,1800,1000,1800,1000,1800,1000,1800,1000,1300,1000,,,,,37.85670611203924,127.74021172998309
충청북도 청주시 흥덕구 사직대로 30,C,0,,이영희외과의원,043-265-4408,,1900,0900,1900,0900,1900,0900,1900,0900,1900,0900,1530,0900,,,1300,0900,36.634116329117894,127.45075698633437
"경상북도 의성군 금성면 탑리길 15, 1층",C,0,,제일외과의원,054-832-7585,,1830,0800,1830,0800,1830,0800,1830,0800,1830,0800,1400,0800,,,1400,0800,36.253066666666669,128.683016666666674
서울특별시 관악구 양녕로 64 (봉천동),C,0,,양일반외과의원,02-878-6336,,1750,0900,1750,0900,1750,0900,1750,0900,1750,0900,1250,0900,,,,,37.4877367861,126.9467299301
전라남도 목포시 산정로50번길 3 (산정동),C,0,,박외과의원,061-242-7577,,1800,0830,1800,0830,1800,0830,1800,0830,1800,0830,1230,0830,,,,,34.79300989376506,126.39329434036324
"서울특별시 관악구 봉천로 391, 3층 (봉천동, 두산A상가)",C,0,봉천역 6번출구 두산 A상가 3층,연세본외과의원,02-3285-0005,,2000,0900,2000,0900,2000,0900,2000,0900,2000,0900,1500,0900,,,,,37.48347159522107,126.9432505659861
서울특별시 관악구 신림로 298 (신림동),C,0,관동빌딩,은진외과의원,02-878-4411,,1830,1000,1830,1000,1830,1000,1830,1000,1830,1000,1430,1000,,,,,37.48095272238706,126.93041779867515
"부산광역시 동구 중앙대로221번가길 5, (초량동)",C,0,국민은행 초량지점 뒷편,굿모닝외과의원,051-441-6787,,1800,0900,1800,0900,1800,0900,1800,0900,1800,0900,1300,0900,,,,,35.117152777777775,129.040197222222218
충청남도 논산시 연무읍 안심로110번길 2,C,0,"태평양약국옆, 사거리 5층건물 ",김외과의원,041-742-0170,,1800,0830,1800,0830,1800,0830,1800,0830,1800,0830,1200,0830,,,,,36.130707651606876,127.09994883540392
충청남도 논산시 해월로 178 (반월동),C,0,"구 아원백화점 옆건물, 제일감리교회 맞은편",김현장외과의원,041-734-5544,,1800,0840,1800,0840,1800,0840,1800,0840,1800,0840,1300,0840,,,1200,0840,36.205377198855395,127.08640500551438
충청남도 논산시 강경읍 계백로 93 (대전지방법원논산지원),C,0,법원 옆,김현준외과의원,041-745-6475,,1730,0900,1730,0900,1730,0900,1730,0900,1730,0900,1230,0900,,,,,36.15485670904585,127.01226926489048
충청남도 논산시 연무읍 안심로 115-1,C,0,"시외버스터미널근처, 파리바게트 옆 ",서울외과의원,041-741-5703,,1800,0800,1800,0800,1800,0800,1800,0800,1800,0800,1300,0900,,,,,36.13120193547425,127.09943398179917
충청남도 논산시 중앙로 414 (취암동),C,0,"주변에 다비치 안경원, 정문에 전자랜드",왕외과의원,041-735-1557,,1840,0900,1840,0900,1840,0900,1840,0900,1840,0900,,,,,,,36.201095504577175,127.08834010821258
"서울특별시 관악구 남부순환로 1832, 오선빌딩 5층 (봉천동)",C,0,서울대입구역 1번 출구,레이디유외과의원,02-877-7570,,1800,0900,1800,0900,1900,0900,1800,0900,1800,0900,1400,0900,,,,,37.480704569,126.9534959421
충청남도 논산시 연무읍 안심로 33,C,0,연무농협옆,정다운외과의원,041-741-5888,,1800,0830,1800,0830,1800,0830,1800,0830,1800,0830,1300,0830,,,1300,0830,36.12436504459186,127.09761260820355
충청남도 논산시 중앙로 485 (화지동),C,0,하나은행옆 인디안옆,한일외과의원,041-732-1901,,1830,0830,1830,0830,1830,0830,1830,0830,1830,0830,1600,0830,,,1300,0830,36.205908333333333,127.083397222222217
전라남도 목포시 백년대로 322  (상동),B,0,목포한빛초등학교 근처,목포장문외과병원,061-284-0975,,1800,0900,1800,0900,1800,0900,1800,0900,1800,0900,1300,0900,,,,,34.80468771451715,126.42273134173024
제주특별자치도 서귀포시 서문로 2  (서귀동),C,0,,양승지외과의원,064-762-8875,,1800,0800,1800,0800,1800,0800,1300,0800,1800,0800,1300,0800,,,,,33.25238329697518,126.56038746335096
경상북도 의성군 안계면 용기4길 12,C,0,,경북외과의원,054-862-0090,,1745,0830,1745,0830,1745,0830,1745,0830,1745,0830,1300,0830,,,1300,0800,36.38884803021937,128.4336811138546
전라남도 목포시 신죽길 38 (죽교동),C,0,*뒷께 순천당약국 바로 앞,최신외과의원,061-244-7575,,1700,0830,1700,0830,1700,0830,1700,0830,1700,0830,1200,0830,,,,,34.79843708718089,126.37813683653201
경상남도 김해시 분성로 660 (안동),C,0,한일아파트 근처,중앙외과의원,055-321-2470,,1800,0830,1800,0830,1800,0830,1800,0830,1800,0830,1230,0830,,,,,35.23569174482569,128.9180685000397
"경상남도 김해시 내외로 80 (외동, 옥정빌딩 3층)",C,0,내외동소방서 근처,김&김복음외과의원,055-322-3006,,1830,0930,1830,0930,1830,0930,1830,0930,1830,0930,1300,0930,,,,,35.234434325277256,128.8658705628257
"경상남도 김해시 활천로 229, 3, 7층 (어방동)",C,0,,한빛학문외과의원,055-323-3556,,1800,0900,1800,0900,1800,0900,1800,0900,1800,0900,1200,0900,,,,,35.2426874329,128.9043880156
경상남도 김해시 장유로 282 (무계동),C,0,장유면사무소사거리 부근,이승훈외과의원,055-313-8275,,1900,1000,1900,1000,1900,1000,1900,1000,1900,1000,1500,1000,,,,,35.200191846417475,128.81329499438496
경상남도 김해시 가락로 40 (부원동),C,0,우체국 근처,장외과의원,055-334-5295,,1830,0900,1830,0900,1830,0900,1830,0900,1830,0900,1530,0900,1230,0900,1230,0900,35.23011729002471,128.88237665884017
"경기도 오산시 성호새싹길 31, 2층 (오산동)",C,0,,훼미리외과의원,031-375-7512,,1830,0830,1830,0830,1830,0830,1830,0830,1830,0830,1600,0830,,,,,37.1515992751285,127.07004475963694
"서울특별시 성동구 왕십리로 309, 301, 302호 (행당동, 왕십리역이스타빌)",C,0,성동우체국 옆,행당외과영상의학과의원,02-2292-7323,,1830,0900,1830,0900,1830,0900,1830,0900,1830,0900,1400,0900,,,,,37.56135698254054,127.03469733529175
경상북도 포항시 북구 중흥로 237,C,0,,성모연합외과의원,054-281-1196,,1800,0900,1800,0900,1800,0900,1800,0900,1800,0900,1400,0900,1100,1000,1100,1000,36.02464360567926,129.35908823944402
"서울특별시 성동구 왕십리로 326, 2층 (도선동)",C,0,"왕십리역 1번 출구, 도보 10분",연세유앤외과의원,02-2282-2755,,1800,0930,1800,0930,1800,0930,1800,0930,1800,0930,1300,0930,,,,,37.56275417,127.0338964669
"서울특별시 성동구 마장로 318, (마장동)",C,0,마장역 3번출구,주외과의원,02-2292-1613,,1800,0900,1800,0900,1800,0900,1800,0900,1800,0900,1400,0900,,,,,37.567035724033545,127.04465608903777
충청남도 논산시 강경읍 계백로 116-1,C,0,"강경역사거리, 농협중앙회 옆",조외과의원,041-745-3770,,1800,0830,1800,0830,1800,0830,1800,0830,1800,0830,1230,0830,,,,,36.155338888888892,127.013952777777774
인천광역시 부평구 부평대로 17-1 (부평동) ,C,0,"우리은행, 국민은행 대로 건너편 건물 2층",금세형외과의원,032-507-7776,,1900,1000,1900,1000,1900,1000,1900,1000,1900,1000,1500,1000,,,,,37.49299516017617,126.72268972238898
"인천광역시 부평구 광장로 16, 6층 (부평동, 부평민자역사)",C,0,부평역사건물 6층,부평수흉부외과의원,032-525-7506,,1830,0930,1830,0930,1830,0930,1830,0930,1830,0930,1600,0930,,,,,37.48965414354505,126.72350677242423
"인천광역시 부평구 광장로 4, 6층 (부평동, 코아빌딩)",C,0,부평역사 6층,부평하루여성외과의원,032-511-6875,,1800,0900,1800,0900,1800,0900,1800,0900,1800,0900,1500,0900,,,,,37.49104302206624,126.72254727350052
부산광역시 북구 만덕대로 14 (덕천동),C,0,"2,3호선 덕천역 9번 출구",편한몸외과의원,051-332-8575,,1730,0930,1730,0930,1730,0930,1730,0930,1730,0930,1730,0930,,,1730,0930,35.21020269010282,129.00672531568367
"경기도 화성시 동탄반석로 124, 307호 (반송동, 센터프라자)",C,0,,아름다운외과의원,031-8015-0675,,1900,1000,1900,1000,1900,1000,1900,1000,1900,1000,1500,1000,,,,,37.199977777777775,127.071463888888886
"부산광역시 북구 만덕대로 11-1, 2,3층 (덕천동)",C,0,"2,3호선 덕천역 12번 출구 ",오케이(OK)황문외과의원,051-338-8868,,1800,0900,1800,0900,1800,0900,1800,0900,1800,0900,1300,0900,,,,,35.2105888888889,129.0064305555567
"경기도 화성시 동탄반석로 196, 305-307호 (반송동,아이프라자)",C,0,아이프라자305~307,건강한유외과의원,031-8003-3379,,1800,0900,1800,0900,1800,0900,1800,0900,1800,0900,1400,0900,,,,,37.206086111111112,127.072363888888887
경기도 화성시 효행로 1385 (반월동),C,0,,박동수외과의원,031-204-8275,,1800,0900,1800,0900,1800,0900,1800,0900,1800,0900,1300,0900,,,,,37.23104244490298,127.06529967778589
"인천광역시 부평구 경원대로 1415, 304호 (부평동, 파라움)",C,0,,인천어바웃유외과의원,032-362-1717,,1800,0900,1800,0900,2000,0900,1800,0900,1800,0900,1500,0900,,,,,37.49156921125821,126.72631344443509
"경기도 화성시 남양읍 시청로 115, 2층 (2072-9)",C,0,화성시청 인근,남양뉴타운외과의원,031-366-7252,,1900,0830,1900,0830,1900,0830,1900,0830,1900,0830,1400,0830,,,,,37.2007370046,126.8262120729
"인천광역시 부평구 부평대로 11, 제일메디컬크리닉센터 3층 (부평동)",C,0,부평소방서 맞은편,제일외과의원,032-519-2314,,1830,0900,1830,0900,1830,0900,1830,0900,1830,0900,1530,0900,,,,,37.492340777753014,126.72268266241696
"충청남도 천안시 서북구 불당25로 176, 4층 401~403호 (불당동)",C,0,신세계백화점 맞은편 로얄빌딩5층 ,W여성외과의원,041-568-8300,,1800,0930,1800,0930,1300,0900,1800,0930,1800,0930,1300,0900,,,,,36.81856193415034,127.15540035685572
충청남도 천안시 서북구 충무로 201,C,0,이마트 대각선 던킨도너츠 건물 5층,고정관흉부외과의원,041-578-3600,,1800,0900,1800,0900,1800,0900,1800,0900,1800,0900,1300,0900,,,,,36.796149226301964,127.12828531830192
"충청남도 천안시 서북구 두정로 202, 6층 (두정동)",C,0,리즈앤마리안산부인과 옆,김혜은여성외과의원,041-574-0100,,1800,0930,1800,0930,1300,0930,1800,0930,1800,0930,1300,0830,,,,,36.83342342261858,127.1393187945744
"경기도 화성시 남양읍 남양성지로 147, 103,204호",C,0,화성시 남양동 사거리,연합외과의원,031-355-8850,,1900,0900,1900,0900,1900,0900,1900,0900,1900,0900,1400,0900,,,,,37.20956890045711,126.81909448251666
충청남도 천안시 서북구 동서대로 125-3,C,0,롯데마트근처 하나은행건물 5층,이지흉부외과의원,041-562-2775,,1800,0930,1800,0930,1800,0930,1800,0930,1800,0930,1300,0930,,,,,36.8262293938099,127.13689407027721
"충청남도 천안시 서북구 쌍용대로 8, 3,4,5층 (쌍용동)",C,0,충무병원 옆,창문외과의원,041-578-7533,,1830,0900,1830,0900,1830,0900,1830,0900,1830,0900,1500,0900,,,1300,0900,36.79815395081423,127.13101364007821
"충청남도 천안시 서북구 충무로 175, 7층 (쌍용동, 금정빌딩)",C,0,이마트 옆쪽,미유외과의원,041-579-1095,,1800,0900,1800,0900,1800,0900,1800,0900,1800,0900,1300,0900,,,,,36.79487528187422,127.12637399497484
"충청남도 천안시 서북구 동서대로 125-3, 5층 (성정동,천안크리닉빌딩 )",C,0,하나은행건물5층,파티마외과의원,041-561-7175,,1900,0900,1900,0900,1900,0900,1900,0900,1900,0900,1500,0900,,,,,36.826311994166545,127.13689483868896
충청남도 천안시 서북구 성거읍 성거길 103,C,0,삼일아파트상가 2층,송재화외과의원,041-558-1118,,1900,0830,1900,0830,1900,0830,1900,0830,1900,0830,1600,0830,,,,,36.87467471789645,127.20164651497433
"전라남도 여수시 중앙로 7-1, 2층 (서교동)",C,0,KT여수지사 건너편 백제약국 2층,박외과의원,061-642-4460,,1800,0900,1800,0900,1800,0900,1800,0900,1800,0900,1300,0900,,,,,34.74060007773434,127.72854632797833
충청남도 홍성군 홍성읍 내포로 6,C,0,하나빌딩 바로 옆건물 ,윤외과의원,041-632-5437,,1730,0830,1730,0830,1730,0830,1730,0830,1730,0830,1300,0830,,,,,36.601167304697896,126.66622469872365
충청남도 홍성군 광천읍 광천로 320-0,C,0,광천오거리 파리바게트 2층,참좋은연세외과의원,041-642-2323,,1800,0800,1800,0800,1800,0800,1800,0800,1800,0800,1330,0800,,,1300,0800,36.502498765927974,126.62603199939784
충청남도 홍성군 홍성읍 조양로205번길 54,C,0,홍성의료원앞 종로약국 옆 골목길,홍성중앙외과의원,041-632-7582,,1800,0900,1800,0900,1800,0900,1800,0900,1800,0900,1200,0900,,,,,36.600351365268494,126.67487859861286
광주광역시 남구 독립로 112 (백운동),C,0,백운동 대성초등학교 사거리,소망외과의원,062-652-1987,,1800,0900,1800,0900,1200,0900,1800,0900,1800,0900,1200,0900,,,,,35.14342224470456,126.90329822459452
광주광역시 남구 양림로 54 (양림동),C,0,기독병원 아래 ,김성봉외과의원,062-653-0773,,1800,0930,1800,0930,1800,0930,1800,0930,1800,0930,1230,0930,,,,,35.13703821465868,126.91476664585056
"경기도 광명시 광명로 944, 3층 (광명동, 광명2동 우체국건물)",C,0,,성지외과의원,02-2615-6553,,1830,0900,1830,0900,1830,0900,1830,0900,1830,0900,1500,0900,,,,,37.48298704912179,126.85635904396167
"경기도 광명시 소하로 82, 4층 (소하동, 한빛프라자)",C,0,,강남외과의원,02-898-6075,,1830,0930,1830,0930,1330,0930,1830,0930,1830,0930,1330,0930,,,,,37.4476394915,126.8833548385
"경기도 광명시 철산로 20, 7층 701호 (철산동, 야우리빌딩)",C,0,,맘스유외과의원,02-2066-7575,,1800,0900,1800,0900,1800,0900,1800,0900,1800,0900,1500,0900,,,,,37.47580020483518,126.86839260138825
서울특별시 도봉구 덕릉로 241 (창동),C,0,청하아파트 인근,중앙외과의원,02-908-5931,,1830,0930,1830,0930,1830,0930,1830,0930,1830,0930,1300,0930,,,1300,0930,37.63939822415477,127.03850862193934
"경상북도 경주시 원화로 261, 지하1층,1,4층 (황오동)",C,0,,연합열린외과의원,054-745-0046,,1920,0900,1920,0900,1920,0900,1920,0900,1920,0900,1600,0900,1200,1000,1300,0900,35.84381536933994,129.21685233154307
경상북도 경주시 건천읍 내서로 1117-1,C,0,,전재홍외과의원,054-751-8686,,1800,0900,1800,0900,1800,0900,1800,0900,1800,0900,1230,0900,,,,,35.849311111111113,129.103861111111115
경상북도 경주시 양정로 313  (용강동),C,0,,최길선외과의원,054-777-7301,,1830,0900,1830,0900,1830,0900,1830,0900,1830,0900,1300,0900,,,,,35.86079120295222,129.22398144706915
경상북도 경주시 안강읍 안강중앙로 236 (박외과),C,0,,친절한박외과의원,054-761-3012,,1800,0900,1800,0900,1800,0900,1800,0900,1800,0900,1200,0900,,,,,35.991886111111114,129.225766666666658
충청남도 서천군 서천읍 충절로 37,C,0,특허시장 맞은편,서천외과의원,041-953-7502,,1730,0830,1730,0830,1730,0830,1200,0830,1730,0830,1200,0830,,,,,36.075765557385324,126.6870473557161
경상북도 구미시 1공단로 182 (공단동),C,0,,성모연합외과의원,054-464-0654,,1800,0930,1800,0930,1800,0930,1800,0930,1800,0930,1300,0930,,,,,36.10168039317589,128.38301249591208
"경상북도 구미시 구미중앙로 44 (원평동, 멀티복합상가)",C,0,,슬림유외과의원,054-456-2100,,1830,0930,2100,0930,1830,0930,1830,0930,1830,0930,1400,0930,,,,,36.13010126997626,128.32763021076727
강원도 정선군 정선읍 봉양6길 14,C,0,정선읍 봉양리 크리스탈모델 골목 정다운 약국 앞,정선연세외과의원,033-563-7778,,1800,0900,1800,0900,1800,0900,1800,0900,1800,0900,1300,0900,,,,,37.378888938231576,128.66396033503958
"서울특별시 은평구 통일로 741, 3층 (대조동)",C,0,불광역 7번출구 롯데리아 건물,연세학문외과의원,02-387-6427,,1830,0900,1830,0900,1830,0900,1830,0900,1830,0900,1500,0900,,,,,37.611534876666624,126.92868353183495
"서울특별시 서초구 사평대로 371, 5층 (반포동, 현철빌딩)",C,0,교보문고 건너편 5층 ,클린외과의원,02-515-0310,,1800,0900,1800,0900,1800,0900,1800,0900,1800,0900,1500,0900,,,,,37.50457003688018,127.02359193273838
서울특별시 서초구 마방로 2,C,0,양재시민의숲 2번출구 한국타이어 옆,한유외과의원,02-577-3390,,1800,0930,1800,0930,1800,0930,1800,0930,1800,0930,1500,0930,,,,,37.473580601691175,127.03915332061814
"서울특별시 은평구 서오릉로 95, 2층 (역촌동)",C,0,역촌역 2번출구. 삼성아파트 길 건너편.,강북제일외과의원,02-359-9363,,1830,0900,1830,0900,1830,0900,1830,0900,1830,0900,1430,0900,,,,,37.608282924889416,126.92059582686137
"서울특별시 은평구 은평로 11, (신사동)",C,0,신사동성당 근처,경서외과의원,02-354-2350,,1800,1030,1800,1030,1800,1030,1800,1030,1800,1030,1200,1030,,,,,37.597232409749175,126.90950583583506
"서울특별시 은평구 은평로 97 (응암동, 동아빌딩 3층)",C,0,응암역 3번 출구,클린성모외과의원,02-389-6267,,1900,0900,1900,0900,1900,0900,1900,0900,1900,0900,1600,0900,,,,,37.599877041218654,126.91846675795341
"서울특별시 은평구 통일로 861, 3층 (갈현동)",C,0,연신내역 7번출구 ,서울장문외과의원,02-389-5005,,1830,0900,1830,0900,1830,0900,1830,0900,1830,0900,1200,0900,1000,0900,,,37.619786476838506,126.92019392187536
"경기도 안양시 동안구 동안로 120, 평촌스포츠센타 5층 505호,506호일부호 (호계동)",C,0,,연세베스트외과의원,031-384-5631,,1800,0900,1800,0900,1800,0900,1800,0900,1800,0900,1430,0900,,,,,37.3895609004619,126.95224690386664
"경기도 안양시 동안구 시민대로 167, 501~504호 (비산동, 안양벤처텔)",C,0,,이레미즈외과의원,031-386-6075,,1800,0930,1800,0930,1800,0930,1800,0930,1800,0930,1500,0900,,,,,37.39080489529537,126.94962602066522
경기도 안양시 동안구 흥안대로456번길 30 (평촌동),C,0,,푸른외과의원,031-424-8610,,2100,0900,2100,0900,2100,0900,2100,0900,2100,0900,1700,0900,1300,0900,1300,0900,37.394077777777781,126.977302777777780
"세종특별자치시 조치원읍 조치원로 22, 3층",C,0,조치원읍 원리,서울연합외과의원,044-865-3838,,1900,0830,1900,0830,2030,0830,1900,1230,1900,0830,1300,0830,,,,,36.60118847133058,127.29913697467872
세종특별자치시 조치원읍 새내로 68-1,C,0,조치원읍 원리,서울외과의원,044-863-4912,,1830,0900,1830,0900,1830,0900,1830,0900,1830,0900,1300,0900,,,,,36.59806634229848,127.29885746405871
세종특별자치시 조치원읍 새내로 113,C,0,조치원읍 원리,성심외과의원,044-865-3616,,1800,0900,1800,0900,1800,0900,1800,0900,1800,0900,1300,0900,,,,,36.6019369247,127.2977100246
"강원도 강릉시 경강로 2109, 3층 (임당동, 문선빌딩)",C,0,임당동 문선빌딩 3층,박정빈외과의원,033-648-0080,,1800,0900,1800,0900,1800,0900,1800,0900,1800,0900,1300,0900,,,,,37.75556404211279,128.89723767708728
강원도 강릉시 율곡로 2792,C,0,성남동 농협하나로마트내 3층,성심외과의원,033-645-4082,,1730,0830,1730,0830,1730,0830,1230,0830,1730,0830,1230,0830,,,,,37.75447147615153,128.9015348570748
강원도 강릉시 주문진읍 해안3길 7,C,0,주문초등학교 정문 쪽,유주왕외과의원,033-662-8767,,1730,0900,1730,0900,1730,0900,1600,0900,1730,0900,1200,0900,,,1200,0900,37.885746016526404,128.8258916547371
강원도 강릉시 강릉대로 165 (교동),C,0,고용센터 맞은편,이종화외과의원,033-646-0196,,1800,0900,1800,0900,1800,0900,1800,0900,1800,0900,1300,0900,,,,,37.75752837192537,128.8887398122959
강원도 강릉시 경강로 2085 (임당동),C,0,임당동 기업은행옆 2층,정의흠외과의원,033-646-2630,,1700,0900,1700,0900,1700,0900,1700,0900,1800,0900,1000,0800,,,,,37.75425976151476,128.89507284431306
"경기도 안양시 동안구 시민대로 311, 311호 (관양동, 금강스마트빌딩)",C,0,,김준호유외과의원,031-425-6004,,1900,0900,1900,0900,1900,0900,1900,0900,1900,0900,1400,0900,,,,,37.396088672559074,126.9646880127956
경기도 안양시 동안구 평촌대로223번길 68,C,0,,삼성흉부외과의원,031-382-7588,,1730,0900,1730,0900,1730,0900,1730,0900,1730,0900,1600,0900,,,,,37.390369809214086,126.95197061906904
"경기도 안양시 동안구 경수대로570번길 9, 2층 (호계동)",C,0,,샘솟는외과의원,031-459-8275,,1900,0900,1900,0900,1900,0900,1900,0900,1900,0900,1500,0900,,,,,37.37396655241254,126.95823602582269
"대전광역시 서구 구봉로 139, 3층 301,302호 (관저동)",C,0,,나유미유외과의원,042-542-8872,,1800,0900,1800,0900,1800,0900,1300,0900,1800,0900,1300,0900,,,,,36.2967344162,127.3385254348
"대전광역시 서구 계룡로 586, 2층 (괴정동)",C,0,금성백조 건물 건너편,둔산송도외과의원,042-525-7175,,1800,0900,1800,0900,1800,0900,1800,0900,1800,0900,1600,0900,,,,,36.341573843752236,127.3884123581189
전라남도 여수시 시청로 40 (학동),C,0,문수 3거리 MBC문화방송국 50m,드림연합외과의원,061-686-7582,,1800,0830,1800,0830,1800,0830,1800,0830,1800,0830,1200,0830,,,1200,0830,34.765187477816085,127.66315611416854
전라남도 보성군 중앙로 50-2 (보성읍) ,C,0,"신동아 약국, 보성향교, 보성떡집 근처 ",유외과의원,061-852-3350,,1700,0800,1700,0800,1700,0800,1700,0800,1700,0800,1300,0800,,,,,34.76801769330275,127.08476918722624
전라북도 무주군 무주읍 주계로 86-1,C,0,무주우체국사거리에서 천변방향 시장쪽으로 300m,노금석외과의원,063-322-9779,,1800,0830,1800,0830,1800,0830,1800,0830,1800,0830,1300,0830,,,1500,0830,36.006168200605124,127.65958000638385
대전광역시 동구 동서대로 1651 (용전동),C,0,,서울외과의원,042-633-7578,,1840,0850,1840,0850,1840,0850,1840,0850,1840,0850,1300,0850,,,,,36.34825363822781,127.4332426676484
대전광역시 동구 대전천동로 574 (중동),C,0,구신도극장 바로 옆,김진혁외과의원,042-256-9179,,1800,0910,1800,0910,1800,0910,1800,0910,1800,0910,1200,0910,,,,,36.33152537249275,127.42824857459064
"경기도 성남시 중원구 산성대로372번길 14, 3층 (금광동)",C,0,,송도외과의원,031-735-7169,,1800,0900,1800,0900,1800,0900,1800,0900,1800,0900,1300,0900,,,,,37.44475065332302,127.15859314465092
충청남도 아산시 온천대로 1544,C,0,송악사거리 근처 글라스바바안경점,성모외과의원,041-545-4600,,1800,0830,1800,0830,1800,0830,1800,0830,1800,0830,1300,0830,,,,,36.78011916590369,127.00911207464819
강원도 원주시 문막읍 왕건로 81 (동화빌딩),C,0,부영아파트 앞,김동우외과의원,033-734-0061,,1800,0900,1800,0900,1800,0900,1300,0900,1800,0900,1300,0830,,,,,37.32655271442595,127.828978476124
"서울특별시 송파구 올림픽로 509, J빌딩 201호 (풍납동, J 빌딩)",C,0,8호선 강동구청역 4번출구 우리은행인근,아산유외과의원,02-489-2114,,1830,1000,1830,1000,1830,1000,1830,1000,1830,1000,1300,0900,,,,,37.527866186916675,127.11840829460834
"강원도 원주시 서원대로 392, 3층 (단구동)",C,0,GS슈퍼 앞,연세참외과의원,033-764-0048,,1800,0900,1800,0900,1200,0900,1800,0900,1800,0900,1200,0900,,,,,37.3310295115371,127.94847309751552
경기도 광주시 중앙로 95-3 (역동),C,0,,서울외과의원,031-761-2088,,1900,0900,1900,0900,1900,0900,1900,0900,1900,0900,1500,0900,,,,,37.40799244300183,127.25882515037951
강원도 원주시 이화6길 1,C,0,21세기 산후조리원 건물 ,창문외과의원,033-743-4567,,1800,0930,1800,0930,1800,0930,1800,0930,1800,0930,1300,0930,,,,,37.34353492048657,127.93226015997948
"강원도 원주시 영랑길 14-2, 청연재 빌딩 3층 (행구동)",C,0,"우리산부인과, 오은경소아과 같은 건물",하니유외과의원,033-900-6075,,1800,0930,1800,0930,,,1800,0930,1800,0930,1600,0930,,,,,37.3410005935,127.9717094418
서울특별시 송파구 법원로 114  (문정동),C,0,"문정역 3,4번출구",오수연유외과의원,02-423-6152,,1800,0900,1800,0900,1800,0900,1800,0900,1800,0900,1300,0900,,,,,37.48587108624614,127.11983080368098
충청남도 공주시 번영1로 79 (신관동),C,0,국민은행 맞은편 2층,박외과의원,041-857-7654,,1830,0830,1830,0830,1830,0830,1830,0830,1830,0830,1230,0830,,,,,36.474052777777779,127.136347222222227
"충청남도 공주시 산성시장5길 45, 2층 (산성동)",C,0,,산성외과의원,041-856-7582,,1800,0830,1800,0830,1300,0830,1800,0830,1800,0830,1300,0830,,,,,36.4593864894,127.1237914058
충청남도 공주시 웅진로 211 (산성동),C,0,피자헛 맞은 편,순풍외과의원,041-857-8600,,1800,0830,1800,0830,1800,0830,1800,0830,1800,0830,1230,0830,,,,,36.45933867530206,127.1246882891078
서울특별시 송파구 올림픽로 118 (잠실동),C,0,신천역 4번출구,김종근외과의원,02-422-9955,,1700,0930,1700,0930,1700,0930,1700,0930,1700,0930,1200,0930,,,,,37.51147224766709,127.08385862029126
충청남도 공주시 웅진로 131-1 (중동),C,0,,허외과의원,041-854-3439,,1900,0900,1900,0900,1900,0900,1900,0900,1900,0900,1500,0900,,,1500,0900,36.452224999999999,127.123877777777778
"강원도 원주시 봉화로 22, 403호 (단계동, 파크타워)",C,0,SK텔레콤 뒤쪽 ,미즈유외과의원,033-747-0886,,1800,1000,1800,1000,1800,1000,1800,1000,1800,1000,1300,1000,,,,,37.34624365829185,127.92877255579319
강원도 원주시 원일로 169 (학성동),C,0,중앙볼링장 옆,서울외과의원,033-742-1204,,1900,0900,1900,0900,1900,0900,1900,0900,1900,0900,1500,0900,,,,,37.3531209391874,127.94590226667941
"서울특별시 송파구 송파대로 111, 205동 A311호 (문정동, 파크하비오)",C,0,,삼성서울도담외과의원,02-6933-7582,,1800,0900,1800,0900,2000,0900,1800,0900,1800,0900,1300,0900,,,,,37.4796673949,127.1249120491
"서울특별시 송파구 중대로 24, 1층 110호 (문정동, 올림픽훼밀리타운)",C,0,,서울바른외과의원,02-401-5095,,1900,0900,2100,0900,1900,0900,2100,0900,1900,0900,1400,0900,1300,0900,,,37.48812547644068,127.11105902340194
강원도 원주시 원문로 107-8 (단계동),C,0,하이마트 사거리,고려외과의원,033-744-2727,,1800,0900,1800,0900,1800,0900,1800,0900,1800,0900,1400,0900,,,1200,1000,37.35600636945892,127.9352403582453
서울특별시 송파구 석촌호수로 61,C,0,신천역 2번 출구 앞,유앤맘외과의원,02-415-3066,,1900,0900,1900,0900,1900,0900,1900,0900,1900,0900,1600,0900,,,,,37.510699059205834,127.08621451240172
"서울특별시 송파구 올림픽로35다길 42, 601호 (신천동, 한국루터회관)",C,0,,편안하지흉부외과의원,02-6424-7979,,1800,0900,1800,0900,1800,0900,1800,0900,1800,0900,1500,0900,,,,,37.5152529828,127.1030682174
"서울특별시 송파구 올림픽로 106 (잠실동, 5층)",C,0,신천역 4번출구,한호외과의원,02-3431-2112,,1830,0930,1830,0930,1830,0930,1830,0930,1830,0930,1500,0930,,,,,37.51145879372431,127.08249227416874
"서울특별시 송파구 송파대로 562, 4층 (신천동, 한빛프라자,삼성웰리스아파트)",C,0,,잠실하와유외과의원,02-415-7001,,1000,0900,,,,,,,,,,,,,,,37.51532451630079,127.09950300358983
서울특별시 송파구 마천로 262 (거여동),C,0,마천사거리 국민은행 맞은편,조외과의원,02-408-0022,,1800,0900,1800,0900,1800,0900,1800,0900,1800,0900,1230,0900,,,,,37.49816365594234,127.14580285771737
전라북도 익산시 무왕로 1099-1 (영등동),C,0,영등육교 바로 밑,장문외과의원,063-834-6000,,1800,0900,1800,0900,1800,0900,1800,0900,1800,0900,1300,0900,,,,,35.958853525415655,126.97907008135448
전라북도 익산시 고봉로 281 (영등동),C,0,의료보험관리공단옆,그린외과의원,063-843-2233,,1830,0900,1830,0900,1830,0900,1230,0900,1830,0900,1300,0900,,,,,35.957111111111111,126.970269444444440
전라북도 익산시 선화로 88 (모현동1가),C,0,,맘외과의원,063-852-6075,,1830,0930,1730,0930,1730,0930,1730,0930,1730,0930,1300,0900,,,,,35.94889368538006,126.9406130432996
부산광역시 사상구 괘감로 100-1  (감전동),C,0,2호선 감전역 3번출구/버스정류장:사상농협,김황세외과의원,051-325-2233,,1800,0900,1800,0900,1800,0900,1800,0900,1800,0900,1300,0900,,,,,35.15705625455235,128.9854119938911
"서울특별시 성북구 보문로 120, (보문동1가)",C,0,보문역 3번 출구,킴스서울외과의원,02-922-6061,,1800,1000,1800,1000,1800,1000,1800,1000,1800,1000,1300,1000,,,,,37.5857292018,127.0194148263
서울특별시 성북구 종암로 118,C,0,,굿모닝플러스외과의원,02-909-2296,,1900,0900,1900,0900,1900,0900,1900,0900,1900,0900,1400,0900,,,,,37.60095728075089,127.03417588288804
서울특별시 성북구 서경로 2,C,0,숭덕초등학교 버스정류장 근처.,김영호외과의원,02-919-2255,,1800,0945,1800,0945,1800,0945,1800,0945,1800,0945,1600,0945,,,,,37.6039018427367,127.01495256248228
"서울특별시 성북구 동소문로 125, 3층 (동선동4가)",C,0,,김윤호서울외과의원,02-929-2345,,1800,0900,1800,0900,1800,0900,1800,0900,1800,0900,1400,0900,,,,,37.5941554732914,127.01821675656173
서울특별시 성북구 보국문로 49-1 (정릉동),C,0,,정릉성모외과의원,02-914-0743,,1800,0900,1800,0900,1800,0900,1800,0900,1800,0900,1300,0900,,,,,37.60892192395666,127.00958131678007
강원도 철원군 동송읍 이평2로 13 (서울외과병원),C,0,굿모닝마트 앞,서울외과의원,033-455-9292,,1800,0830,1800,0830,1800,0830,1800,0830,1800,0830,1800,0830,,,,,38.206790159754774,127.22068088499826
서울특별시 양천구 신월로 164,C,0,신곡시장 인근 신한은행 건물,한강외과의원,02-2065-7575,,1830,0900,1830,0900,1830,0900,1830,0900,1830,0900,1400,0900,,,1300,0900,37.51770715822141,126.84200628838269
경기도 수원시 장안구 경수대로 904 (조원동),C,0,,이용기외과의원,031-207-5551,,1830,0900,1830,0900,1830,0900,1830,0900,1830,0900,1300,0900,,,,,37.30077490711854,127.0110590861575
"서울특별시 양천구 목동로 210, 타운빌딩 402호 (목동)",C,0,,리유외과의원,02-2062-0101,,1800,1000,1800,1000,1800,1000,,,1800,1000,1400,0900,,,,,37.5273836988,126.8644465311
경기도 수원시 장안구 서부로 2117,C,0,,S&U서울외과의원,031-292-1115,,1800,0900,1800,0900,1800,0900,1800,0900,1800,0900,1530,0900,,,,,37.29770416778076,126.97066356215731
경기도 수원시 장안구 파장로 89 (정자동),C,0,,김도관외과의원,031-245-4628,,1830,0930,1830,0930,1830,0930,1830,0930,1830,0930,1830,0930,,,,,37.3069854682,126.9911384386
경기도 수원시 장안구 서부로 2139,C,0,북수원온천 이슈나인 백화점 6층,뉴하나로외과의원,031-269-9530,,1830,1000,1830,1000,1830,1000,1830,1000,1830,1000,1300,1000,,,,,37.299459624653224,126.97164184330205
경기도 수원시 장안구 덕영대로 559 (천천동),C,0,,신세계외과의원,031-271-2251,,1930,0900,1900,0900,1930,0900,1900,0900,1930,0900,1600,0900,,,,,37.2949574161,126.9821353385
경상북도 구미시 선산읍 선산중앙로18길 17,C,0,kt전화국 나라약국골목/,동산외과의원,054-481-2326,,1800,0900,1800,0900,1800,0900,1800,0900,1800,0900,1300,0900,,,1300,0900,36.241448101753654,128.30263927875262
"서울특별시 양천구 중앙로 284 (신정동, 동성빌딩)",C,0,신정네거리역 3번 출구,서울외과의원,02-2696-7582,,1800,0900,1800,0900,1800,0900,1800,0900,1800,0900,1500,0900,,,1300,0900,37.5216931375,126.8525518396
"서울특별시 양천구 공항대로 614, (목동)",C,0,양천구 도시가스 건너편,성모외과의원,02-2644-0089,,1830,0900,1830,0900,1830,0900,1830,0900,1830,0900,1500,0900,,,,,37.5467431118411,126.87302975798093
"서울특별시 양천구 오목로 224, 3층 (신정동)",C,0,,장외과의원,02-2605-5230,,1900,0900,1900,0900,1900,0900,1900,0900,1900,0900,1600,0900,,,,,37.52561540610002,126.8624315237
광주광역시 북구 경열로 172 (유동),C,0,,김광록외과의원,062-521-7389,,1730,0900,1730,0900,1730,0900,1730,0900,1730,0900,1230,0900,,,,,35.155580555555552,126.903263888888887
경기도 평택시 서정역로36번길 24-10 (이충동),C,0,서정리초등학교 근처,연세한빛외과의원,031-664-7525,,2030,0900,2030,0900,2030,0900,2030,0900,2030,0900,1500,0900,,,,,37.05708283295415,127.05704300591606
경기도 평택시 송탄로371번길 17 (지산동),C,0,,열린성모외과의원,031-665-6194,,1830,0900,1830,0900,1830,0900,1230,0900,1830,0900,1400,0900,,,,,37.07668106380699,127.0567282341151
경기도 평택시 서정역로 22 (서정동),C,0,,우리들외과의원,031-662-2422,,1800,0830,1800,0830,1800,0830,1800,0830,1800,0830,1200,0830,,,,,37.05606857068916,127.05581346692995
"경기도 평택시 경기대로 1286, 1층 (이충동, 명성빌딩)",C,0,"명성빌딩1층, ",장영외과의원,031-611-8275,,1900,0930,1900,0930,1900,0930,1900,0930,1900,0930,1300,0930,,,,,37.05990462839055,127.0649198144842
"광주광역시 북구 북문대로 41, 2층 (운암동)",C,0,운암동 문화예술회관  건너편,대한외과의원,062-527-7500,,1800,0900,1800,0900,1800,0900,1800,0900,1800,0900,1230,0900,,,,,35.175163888888889,126.880958333333339
광주광역시 북구 동문대로 191  (두암동),C,0,,동문외과의원,062-267-1600,,1730,0900,1730,0900,1730,0900,1730,0900,1730,0900,1230,0900,,,,,35.17956643836102,126.9293270492444
"광주광역시 북구 서하로 381, 3층 (문흥동)",C,0,문흥지구 농협 2층,무등외과의원,062-261-3355,,1800,0900,1800,0900,1800,0900,1200,0900,1800,0900,1200,0900,,,,,35.185675000000003,126.922036111111112
경기도 수원시 영통구 중부대로 288 (매탄동),C,0,,21세기외과의원,031-216-2800,,1830,0930,1830,0930,1830,0930,1830,0930,1830,0930,1400,0930,,,,,37.27347945008175,127.04703025990061
광주광역시 북구 하서로 428 (용두동),C,0,,블레스유외과의원,062-574-7451,,1800,0900,1800,0900,1800,0900,1800,0900,1800,0900,1300,0900,,,,,35.2129028559,126.875190981
대구광역시 북구 동암로 2 (읍내동),C,0,,정우연합외과의원,053-322-0075,,1800,0900,1800,0900,1800,0900,1800,0900,1800,0900,1300,0900,,,1300,0900,35.946754043173236,128.55195267684064
경기도 수원시 영통구 덕영대로 1507 (영통동),C,0,,차외과의원,031-203-5700,,1800,0900,1800,0900,1800,0900,1800,0900,1800,0900,1400,0900,,,,,37.246133333333333,127.055700000000002
전라북도 남원시 용성로 72 (죽항동) ,C,0,남원 법원 앞,남원연합장문외과의원,063-633-7564,,1730,0830,1730,0830,1730,0830,1730,0830,1730,0830,1300,0830,,,,,35.408918934371925,127.38444525208354
"경기도 수원시 영통구 영통로 195, 203~204호 (망포동, 골든스퀘어)",C,0,,조정훈유바외과의원,031-206-5565,,1900,0900,1900,0900,1900,0900,1900,0900,1900,0900,1500,0900,,,,,37.24523024951306,127.05599057825475
광주광역시 광산구 월곡산정로 81-1 (월곡동),C,0,하남 금호아파트정문앞(호남병원반대쪽) 3층건물입니다,정외과의원,062-951-5676,,1830,0900,1830,0900,1830,0900,1830,0900,1830,0900,1300,0900,,,,,35.1661099769781,126.81117492484148
"광주광역시 광산구 상무대로 206, 3층(송정동,해옥빌딩)",C,0,광주송정역 맞은편 신약국3층 .  송정역지역철역1번출구,조은외과의원,062-941-8950,,1800,0900,1800,0900,1800,0900,1800,0900,1800,0900,1200,0900,,,,,35.137683333333335,126.791902777777779
"경상북도 경산시 중앙로 76, 1층 (중방동)",C,0,,청십자유외과의원,053-815-7077,,1900,0900,1900,0900,1900,0900,1900,0900,1900,0900,1500,0900,,,1300,0900,35.82274754681663,128.73521989105603
경상북도 경산시 자인면 금학로 8-12,C,0,,최한철외과의원,053-856-6568,,1800,0900,1800,0900,1800,0900,1800,0900,1800,0900,1300,0900,,,1300,0900,35.819836111111108,128.823030555555562
경상북도 경산시 압량면 대학로 345,C,0,,현대외과의원,053-817-1797,,1830,0900,1830,0900,1830,0900,1830,0900,1830,0900,1230,0900,,,1200,0900,35.840238888888891,128.758233333333322
"광주광역시 광산구 장신로 133 (수완동, 삼광빌딩)",C,0,,서울위드유외과의원,062-959-0075,,1830,0930,1830,0930,1830,0930,1830,0930,1830,0930,1300,0900,,,,,35.19104572840679,126.8247959755252
"광주광역시 광산구 장신로 62, 8층 (장덕동)",C,0,,시원외과의원,062-944-8575,,1800,0900,2030,0900,1800,0900,2030,0900,1800,0900,1300,0900,1300,0900,,,35.190547384112044,126.81694427961496
"광주광역시 광산구 하남대로 294, 2,3,4층 (운남동)",C,0,운남동(신가사거리) 주공2단지 앞 도로변 광주은행옆 건물,연합외과의원,062-955-7119,,1800,0800,1800,0800,1800,0800,1800,0800,1800,0800,1200,0800,,,,,35.17873213993583,126.82570261702105
"경상북도 경산시 대학로 309, 3,4층 (조영동)",C,0,영대소방서 맞은편,영남외과연합의원,053-817-0075,,1900,0900,1900,0900,1900,0900,1900,0900,1900,0900,1700,0900,,,1300,0900,35.83822174632845,128.75505249312246
"경상북도 경산시 대학로 333, 2,3층 (조영동)",C,0,,영남제일외과의원,053-817-2188,,1830,0900,1830,0900,1830,0900,1830,0900,1830,0900,1230,0900,,,,,35.83965800135791,128.75729714154374
경상북도 경산시 하양읍 하양로 108-1,C,0,,장유석외과의원,053-851-7007,,1830,0900,1830,0900,1830,0900,1830,0900,1830,0900,1300,0900,,,1300,0900,35.913699999999999,128.819308333333339
"충청북도 청주시 서원구 복대로 5, 3층 301호 (개신동)",C,0,스타벅스 건물,유앤샘외과의원,043-716-2800,,1930,0930,1930,0930,1330,0930,1930,0930,1930,0930,1400,0900,,,,,36.6176294977,127.4460712628
"서울특별시 마포구 신촌로 92, 9층 (노고산동, 카리스빌딩)",C,0,신촌지하철역 8번출구,신촌서울하정외과의원,02-333-1679,,1800,0900,1800,0900,1800,0900,1800,0900,1800,0900,1600,0900,,,,,37.5551767458,126.9356815527
대구광역시 중구 달구벌대로 2210  (대봉동),C,0,,황승욱K유외과의원,053-248-8000,,1800,0900,1800,0900,1800,0900,1800,0900,1800,0900,1300,0900,,,,,35.86246705374442,128.60480186914387
충청북도 청주시 흥덕구 풍산로 18,C,0,,우리흉부외과의원,043-233-0252,,1730,0900,1730,0900,1730,0900,1730,0900,1730,0900,1530,0900,,,,,36.62578023252949,127.4329014877789
"부산광역시 사하구 낙동대로 230, 2층(괴정동,홍남빌딩)",C,0,1호선 괴정역 1번출구 ,괴정학문외과의원,051-293-7175,,1830,0900,1830,0900,1830,0900,1830,0900,1830,0900,1500,0900,,,,,35.10001949021721,128.9917830813007
대구광역시 달성군 논공읍 논공중앙로 114,C,0,,논공외과의원,053-617-7575,,1830,0930,1830,0930,1830,0930,1830,0930,1830,0930,1300,0930,,,,,35.72711267040567,128.44858126906792
"경기도 의정부시 시민로 83, 503호 (의정부동, 광장타워빌딩)",C,0,,이재창유바외과의원,031-872-6875,,1830,0930,1930,0930,1830,0930,1930,0930,1830,0930,1530,0930,,,,,37.73877028085924,127.04452304744022
"서울특별시 강동구 양재대로 1576, 4층 (명일동)",C,0,굽은다리역 3번 출구,참편한하지외과의원,02-477-8275,,1800,0900,1800,0900,1800,0900,1800,0900,1800,0900,1500,0900,,,,,37.5461620135,127.1434542942
"서울특별시 강남구 강남대로 250 , 5층 (도곡동)",C,0,양재역 3번출구 심현빌딩 5층,서울하정외과의원,02-577-1183,,1800,0830,1800,0830,1800,0830,1800,0830,1800,0830,1500,0830,,,,,37.48586983691714,127.03389335865575
"광주광역시 서구 상무대로 1089 (화정동, 강문외과)",C,0,추선회관인근,강문외과의원,062-352-7600,,1800,0930,1800,0930,1800,0930,1800,0930,1800,0930,1200,0930,,,,,35.15302777998913,126.8809745710949
대전광역시 중구 계백로 1616 (유천동),C,0,벽산프라자 맞은편,제일외과의원,042-582-1231,,1800,0900,1800,0900,1800,0900,1800,0900,1800,0900,1200,0900,,,,,36.318668524977674,127.39946207083979
"서울특별시 동대문구 서울시립대로 41, 1~3층 (전농동)",C,0,전농119안전센터 인근,우리외과의원,02-2215-5275,,1800,0900,1800,0900,1800,0900,1800,0900,1800,0900,1400,0900,1100,0900,1100,0900,37.575280884793756,127.04658999743674
"대구광역시 달서구 월배로 79, 2층 (진천동)",C,0,,킴즈네이처제통외과의원,053-635-6428,,1830,0930,1830,0930,1830,0930,1830,0930,1830,0930,1400,0930,,,,,35.8141186842,128.5229958245
"전라북도 군산시 문화로 86, 302,303호 (수송동)",C,0,,세유외과의원,063-464-6060,,1830,0900,1830,0900,1830,0900,1830,0900,1830,0900,1300,0900,,,,,35.9694678742,126.7149931893
충청북도 음성군 음성읍 수정로32번길 4,C,0,,중앙흉부외과의원,043-872-6316,,1900,0900,1900,0900,1900,0900,1900,0900,1900,0900,1500,0900,,,1500,0900,36.93403356037236,127.68970376279499
"부산광역시 금정구 중앙대로1841번길 23, 4층 (구서동, 현대타운)",C,0,1호선 구서역 3번출구,향사랑외과의원,051-517-7582,,1830,0900,1830,0900,1830,0900,1300,0900,1830,0900,1300,0900,,,,,35.24861388888888,129.09046666666816
"부산광역시 연제구 중앙대로 1111, 7층 (연산동)",C,0,1호선 연산역 7번 출구/위드타워7층,부산갑외과의원,051-861-8765,,1730,0830,1730,0830,1730,0830,1730,0830,1300,0830,1300,0830,,,,,35.18673772710021,129.08117598663853
대전광역시 중구 보문로 78,C,0,부사동네거리 sk텔레콤쪽,바른손외과의원,042-253-0357,,1800,0900,1800,0900,1800,0900,1800,0900,1800,0900,,,,,,,36.313519062871066,127.43251979581241
경상북도 울진군 후포면 삼율4길 4,C,0,후포삼거리 가기전 ,김형석외과의원,054-788-4080,,1800,0800,1800,0800,1800,0800,1800,0800,1800,0800,1300,0800,,,,,36.68162952322921,129.44317347395395
부산광역시 금정구 서동중심로 15 (서동),C,0,명장정수장에서 서동쪽으로좌회전 은하장여관옆,박민근외과의원,051-521-3609,,1800,0930,1800,0930,1800,0930,1800,0930,1800,0930,1300,0930,,,,,35.211330555555556,129.104077777777775
서울특별시 강북구 수유로 83 (수유동),C,0,,심외과의원,02-902-2963,,1800,1000,1800,1000,1800,1000,,,1800,1000,1300,1000,,,,,37.63636779596082,127.02276342823201
광주광역시 동구 남문로 780 (학동),C,0,조대후문입구 ,학문외과의원,062-225-3322,,1700,0900,1700,0900,1700,0900,1700,0900,1700,0900,1200,0900,,,,,35.13904097882544,126.92352346411852
"서울특별시 강동구 천호대로 1006 (성내동, 브라운스톤천호)",C,0,천호역 7번출구,마리아나외과의원,02-476-6111,,1800,0830,1800,0830,1800,0830,1800,0830,1800,0830,1300,0830,,,,,37.53804693562661,127.1237432730945
경기도 평택시 평택로 102 (통복동),C,0,,보람외과의원,031-652-1024,,1830,0830,1830,0830,1830,0830,1830,0830,1830,0830,1400,0830,,,1300,0800,36.995873951661636,127.08349222734418
대구광역시 달서구 월성로 77,C,0,,정외과의원,053-634-7007,,1830,0900,1830,0900,1830,0900,1830,0900,1830,0900,1500,0900,,,1300,0900,35.83068244438907,128.52782032354875
서울특별시 강북구 솔샘로 233 (미아동),C,0,,강북서울외과의원,02-988-4640,,1900,0900,1900,0900,1900,0900,1900,0900,1900,0900,1300,0900,,,,,37.62010822218357,127.01864809178025
강원도 양구군 양구읍 중앙길 27,C,0,양구서점 바로 앞,이외과의원,033-481-2929,,1830,0900,1830,0900,1830,0900,1830,0900,1830,0900,1400,0900,,,1400,0900,38.10623500939786,127.98944742871797
"광주광역시 서구 죽봉대로 95, 5,7층 (광천동)",C,0,대산빌딩 5층,2030미라인외과의원,062-368-2007,,1830,0930,1830,0930,1830,0930,1830,0930,1830,0930,1500,0930,,,,,35.16192852629543,126.88312960968022
"대구광역시 중구 중앙대로 366, 13층 (덕산동)",C,0,,모제림외과의원,053-741-9998,,1800,0900,1800,0900,1800,0900,2100,1400,1800,0900,1600,0900,,,,,35.8653293676,128.5965734182
"광주광역시 동구 남문로 780, 3~4층 (학동)",C,0,,담대한외과의원,062-231-0001,,1730,0830,1730,0830,1730,0830,1730,0830,1730,0830,1230,0830,,,,,35.13908950135453,126.92361091279822
부산광역시 금정구 금사로 53-1 (서동),C,0,버스정류장: 동래농협,세종외과의원,051-523-3028,,1800,0900,1800,0900,1800,0900,1800,0900,1800,0900,1300,0900,,,,,35.21812405119646,129.1096161063757
"대전광역시 중구 계백로 1711-1, 3,6~10층 B101호 (오류동)",C,0,세이백화점 맞은편,송도외과의원,042-222-7175,,1830,0900,1830,0900,1830,0900,1830,0900,1830,0900,1600,0900,,,1300,0900,36.32190743714355,127.40955916934084
강원도 철원군 동송읍 이평2로 13 (서울외과병원),C,0,굿모닝마트 앞,서울외과의원,033-455-9292,,1800,0830,1800,0830,1800,0830,1800,0830,1800,0830,1800,0830,,,,,38.206790159754774,127.22068088499826
"서울특별시 성북구 보문로 120, (보문동1가)",C,0,보문역 3번 출구,킴스서울외과의원,02-922-6061,,1800,1000,1800,1000,1800,1000,1800,1000,1800,1000,1300,1000,,,,,37.5857292018,127.0194148263
서울특별시 성북구 종암로 118,C,0,,굿모닝플러스외과의원,02-909-2296,,1900,0900,1900,0900,1900,0900,1900,0900,1900,0900,1400,0900,,,,,37.60095728075089,127.03417588288804
서울특별시 성북구 서경로 2,C,0,숭덕초등학교 버스정류장 근처.,김영호외과의원,02-919-2255,,1800,0945,1800,0945,1800,0945,1800,0945,1800,0945,1600,0945,,,,,37.6039018427367,127.01495256248228
"서울특별시 성북구 동소문로 125, 3층 (동선동4가)",C,0,,김윤호서울외과의원,02-929-2345,,1800,0900,1800,0900,1800,0900,1800,0900,1800,0900,1400,0900,,,,,37.5941554732914,127.01821675656173
서울특별시 성북구 보국문로 49-1 (정릉동),C,0,,정릉성모외과의원,02-914-0743,,1800,0900,1800,0900,1800,0900,1800,0900,1800,0900,1300,0900,,,,,37.60892192395666,127.00958131678007
경기도 수원시 장안구 덕영대로 559 (천천동),C,0,,신세계외과의원,031-271-2251,,1930,0900,1900,0900,1930,0900,1900,0900,1930,0900,1600,0900,,,,,37.2949574161,126.9821353385
경상북도 구미시 선산읍 선산중앙로18길 17,C,0,kt전화국 나라약국골목/,동산외과의원,054-481-2326,,1800,0900,1800,0900,1800,0900,1800,0900,1800,0900,1300,0900,,,1300,0900,36.241448101753654,128.30263927875262
"서울특별시 양천구 중앙로 284 (신정동, 동성빌딩)",C,0,신정네거리역 3번 출구,서울외과의원,02-2696-7582,,1800,0900,1800,0900,1800,0900,1800,0900,1800,0900,1500,0900,,,1300,0900,37.5216931375,126.8525518396
"서울특별시 양천구 오목로 224, 3층 (신정동)",C,0,,장외과의원,02-2605-5230,,1900,0900,1900,0900,1900,0900,1900,0900,1900,0900,1600,0900,,,,,37.52561540610002,126.8624315237
"서울특별시 양천구 공항대로 614, (목동)",C,0,양천구 도시가스 건너편,성모외과의원,02-2644-0089,,1830,0900,1830,0900,1830,0900,1830,0900,1830,0900,1500,0900,,,,,37.5467431118411,126.87302975798093
서울특별시 양천구 신월로 164,C,0,신곡시장 인근 신한은행 건물,한강외과의원,02-2065-7575,,1830,0900,1830,0900,1830,0900,1830,0900,1830,0900,1400,0900,,,1300,0900,37.51770715822141,126.84200628838269
경기도 수원시 장안구 경수대로 904 (조원동),C,0,,이용기외과의원,031-207-5551,,1830,0900,1830,0900,1830,0900,1830,0900,1830,0900,1300,0900,,,,,37.30077490711854,127.0110590861575
"서울특별시 양천구 목동로 210, 타운빌딩 402호 (목동)",C,0,,리유외과의원,02-2062-0101,,1800,1000,1800,1000,1800,1000,,,1800,1000,1400,0900,,,,,37.5273836988,126.8644465311
경기도 수원시 장안구 서부로 2117,C,0,,S&U서울외과의원,031-292-1115,,1800,0900,1800,0900,1800,0900,1800,0900,1800,0900,1530,0900,,,,,37.29770416778076,126.97066356215731
경기도 수원시 장안구 파장로 89 (정자동),C,0,,김도관외과의원,031-245-4628,,1830,0930,1830,0930,1830,0930,1830,0930,1830,0930,1830,0930,,,,,37.3069854682,126.9911384386
경기도 수원시 장안구 서부로 2139,C,0,북수원온천 이슈나인 백화점 6층,뉴하나로외과의원,031-269-9530,,1830,1000,1830,1000,1830,1000,1830,1000,1830,1000,1300,1000,,,,,37.299459624653224,126.97164184330205
광주광역시 북구 경열로 172 (유동),C,0,,김광록외과의원,062-521-7389,,1730,0900,1730,0900,1730,0900,1730,0900,1730,0900,1230,0900,,,,,35.155580555555552,126.903263888888887
경기도 평택시 서정역로36번길 24-10 (이충동),C,0,서정리초등학교 근처,연세한빛외과의원,031-664-7525,,2030,0900,2030,0900,2030,0900,2030,0900,2030,0900,1500,0900,,,,,37.05708283295415,127.05704300591606
경기도 평택시 송탄로371번길 17 (지산동),C,0,,열린성모외과의원,031-665-6194,,1830,0900,1830,0900,1830,0900,1230,0900,1830,0900,1400,0900,,,,,37.07668106380699,127.0567282341151
경기도 평택시 서정역로 22 (서정동),C,0,,우리들외과의원,031-662-2422,,1800,0830,1800,0830,1800,0830,1800,0830,1800,0830,1200,0830,,,,,37.05606857068916,127.05581346692995
"경기도 평택시 경기대로 1286, 1층 (이충동, 명성빌딩)",C,0,"명성빌딩1층, ",장영외과의원,031-611-8275,,1900,0930,1900,0930,1900,0930,1900,0930,1900,0930,1300,0930,,,,,37.05990462839055,127.0649198144842
"광주광역시 북구 북문대로 41, 2층 (운암동)",C,0,운암동 문화예술회관  건너편,대한외과의원,062-527-7500,,1800,0900,1800,0900,1800,0900,1800,0900,1800,0900,1230,0900,,,,,35.175163888888889,126.880958333333339
광주광역시 북구 동문대로 191  (두암동),C,0,,동문외과의원,062-267-1600,,1730,0900,1730,0900,1730,0900,1730,0900,1730,0900,1230,0900,,,,,35.17956643836102,126.9293270492444
"광주광역시 북구 서하로 381, 3층 (문흥동)",C,0,문흥지구 농협 2층,무등외과의원,062-261-3355,,1800,0900,1800,0900,1800,0900,1200,0900,1800,0900,1200,0900,,,,,35.185675000000003,126.922036111111112
경기도 수원시 영통구 중부대로 288 (매탄동),C,0,,21세기외과의원,031-216-2800,,1830,0930,1830,0930,1830,0930,1830,0930,1830,0930,1400,0930,,,,,37.27347945008175,127.04703025990061
광주광역시 북구 하서로 428 (용두동),C,0,,블레스유외과의원,062-574-7451,,1800,0900,1800,0900,1800,0900,1800,0900,1800,0900,1300,0900,,,,,35.2129028559,126.875190981
대구광역시 북구 동암로 2 (읍내동),C,0,,정우연합외과의원,053-322-0075,,1800,0900,1800,0900,1800,0900,1800,0900,1800,0900,1300,0900,,,1300,0900,35.946754043173236,128.55195267684064
"경기도 수원시 영통구 영통로 195, 203~204호 (망포동, 골든스퀘어)",C,0,,조정훈유바외과의원,031-206-5565,,1900,0900,1900,0900,1900,0900,1900,0900,1900,0900,1500,0900,,,,,37.24523024951306,127.05599057825475
경기도 수원시 영통구 덕영대로 1507 (영통동),C,0,,차외과의원,031-203-5700,,1800,0900,1800,0900,1800,0900,1800,0900,1800,0900,1400,0900,,,,,37.246133333333333,127.055700000000002
전라북도 남원시 용성로 72 (죽항동) ,C,0,남원 법원 앞,남원연합장문외과의원,063-633-7564,,1730,0830,1730,0830,1730,0830,1730,0830,1730,0830,1300,0830,,,,,35.408918934371925,127.38444525208354
광주광역시 광산구 월곡산정로 81-1 (월곡동),C,0,하남 금호아파트정문앞(호남병원반대쪽) 3층건물입니다,정외과의원,062-951-5676,,1830,0900,1830,0900,1830,0900,1830,0900,1830,0900,1300,0900,,,,,35.1661099769781,126.81117492484148
"경상북도 경산시 중앙로 76, 1층 (중방동)",C,0,,청십자유외과의원,053-815-7077,,1900,0900,1900,0900,1900,0900,1900,0900,1900,0900,1500,0900,,,1300,0900,35.82274754681663,128.73521989105603
경상북도 경산시 자인면 금학로 8-12,C,0,,최한철외과의원,053-856-6568,,1800,0900,1800,0900,1800,0900,1800,0900,1800,0900,1300,0900,,,1300,0900,35.819836111111108,128.823030555555562
"광주광역시 광산구 상무대로 206, 3층(송정동,해옥빌딩)",C,0,광주송정역 맞은편 신약국3층 .  송정역지역철역1번출구,조은외과의원,062-941-8950,,1800,0900,1800,0900,1800,0900,1800,0900,1800,0900,1200,0900,,,,,35.137683333333335,126.791902777777779
경상북도 경산시 압량면 대학로 345,C,0,,현대외과의원,053-817-1797,,1830,0900,1830,0900,1830,0900,1830,0900,1830,0900,1230,0900,,,1200,0900,35.840238888888891,128.758233333333322
"광주광역시 광산구 장신로 133 (수완동, 삼광빌딩)",C,0,,서울위드유외과의원,062-959-0075,,1830,0930,1830,0930,1830,0930,1830,0930,1830,0930,1300,0900,,,,,35.19104572840679,126.8247959755252
"광주광역시 광산구 장신로 62, 8층 (장덕동)",C,0,,시원외과의원,062-944-8575,,1800,0900,2030,0900,1800,0900,2030,0900,1800,0900,1300,0900,1300,0900,,,35.190547384112044,126.81694427961496
"광주광역시 광산구 하남대로 294, 2,3,4층 (운남동)",C,0,운남동(신가사거리) 주공2단지 앞 도로변 광주은행옆 건물,연합외과의원,062-955-7119,,1800,0800,1800,0800,1800,0800,1800,0800,1800,0800,1200,0800,,,,,35.17873213993583,126.82570261702105
"경상북도 경산시 대학로 309, 3,4층 (조영동)",C,0,영대소방서 맞은편,영남외과연합의원,053-817-0075,,1900,0900,1900,0900,1900,0900,1900,0900,1900,0900,1700,0900,,,1300,0900,35.83822174632845,128.75505249312246
"경상북도 경산시 대학로 333, 2,3층 (조영동)",C,0,,영남제일외과의원,053-817-2188,,1830,0900,1830,0900,1830,0900,1830,0900,1830,0900,1230,0900,,,,,35.83965800135791,128.75729714154374
경상북도 경산시 하양읍 하양로 108-1,C,0,,장유석외과의원,053-851-7007,,1830,0900,1830,0900,1830,0900,1830,0900,1830,0900,1300,0900,,,1300,0900,35.913699999999999,128.819308333333339
서울특별시 강남구 선릉로 669 9층,C,0,7호선 강남구청역 2번출구 근처,강남송도외과의원,02-543-7175,,1900,0900,1800,0900,1800,0900,1300,0900,1900,0900,1300,0900,,,,,37.5166134186,127.0412597123
대구광역시 달서구 달구벌대로 1222 (이곡동),C,0,,홍외과의원,053-582-3638,,1830,0900,1830,0900,1830,0900,1830,0900,1830,0900,1300,0900,,,,,35.851616666666665,128.500900000000001
경기도 수원시 팔달구 팔달문로 156-1,C,0,,필외과의원,031-217-7582,,1800,0900,1800,0900,1800,0900,1800,0900,1800,0900,1300,0900,,,,,37.28285136047396,127.03315836952939
"부산광역시 연제구 반송로 33 (연산동, 2층 일부)",C,0,"1,3호선 연산역 14번출구",민중기외과의원,051-864-7008,,1830,0900,1830,0900,1830,0900,1830,1400,1830,0900,1300,0900,,,,,35.188422222222215,129.08409166666814
"전라남도 순천시 팔마로 105, (조곡동)",C,0,조곡동 우체국 앞,동부외과의원,061-742-3737,,1800,0830,1800,0830,1800,0830,1300,0830,1800,0830,1300,0830,,,,,34.946083959889556,127.50001856637433
경기도 수원시 팔달구 중부대로239번길 5,C,0,,장미꽃과나이팅게일외과의원,031-211-3659,,1900,1000,1900,1000,1900,1000,1900,1000,1900,1000,1600,1000,,,,,37.27562243201769,127.04185981416936
부산광역시 연제구 과정로 336 (연산동),C,0,버스정류장:한양타워아파트,박수연외과의원,051-852-8346,,1800,0930,1800,0930,1800,0930,1800,0930,1800,0930,1300,0930,,,,,35.19028611111113,129.09141666666971
"대구광역시 달서구 계대동문로 120, 5층 (이곡동)",C,0,,성서연합외과의원,053-588-0975,,1830,0900,1830,0900,1830,0900,1830,0900,1830,0900,1530,0900,,,1200,0900,35.855117407874666,128.50557857292904
"대구광역시 달서구 월배로 219, 603호 (상인동)",C,0,,박혜란유외과의원,053-634-6075,,1830,0900,1830,0900,1200,0900,2030,0900,1830,0900,1530,0900,,,,,35.819115794983176,128.53713654113662
"전라북도 군산시 월명로 180, 4층 (수송동, 도곡빌딩)",C,0,극동 사거리 삼성전자서비스센터 방향,군산학문외과의원,063-471-1717,,1830,0930,1830,0930,1830,0930,1830,0930,1830,0930,1200,0930,,,,,35.9600903534,126.7160644712
광주광역시 동구 제봉로 185 (대인동),C,0,,김승완외과의원,062-222-6767,,1730,0900,1730,0900,1730,0900,1730,0900,1730,0900,1200,0900,,,,,35.152679577477016,126.91683147609474
경상북도 울진군 후포면 삼율2길 25,C,0,후포시장 내,손상문외과의원,054-788-8275,,1800,0830,1800,0830,1800,0830,1800,0830,1800,0830,1300,0830,,,,,36.67884970474686,129.44320071491973
"부산광역시 부산진구 서면로 74, 1701, 1704호 (부전동, 아이온시티 17층)",C,0,"1,2호선 서면역 5,7번출구/아이온시티 17층",다리안외과의원,051-807-7744,,1800,0900,1800,0900,1800,0900,1800,0900,1800,0900,1600,0900,,,,,35.157212610866836,129.05814138192736
강원도 삼척시 진주로 12-38 (남양동),C,0,남양동 현대슈퍼 맞은 편,이외과의원,033-573-9931,,1730,0840,1730,0840,1730,0840,1730,0840,1730,0840,1200,0840,,,,,37.44114210957595,129.16459266003014
전라남도 고흥군 고흥읍 흥양길 30,C,0,고흥군청옆,조외과의원,061-832-2068,,1700,0900,1700,0900,1700,0900,1700,0900,1700,0900,1200,0900,,,,,34.61034042144983,127.2859959999115
충청북도 제천시 의림대로18길 3 (중앙로2가),C,0,중앙교차로 부근,세브란스외과의원,043-647-7717,,1830,0830,1830,0830,1500,0830,1830,0830,1830,0830,1300,0830,,,1300,0900,37.14021520448053,128.21198284211647
경상북도 포항시 북구 중흥로 331-1,C,0,,김창수수흉부외과의원,054-273-7111,,1800,0900,1800,0900,1800,0900,1800,0900,1800,0900,1230,0900,,,,,36.031705516891655,129.36485383568674
대구광역시 북구 대현로 95,C,0,,정연합제통외과의원,053-954-5588,,1830,0900,1830,0900,1830,0900,1830,0900,1830,0900,1300,0900,,,,,35.882641967378405,128.60963328030306
"부산광역시 부산진구 가야대로 767-1, 14층 (부전동, 원광메디컬센터)",C,0,"1,2호선 서면역 9번출구",부산서울하정외과의원,051-514-1106,,1800,0900,1800,0900,1800,0900,1800,0900,1800,0900,1600,0900,,,,,35.158004829677445,129.05564192935662
"서울특별시 마포구 마포대로 44, 2층 2호 (도화동, 진도빌딩)",C,0,마포역 3번 출구,박신혜유외과의원,02-712-5100,,1800,0930,1800,0930,1800,0930,1800,0930,1800,0930,1300,0930,,,,,37.5399735549,126.9471001294
"충청북도 청주시 흥덕구 2순환로 1240, 5층 (강서동)",C,0,고속버스터미널 건너편,청주혜성외과의원,043-273-7575,,1900,0900,1900,0900,1900,0900,1900,0900,1900,0900,1500,0900,,,,,36.62540733737602,127.43009433068832
"서울특별시 마포구 마포대로16길 6, 1~2층 (공덕동)",C,0,5호선 애오개역 4번출구 우리은행인근,연세외과의원,02-715-6197,,1830,0900,1830,0900,1830,0900,1830,0900,1830,0900,1500,1000,,,,,37.5508073035662,126.95623631308099
경기도 평택시 평택로 95  (통복동),C,0,,평택외과의원,031-653-0119,,1830,0900,1830,0900,1830,0900,1830,0900,1830,0900,1300,0830,,,,,36.994972870118836,127.08350024696634
경기도 양평군 양평읍 시민로 45,C,0,,김외과의원,031-771-2929,,1800,0900,1800,0900,1800,0900,1200,0900,1800,0900,1300,0900,,,,,37.49067990636351,127.49664409911277
대구광역시 북구 칠곡중앙대로 219  (태전동),C,0,,김하식외과의원,053-312-5690,,1900,0900,1900,0900,1900,0900,1900,0900,1900,0900,1400,0900,,,,,35.915620736429204,128.54811008831933
"경기도 용인시 수지구 풍덕천로 149, 5층 505,506,509호 (풍덕천동, 현대그린프라자)",C,0,,용한외과의원,031-261-7188,,1830,0930,1830,0930,1830,0930,1830,0930,1830,0930,1500,0930,,,,,37.324634645062794,127.09759475001371
경기도 수원시 팔달구 권광로 170 (인계동),C,0,,하이유외과의원,031-221-1205,,1800,0900,1800,0900,1800,0900,1800,0900,1800,0900,1500,0900,,,,,37.26256743459232,127.03260876317968
강원도 화천군 사내면 사내로 30,C,0,춘천미용실 앞,정외과의원,033-441-6846,,1800,0830,1800,0830,1800,0830,1800,0830,1800,0830,1400,0830,,,,,38.070645479,127.5217734418
경상북도 영덕군 강구면 영덕대게로 31,C,0,,강구외과의원,054-733-9587,,1830,0900,1830,0900,1830,0900,1830,0900,1830,0900,1300,0900,,,,,36.36064570239139,129.38255368377312
전라남도 곡성군 옥과면 대학로 190,C,0,옥과터미널에서 옥과초등쪽으로 1층,송상진외과의원,061-362-8828,,1700,0800,1700,0800,1700,0800,1700,0800,1700,0800,1300,0800,,,,,35.27647168285166,127.14000208159788
대구광역시 중구 명덕로 315 (대봉동),C,0,대백프라자->건들바위방향,이경외과의원,053-422-6848,,1730,0900,1730,0900,1730,0900,1730,0900,1730,0900,1500,0900,,,,,35.855382326380905,128.60483978255203
"부산광역시 사하구 낙동남로 1414, 4층 (하단동, 삼영빌딩)",C,0,"1호선 하단역 4,6번출구/버스정류장:하단시장/삼영빌딩 4층",부산수흉부외과의원,051-292-7061,,1800,0900,1800,0900,1800,0900,1800,0900,1800,0900,1400,0900,,,,,35.10587928129445,128.96626907778636
"대구광역시 달서구 구마로12길 93, 210호 (본동, 월성주공5단지상가)",C,0,,월성제일외과의원,053-636-7484,,1900,0900,1900,0900,1900,0900,1900,0900,1900,0900,1300,0900,,,,,35.83295974867389,128.53411420586036
"경상북도 안동시 대안로 85, (광석동)",C,0,,소나무외과의원,054-854-5005,,1730,0900,1730,0900,1730,0900,1730,0900,1730,0900,1230,0900,,,,,36.56528211161195,128.72223161610776
"경기도 구리시 경춘로 253, 304,306호 (인창동)",C,0,,백외과의원,031-555-8920,,1900,0930,1900,0930,1900,0930,1900,0930,1900,0930,1500,0900,,,,,37.602232078870216,127.14300319174049
대구광역시 중구 달성로 37 (대신동),C,0,,큰나래연합외과의원,053-252-7200,,1830,0900,1830,0900,1830,0900,1830,0900,1830,0900,1400,0900,,,1300,0900,35.86852562490086,128.5819371665242
경상남도 창원시 진해구 벚꽃로 73 (충무동),C,0,맥도날드근처,김외과의원,055-542-3545,,1800,0900,1800,0900,1800,0900,1800,0900,1800,0900,1300,0900,,,,,35.15194141861159,128.66373075451426
"대구광역시 중구 태평로 287, (동인동3가)",C,0,,박우용외과의원,053-423-5325,,1900,0900,1900,0900,1900,0900,1900,0900,1900,0900,1500,0900,,,,,35.87316372077977,128.6086738603895
경상남도 거창군 거창읍 중앙로 153-16,C,0,수승대약국 부근,현대외과의원,055-943-7596,,1800,0900,1800,0900,1800,0900,1800,0900,1800,0900,1200,0900,,,,,35.688816044345195,127.91565118026372
경기도 군포시 군포로 546 (당동),C,0,,서울외과의원,031-451-2727,,1630,0900,1630,0900,1630,0900,1630,0900,1630,0900,1030,0900,,,,,37.35458802728918,126.94695060137044
대구광역시 중구 동성로1길 81,C,0,,에이치프라임외과의원,053-264-7475,,1800,1000,1800,1000,1800,1000,1800,1000,1800,1000,1400,1000,,,,,35.86521179090073,128.597639067397
경상남도 진주시 진주성로 47-1,C,0,봉곡새마을금고 부근,평강외과의원,055-742-5722,,1800,0900,1800,0900,1800,0900,1800,0900,1800,0900,1300,0900,,,1300,0900,35.19393045023407,128.07706937580494
경상북도 영덕군 영덕읍 덕곡길 101,C,0,영덕야성초등학교앞 2층,서창수외과의원,054-733-7595,,1800,0900,1800,0900,1800,0900,1800,0900,1800,0900,1300,0900,,,,,36.411941740826315,129.36840722261297
충청북도 제천시 의림대로 115  (중앙로1가),C,0,,이외과의원,043-642-2239,,1700,0900,1700,0900,1700,0900,1700,0900,1700,0900,1200,0900,,,1200,0900,37.13809986248033,128.21039588133746
"경기도 평택시 평택5로20번길 39, 4층 401호 (합정동, 합정동타임스퀘어)",C,0,,권우석흉부외과의원,031-652-2172,,1900,0900,1900,0900,1900,0900,1900,0900,1900,0900,1400,0900,,,,,36.9899894306,127.1132287133
"경기도 안산시 상록구 반석로 54, 신안프라자 301호 (본오동)",C,0,,강외과의원,031-406-8275,,1830,0900,1830,0900,1830,0900,1830,0900,1830,0900,1400,0900,,,,,37.295988888888886,126.866794444444452
서울특별시 강동구 양재대로 1355  (성내동),C,0,둔촌역 3번출구,동진외과의원,02-482-0991,,1800,0900,1800,0900,1800,0900,1800,0900,1800,0900,1300,0900,,,,,37.52758468840216,127.13572583756687
"전라북도 군산시 대야면 석화로 12,",C,0,대야면사무소 건너편,지경외과의원,063-451-6620,,1800,0900,1800,0900,1800,0900,1800,0900,1800,0900,1230,0900,,,,,35.946163888888890,126.811919444444442
"충청북도 청주시 청원구 오창읍 팔결로 713-3, 2층",C,0,,성심외과의원,043-217-1461,,1900,0900,1900,0900,1900,0900,1900,0900,1900,0900,1600,0900,,,1300,0900,36.741422722598585,127.45544381327053
대구광역시 달서구 파도고개로 3,C,0,,달성외과의원,053-625-5806,,1830,0930,1830,0930,1830,0930,1830,0930,1830,0930,1530,0930,,,,,35.85117278587645,128.57297532021147
경기도 군포시 금산로 92 (산본동),C,0,,추규열외과의원,031-393-3999,,1900,0900,1900,0900,1900,0900,1900,0900,1900,0900,1600,0900,,,,,37.37025035462906,126.93726223368988
서울특별시 강동구 천호대로 1006 (성내동),C,0,천호역 7번출구 브라운스톤건물 6층,핑크리본외과의원,02-476-1775,,1900,0930,1900,0930,1900,0930,1900,0930,1900,0930,1600,1000,,,,,37.53805368718512,127.12374894160138
충청북도 영동군 영동읍 학산영동로 1241,C,0,영동우체국 뒷길,서외과의원,043-742-1171,,1900,0830,1900,0830,1900,0830,1900,0830,1900,0830,1400,0830,,,,,36.17346048879476,127.77294858921176
경기도 군포시 산본천로199번길 5 (산본동),C,0,,산본외과의원,031-397-8130,,1800,0900,1800,0900,1800,0900,1800,0900,1800,0900,1300,0900,,,,,37.370716409682814,126.93944300201193
대전광역시 유성구 테크노중앙로 38,C,0,"관평동 롯데마트 근처 삼성전자랜드 맞은편, 기아자동차 건물 3층",테크노성모외과의원,042-934-7770,,1830,0900,1830,0900,1830,0900,1300,0900,1830,0900,1300,0900,,,,,36.42670077157631,127.38969964841559
"부산광역시 부산진구 서면문화로 10, 11~12층,13층 (부전동)",C,0,"1,2호선 서면역 9번출구/서면메디컬센터 8층",김병준레다스흉부외과의원,051-634-8275,,1830,0930,1830,0930,1830,0930,1830,0930,1830,0930,1630,0930,,,,,35.15804684691103,129.05550253153305
"전라남도 여수시 소라면 덕양로 397, 1층",C,0,덕양면사무소 앞,박경철외과의원,061-686-3716,,1700,0800,1700,0800,1700,0800,1700,0800,1700,0800,1300,0800,,,,,34.79329357389626,127.63273650633418
경상북도 포항시 북구 죽도로 27 (죽도동),C,0,,이원기외과의원,054-272-1919,,1830,0930,1830,0930,1830,0930,1830,0930,1830,0930,1400,0930,,,,,36.03415599610258,129.36413283863797
"충청북도 청주시 서원구 사직대로 115, 5층 (사창동)",C,0,재미슨타워 5층,청주제일외과의원,043-263-8275,,1900,0900,1900,0900,1900,0900,1900,0900,1900,0900,1400,0900,,,,,36.63521191051938,127.4604040176292
서울특별시 종로구 종로 291 (창신동),C,0,동대문역 1번 출구,대동외과의원,02-763-5553,,1700,0900,1700,0900,1700,0900,1700,0900,1700,0900,,,,,,,37.57177216199149,127.01010181526388
제주특별자치도 제주시 무근성7길 2 (삼도이동),C,0,,김판규외과의원,064-722-2852,,1700,0900,1700,0900,1300,0900,1700,0900,1700,0900,1200,0900,,,,,33.51301117597143,126.52004287529763
대구광역시 달서구 구마로 195,C,0,,김영희외과의원,053-625-5877,,1720,0900,1720,0900,1720,0900,1720,0900,1720,0900,1520,0900,,,,,35.837442428334136,128.54913194141847
"대구광역시 달서구 월배로 138, 6층 (진천동)",C,0,,부강외과의원,053-638-7575,,1830,0930,1830,0930,1830,0930,1830,0930,1830,0930,1400,0930,,,1200,0900,35.815460413966704,128.52950267980384
전라남도 화순군 화순읍 중앙로 98 ,C,0,광덕리 현대약국 2층,현대외과의원,061-371-8575,,1830,0900,1830,0900,1830,0900,1830,0900,1830,0900,1300,0900,,,,,35.0602543834,126.9921334076
대구광역시 달서구 달구벌대로 1680,C,0,,수외과의원,053-656-7577,,1800,0900,1800,0900,1800,0900,1800,0900,1800,0900,1500,0900,,,,,35.85456630121381,128.54981008888439
서울특별시 강북구 노해로 99-1 (수유동),C,0,,송림외과의원,02-907-7799,,1900,0900,1900,0900,2100,1300,1900,0900,1900,0900,1400,0900,,,,,37.6445198373,127.0231103731
경상남도 하동군 진교면 진교중앙길 11,C,0,진교시외버스터미널 부근,진교외과의원,055-884-7582,,1700,0800,1700,0800,1700,0800,1700,0800,1700,0800,1200,0800,,,,,35.02893672903315,127.9036075045675
"부산광역시 연제구 중앙대로 1091, 4층 (연산동, 제세빌딩)",C,0,"1,3호선 연산역 1번출구",박근준유외과의원,051-714-6086,,1830,0930,1830,0930,1830,0930,1830,0930,1830,0930,1330,0930,,,,,35.18541256339051,129.08065658774012
"서울특별시 강남구 도곡로 408, 305호 (대치동, 디마크 빌딩)",C,0,한티역 3번 출구,박종태유바외과의원,02-556-0011,,1900,0930,1900,0930,1900,0930,1900,0930,1900,0930,1500,0930,,,,,37.4966234189,127.0552350053
"서울특별시 종로구 평창문화로 139, 5층 (평창동)",C,0,킴스관광호텔 맞은편,하루학문외과의원,02-391-7001,,1700,1000,1700,1000,,,1700,1000,1700,1000,1700,1000,,,,,37.61001529523779,126.97512898402137
경상북도 청송군 진보면 진보로 118-2,C,0,,금생외과의원,054-874-2011,,1800,0900,1800,0900,1800,0900,1800,0900,1800,0900,1200,0900,,,,,36.52838409734857,129.04440908317926
광주광역시 동구 서암대로 320 (계림동),C,0,,이민오외과의원,062-521-3601,,1800,0900,1800,0900,1800,0900,1800,0900,1800,0900,1400,0900,,,,,35.164805555555553,126.918294444444442
"서울특별시 강남구 강남대로 370, 2층 (역삼동)",C,0,강남역(신분당선) 4번출구 근처,강남서울외과의원,02-562-2300,,1830,0900,1830,0900,1830,0900,1830,0900,1830,0900,1500,0900,,,,,37.49585403075925,127.02918823083543
충청북도 음성군 삼성면 덕정로 72-1,C,0,,중앙외과의원,043-878-1331,,1830,0900,1830,0900,1830,0900,1830,0900,1830,0900,1300,0900,,,,,37.0203804396789,127.4996703554954
부산광역시 부산진구 가야대로 643,C,0,2호선 가야역 4번출구 1~2분거리,이익룡외과의원,051-896-9333,,1800,0900,1800,0900,1800,0900,1800,0900,1800,0900,1300,0900,,,,,35.156018516496424,129.04201540889846
"서울특별시 강남구 선릉로112길 85, 1층 (삼성동)",C,0,,더행복한흉부외과의원,02-6954-0202,,1800,0930,1800,0930,1800,0930,1800,0930,1800,0930,1530,0930,,,,,37.5131752701,127.0503427737
부산광역시 연제구 월드컵대로 197 (거제동),C,0,3호선 거제역 1번 출구 ,유바외과의원,051-862-9559,,1730,0900,1730,0900,1730,0900,1730,0900,1730,0900,1330,0900,,,,,35.18785292,129.0749844199
"서울특별시 마포구 월드컵로13길 34, 두드림빌딩 2층 201호 (망원동)",C,0,,바른본외과의원,02-3141-8275,,1900,0900,1900,0900,1900,0900,1900,0900,1900,0900,1500,0900,,,,,37.5556559758,126.9082614297
전라남도 영광군 법성면 진굴비길 82-3,C,0,새마을 금고 근처,중앙외과의원,061-356-3971,,1700,0830,1700,0830,1700,0830,1700,0830,1700,0830,1200,0830,,,,,35.36239682711228,126.44454127006955
전라남도 완도군 완도읍 중앙길 24,C,0,완도초등학교 앞,김병곤외과의원,061-552-2474,,1830,0830,1830,0830,1830,0830,1830,0830,1830,0830,1300,0830,,,,,34.31343808749282,126.75775929936381
부산광역시 사하구 낙동대로 363 (당리동),C,0,버스정류장: 당리중학교,나비유박외과의원,051-997-6075,,1730,0930,1930,0930,1300,0930,1730,0930,1730,0930,1300,0930,,,,,35.101657014808254,128.9777463139338
