주소,분류,응급여부,간이약도,이름,Tel,Tel_E,월close,월open,화close,화open,수close,수open,목close,목open,금close,금open,토close,토open,일close,일open,공close,공open,위도,경도
경상남도 창원시 의창구 원이대로285번길 5 (봉곡동),C,0,"탐앤탐스, OK메디컬빌딩 건물",옥광휘신경외과의원,055-250-6000,,1900,0900,1900,0900,1900,0900,1900,0900,1900,0900,1300,0900,,,,,35.242978961712794,128.65109942735103
"경상남도 창원시 의창구 소계로90번길 3-1, 1층(소계동,일산빌딩)",C,0,농협소계지점 부근,청솔신경과의원,055-251-0234,,1800,0900,1800,0900,1800,0900,1800,0900,1800,0900,1300,0900,,,1300,0900,35.25743333333333,128.59932777777803
경상남도 창원시 의창구 읍성로 23-3 (서상동),C,0,,다나신경외과의원,055-603-8275,,1830,0900,1830,0900,1830,0900,1830,0900,1830,0900,1300,0900,,,,,35.2651166975354,128.62030260096583
"경상남도 창원시 성산구 가양로124번길 17-12 (대방동, 실로암빌딩)",C,0,남창원농협 대남지점부근,박창현신경외과의원,055-275-7588,,1800,0900,1800,0900,1800,0900,1230,0900,1800,0900,1230,0900,,,,,35.20781332133448,128.70786877585408
"경기도 과천시 새술막길 39, 5층 (중앙동, KT스마트타워 5층 일부)",C,0,,이은신경외과의원,02-578-9336,,1830,0900,1830,0900,1830,0900,1830,0900,1830,0900,1430,0900,,,,,37.429442188358365,126.99173413474776
"경기도 과천시 별양상가1로 31 (별양동, 제일상가 307호~309호)",C,0,제일상가 307호~309호,한동환신경외과의원,02-502-7582,,1830,0900,1830,0900,1830,0900,1830,0900,1830,0900,1400,0900,,,,,37.428699833994194,126.99318944848403
"충청남도 서산시 안견로 178, 1층 (동문동)",C,0,삼성생명 건물 맞은편,우리연세신경외과의원,041-681-3011,,1800,0800,1800,0800,1800,0800,1800,0800,1800,0800,1230,0800,,,,,36.782487610137906,126.45914916165268
충청남도 서산시 안견로 194 (동문동),C,0,버스터미널 후문 오른쪽,미래신경외과의원,041-667-7001,,1800,0800,1800,0800,1800,0800,1800,0800,1800,0800,1200,0800,,,,,36.781200557821926,126.45908653558575
"경기도 동두천시 큰시장로 42, 고려빌딩 5층 (생연동)",C,0,,서울에이스신경외과의원,031-861-7511,,1830,0830,1830,0830,1830,0830,1830,0830,1830,0830,1400,0830,,,,,37.900531769792366,127.05310231593593
"경기도 파주시 금빛로 24-27, 6층 (금촌동, 제일메디컬)",C,0,,늘푸른신경외과의원,031-943-1141,,2000,0900,2000,0900,2000,0900,1900,0900,1900,0900,1500,0900,,,,,37.75196817686931,126.76830393261457
"경기도 파주시 교하로 87, 삼성프라자 401호 (목동동)",C,0,,운정아산신경외과의원,031-935-4005,,1830,0930,1830,0930,1830,0930,1830,0930,1830,0930,1330,0930,,,,,37.727634347178956,126.73392740774979
경기도 파주시 문산읍 문향로67번길 2 3층 (중앙빌딩),C,0,,임재환신경과의원,031-953-8089,,1800,0840,1800,0840,1800,0840,1800,0840,1800,0840,1300,0840,,,1300,0900,37.858143522824605,126.78503531965207
경기도 파주시 문화로 111-1  (금촌동),C,0,,필신경과의원,031-945-9989,,1900,0900,1900,0900,1900,0900,1900,0900,1900,0900,1400,0900,,,,,37.764146143822515,126.77415655202641
경기도 파주시 경의로 1821 2층 (아동동),C,0,,한마음신경외과의원,031-946-0032,,1900,0900,1900,0900,1900,0900,1900,0900,1900,0900,1500,0900,,,,,37.76834342402418,126.7772962758282
"경기도 파주시 미래로 371, 씨티타워 402호 (동패동)",C,0,,본신경외과의원,031-949-1011,,1900,0900,2030,0900,1900,0900,1900,0900,2030,0900,1500,0900,,,,,37.7111732653732,126.74599356755216
충청남도 금산군 금산읍 비선길 39,C,0,단위 농협 근처 꽃아저씨 바로 윗층(2층) ,푸른신경과의원,041-753-3456,,1730,0830,1730,0830,1200,0830,1800,0830,1730,0830,1300,0830,,,,,36.10234059106747,127.49015080972918
경기도 용인시 기흥구 동백중앙로 356 (동백동),C,0,,참바른신경외과의원,031-284-5007,,1900,0900,2100,0900,1900,0900,1900,0900,1900,0900,1400,0900,,,,,37.28241682362245,127.15961405342757
"인천광역시 계양구 경명대로 1138, 2층 (계산동)",C,0,주공아파트정문,안창호신경외과의원,032-546-6870,,1800,0900,1800,0900,1800,0900,1800,0900,1800,0900,1300,0900,,,,,37.54273460074782,126.73334420064961
인천광역시 계양구 계양대로 55 (작전동),C,0,한마음병원 옆건물,홍도신경외과의원,032-546-2000,,1830,0930,1830,0930,1830,0930,1830,0930,1830,0930,1300,0930,,,,,37.5287455332729,126.72210489652285
"인천광역시 계양구 장제로 916, 2층 (병방동)",N,0,계양병원 건물 2층.,신경하치과의원,032-549-3581,,1800,0930,1800,0930,1800,0930,1800,0930,1800,0930,1300,0930,,,,,37.548162389158634,126.74150404254401
"경기도 용인시 기흥구 용구대로 2398 (마북동, 연원마을 벽산상가401호)",C,0,,아산신경외과의원,031-274-1711,,1830,0900,1830,0900,1830,0900,1830,0900,1830,0900,1530,0900,,,,,37.30030554776877,127.10728577383908
"부산광역시 수영구 수영로 690-5, 8층 (광안동, 메디세움)",C,0,"2,3호선 수영역 7번 출구 ",척척신경외과의원,0517555005,,1830,0900,1830,0900,1830,0900,1830,0900,1830,0900,1300,0900,,,,,35.1670319376,129.11584978830166
부산광역시 수영구 수영로 697  (수영동),C,0,"2,3호선 수영역 3번 출구",강남제신경과의원,051-759-7676,,1750,0900,1750,0900,1250,0900,1750,0900,1750,0900,1250,0900,,,,,35.16780975963652,129.11574107313584
경상남도 창녕군 창녕읍 창녕시장길 75,C,0,창녕상설시장 앞,삼성신경외과의원,055-532-3052,,1800,0900,1800,0900,1800,0900,1800,0900,1800,0900,1300,0900,,,1300,0900,35.540686227382594,128.49695005439105
경기도 이천시 남천로 82 (중리동),C,0,,참편안한신경외과의원,031-631-8112,,1800,0900,2000,0900,1800,0900,1800,0900,1800,0900,1400,0900,,,,,37.27655042891008,127.44640282090201
"경기도 이천시 이섭대천로 1213 4층 (창전동, 시계탑빌딩)",C,0,,푸른신경외과의원,031-634-0300,,1830,0900,1830,0900,1830,0900,1830,0900,1830,0900,1300,0900,,,,,37.2786255284911,127.44663607844083
"경기도 시흥시 시흥대로1074번길 5, 3층 308,309호 (은행동, 스페이스타워)",C,0,,참사랑신경외과의원,031-435-7582,,1900,0900,1900,0900,1900,0900,1900,0900,1900,0900,1330,0900,,,,,37.431958083001405,126.79357706412521
경기도 남양주시 화도읍 마석중앙로 78,C,0,,최재준신경외과의원,031-511-2877,,1800,0900,1800,0900,1800,0900,1800,0900,1800,0900,1400,0900,,,,,37.6519001553022,127.30829231749979
"충청남도 부여군 부여읍 성왕로 192, 2,3,4층",C,0,축협 대각선 맞은편,박경석신경외과의원,041-833-8370,,1800,0830,1800,0830,1800,0830,1800,0830,1800,0830,1400,0830,,,,,36.28191687432444,126.90956539644621
"충청남도 부여군 부여읍 사비로 64, 2층",C,0,동양한의원 2층,신통신경외과의원,041-833-7501,,1800,0800,1800,0800,1800,0800,1800,0800,1800,0800,1330,0800,,,,,36.278295025552346,126.91078942350442
"경기도 남양주시 금곡로 72 (금곡동, 센타프라자)",C,0,,예지신경과의원,031-559-7954,,1800,0900,1800,0900,1800,0900,1800,0900,1800,0900,1300,0900,,,,,37.63447285749506,127.21111024600391
"경기도 시흥시 시흥대로 1121, 신천휴먼시아 상가조합 4층 (신천동)",C,0,,시흥바른신경외과의원,031-312-9481,,1900,0800,1900,0800,1900,0800,1900,0800,1900,0800,1400,0900,,,,,37.4355507088,126.7911717592
경상북도 김천시 중앙시장3길 4 (모암동),C,0,,제종석신경과의원,054-435-1100,,1700,0740,1700,0740,1700,0740,1200,0740,1700,0740,,,,,,,36.118802777777780,128.124808333333334
"경기도 시흥시 승지로60번길 17, 현대프라자 304~308호 (능곡동)",C,0,,한종완신경외과의원,031-318-7582,,1900,0900,1900,0900,1900,0900,1900,0900,1900,0900,1500,0900,,,,,37.36873810332282,126.8125627410797
"경기도 시흥시 배곧3로 86, 센터프라자2 3층 303~304호 (정왕동)",C,0,,함신경외과의원,031-499-7301,,1900,0900,1900,0900,1900,0900,1900,0900,1900,0900,1400,0900,,,,,37.3702244489,126.7295320685
"경기도 남양주시 늘을2로 26, 5층 508호 (호평동, 메인시네마타워)",C,0,경춘선 평내호평역 1번 출구에서 500m앞,이상현신경과의원,031-595-5277,,1800,0900,1800,0900,1800,0900,1800,0900,1800,0900,1300,0900,,,,,37.65523618195313,127.24403872058912
경기도 시흥시 뱀내장터로 15 (대야동),C,0,,이종오신경외과의원,031-313-9775,,1930,0830,1930,0830,1930,0830,1930,0830,1930,0830,1500,0900,,,,,37.44220253017888,126.7864297753573
"경기도 시흥시 봉우재로 12, 2,3층 (정왕동)",C,0,,이철신경외과의원,031-431-0117,,1800,0930,1800,0930,1800,0930,1800,0930,1800,0930,1300,0900,,,,,37.34431570294624,126.74324224612333
"경기도 시흥시 정왕시장길 52, 2층 210~211호 (정왕동)",C,0,,정왕신경외과의원,031-499-7500,,1800,0900,1800,0900,1800,0900,1800,0900,1800,0900,1400,0900,,,,,37.34535083023719,126.7485971078558
"서울특별시 영등포구 도신로60길 2, 5층 (신길동, 미주메디칼)",C,0,,미래로신경외과의원,02-843-1336,,1900,0900,1900,0900,1900,0900,1900,0900,1900,0900,1400,0900,,,,,37.5117727687,126.9168208392
"서울특별시 영등포구 여의대방로 145, 2층 (신길동, 세인트빌딩)",C,0,보라매역 6번 출구,이삭신경과의원,02-836-0700,,1900,0900,1900,0900,1900,0900,1900,0900,1900,0900,1500,0900,,,,,37.5002096588,126.9199911378
서울특별시 영등포구 영등포로 216 (영등포동3가),C,0,,이상구신경과의원,02-2678-6355,,1830,1000,1830,1000,1830,1000,1830,1000,1830,1000,1600,1000,,,,,37.5195704248,126.9053464307
"서울특별시 영등포구 도림로 150 , 2층 (대림동,미래빌딩)",C,0,,한가점신경과의원,02-849-9897,,1800,0900,1800,0900,1800,0900,1800,0900,1800,0900,1400,0900,,,,,37.493742067452885,126.89864398240705
경상남도 남해군 남해읍 화전로 85,C,0,,한양신경외과의원,055-864-3399,,1700,0830,1700,0830,1700,0830,1700,0830,1700,0830,1200,0830,,,,,34.838823064,127.893850317
경기도 가평군 청평면 경춘로 1401,C,0,,상천신경과의원,031-585-8542,,1730,0900,1730,0900,1730,0900,1730,0900,1730,0900,1300,0900,,,,,37.77658758770279,127.4619388728735
"서울특별시 강서구 강서로 391, 6층 (마곡동, 문영비즈웍스)",C,0,발산역 2번 출구,삼성척척신경외과의원,02-6095-2010,,2100,0900,1900,0900,1900,0900,1900,0900,1900,0900,1500,0900,,,,,37.5605437526,126.8384272913
서울특별시 강서구 강서로 48 (화곡동),C,0,까치산역 1번과 2번출구 중간,서울척척신경외과의원,02-2602-8575,,1900,0900,1900,0900,1900,0900,1900,0900,1900,0900,1300,0900,,,,,37.5322058207,126.8467339486
"서울특별시 강서구 양천로 699, 3층 (염창동, 염창동새마을금고)",C,0,염창동 새마을금고 3층,선양신경외과의원,02-3664-7575,,1830,0900,1830,0900,1830,0900,1830,0900,1830,0900,1330,0900,,,,,37.550152777777775,126.873727777777773
경기도 포천시 중앙로 115 (신읍동),C,0,,중앙신경외과의원,031-533-7784,,1830,0900,1830,0900,1830,0900,1830,0900,1830,0900,1400,0900,,,,,37.89675940563383,127.20249882787549
경기도 포천시 중앙로 73 (신읍동),C,0,,포천신경외과의원,031-535-8802,,1800,0900,2000,0900,1800,0900,1800,0900,1800,0900,1300,0900,,,,,37.8935129551,127.199583082
"경상남도 밀양시 북성로 11-6, (내이동)",C,0,시외버스터미널 맞은편,석신경외과의원,055-355-3222,,1800,0830,1800,0830,1800,0830,1600,0830,1800,0830,1300,0830,,,,,35.49879930936327,128.74413181856647
"서울특별시 강서구 강서로56길 106, 화운빌딩 2,3,4,5층 (등촌동)",C,0,등촌3동성당 인근,강서신경외과의원,02-3663-2500,,1900,0900,1900,0900,1900,0900,1900,0900,1900,0900,1330,0900,,,,,37.55886544707914,126.84465572823387
서울특별시 강서구 화곡로 173,C,0,,굿모닝신경과의원,02-2608-5100,,1800,0900,1800,0900,1800,0900,1800,0900,1800,0900,1300,0900,,,,,37.54199277351978,126.84085472933032
"서울특별시 강서구 강서로 391, 2,4,5,6층 (마곡동, 문영비즈웍스)",C,0,발산역 2번 출구,다나은신경외과의원,02-3662-7588,,1900,0900,2100,0900,1900,0900,2100,0900,1900,0900,1500,0900,,,,,37.5605437526,126.8384272913
"서울특별시 강서구 화곡로 429, 토피아빌딩 (가양동)",C,0,가양역 3번 출구,로하스신경외과의원,02-6964-8275,,1830,0930,1830,0930,1830,0930,1830,0930,1830,0930,1330,0930,,,,,37.5615113449647,126.85502453633384
"서울특별시 강서구 곰달래로 167, 지하1층,1,2,3층 ,4층호 (화곡동)",C,0,,마디마디신경외과의원,02-2699-0119,,1900,0900,1900,0900,1900,0900,1900,0900,1900,0900,1500,0900,,,,,37.5310334944,126.8515740582
충청북도 증평군 증평읍 역전로 53,C,0,,박찬희신경과의원,043-836-9771,,1800,0830,1800,0830,1800,0830,1800,0830,1800,0830,1300,0830,,,,,36.7817451237,127.5812882071
경기도 의왕시 부곡시장길 48 (삼동),C,0,,나누리신경외과의원,031-461-8871,,2000,0900,2000,0900,2000,0900,1800,0900,2000,0900,1600,0900,,,1300,0900,37.317991002003445,126.95375885148775
울산광역시 남구 문수로 376 (옥동),C,0,남구 울주군청사거리 국민은행 옥동지점 3층,센텀신경외과의원,052-271-8833,,1900,0900,1900,0900,1900,0900,1900,0900,1900,0900,1400,0900,,,,,35.53415469221825,129.2943519789581
"부산광역시 해운대구 신반송로 208, 6층 (반송동)",C,0,버스정류장: 반송2동 우체국,황신경외과의원,051-543-7776,,1830,0900,1830,0900,1830,0900,1830,0900,1830,0900,1300,0900,,,,,35.2306578663196,129.1576771124572
경기도 용인시 처인구 명지로40번길 4 (역북동),C,0,,나래신경과의원,031-321-1020,,1800,0900,1800,0900,1800,0900,1800,0900,1800,0900,1300,0900,,,,,37.2327095511,127.1881051761
"경기도 용인시 처인구 금령로 62, 201호 (김량장동, 위너스프라자)",C,0,,배명철신경과의원,031-333-7833,,1830,0930,1830,0930,1830,0930,1830,0930,1830,0930,1300,0930,,,,,37.2346559895,127.203264817
경기도 용인시 처인구 중부대로 1487 (김량장동),C,0,,용인신경외과의원,031-336-2021,,1900,0900,1900,0900,1900,0900,1900,0900,1900,0900,1400,0900,,,1830,0900,37.23346973980948,127.20973006406079
"경기도 용인시 처인구 금령로 64, 5,6층 (김량장동, 아이렉스타워)",C,0,"아이렉스타워 5층,6층",허리편한신경외과의원,031-321-0505,,1830,0900,1830,0900,1830,0900,1830,0900,1830,0900,1330,0900,,,,,37.234648115178984,127.20365245582461
인천광역시 강화군 강화읍 중앙로 45,C,0,강화터미널 옆,강화신경외과의원,032-934-2774,,1800,0830,1800,0830,1800,0830,1800,0830,1800,0830,1500,0830,,,1200,0830,37.73945795259705,126.48968597719674
"경기도 고양시 일산동구 중앙로 1322, 225호,217~8호 (정발산동, 현대아이스페이스)",G,0,일산경찰서 사거리 일산아이스페이스오피스텔 2층,신경락한의원,031-902-2221,,1800,1000,1800,1000,1800,1000,,,1800,1000,1300,1000,,,,,37.66408554904351,126.77069023361267
"울산광역시 남구 삼산로 273, 삼산타워 9층 (삼산동)",C,0,,최승호 신경과의원,052-260-0300,,1900,0930,1900,0930,1900,0930,1900,0930,1900,0930,1300,0930,,,1300,0930,35.53951003016111,129.33678472810945
"울산광역시 남구 대학로 144, 2,3,8층 (무거동)",C,0,,페밀리신경외과의원,052-249-4100,,1830,0900,1830,0900,1830,0900,1830,0900,1830,0900,1230,0900,,,1230,0900,35.547396353631086,129.26253508122326
"경기도 고양시 일산동구 정발산로 43-20, 5층 510~513,515호 (장항동, 센트럴프라자)",C,0,,이일신경외과의원,031-906-8275,,1900,0900,1900,0900,1900,0900,1900,0900,1900,0900,1400,0900,,,,,37.658249172706505,126.77353243847517
"경기도 고양시 일산동구 일산로 46 (백석동, 남정시티프라자 3차 308~309호)",C,0,,이지신경외과의원,031-903-1177,,1900,0900,1900,0900,1800,0900,1900,0900,1900,0900,1300,0900,,,,,37.64235645995964,126.7878839598955
"경기도 고양시 일산동구 중앙로 1172, 303~306호,308호,314호 (마두동, 그랜드프라자)",C,0,,해맑은신경외과의원,031-905-9119,,1900,0900,1900,0900,1900,0900,1900,0900,1900,0900,1400,0900,,,,,37.651734444701574,126.77838834339941
"대구광역시 수성구 달구벌대로 3205, 2층 (신매동)",C,0,,푸른청신경과의원,053-795-1212,,1900,0900,1900,0900,1900,0900,1900,0900,1900,0900,1400,0900,,,,,35.8404866471,128.707455963
대구광역시 수성구 지범로 183 (지산동),C,0,,허용도신경외과의원,053-782-7967,,1830,0900,1830,0900,1830,0900,1830,0900,1830,0900,1330,0900,,,1300,0900,35.82149072774154,128.63952558633403
"대구광역시 수성구 동대구로 102, 1층 (지산동)",C,0,,에스신경외과의원,053-764-1192,,1900,0900,1900,0900,1900,0900,1900,0900,1900,0900,1400,0900,,,,,35.8392734973,128.6246839187
"대구광역시 수성구 달구벌대로 2319, (수성동4가)",C,0,,오희종신경과의원,053-476-7577,,1800,0900,1800,0900,1800,0900,1800,0900,1800,0900,1230,0900,,,,,35.85994411891509,128.61665048326023
"경기도 성남시 분당구 돌마로 68, 401호,401-1호,402호,410호,501호,511호 (구미동)",C,0,,서울신경외과재활의학과의원,031-786-1666,,2000,0900,2000,0900,2000,0900,2000,0900,2000,0900,1600,0900,,,1300,0900,37.3496476134,127.1095500153
"경기도 성남시 분당구 돌마로 52 403호 (구미동,엠디프라자)",C,0,,요셉신경외과의원,031-712-7696,,1800,0930,1800,0930,,,1800,0930,1800,0930,1500,0930,,,,,37.349685293478195,127.10775329992738
"대구광역시 수성구 동대구로 311, 범어 애플타워 6층, 8층 (범어동)",C,0,,홍앤전신경과신경외과의원,053-743-0920,,1800,0900,1800,0900,1800,0900,1800,0900,1800,0900,1330,0900,,,,,35.85803402864093,128.62542172787477
대구광역시 수성구 청수로 188-1,C,0,,황금연합신경외과의원,053-761-8275,,1800,0900,1800,0900,1800,0900,1800,0900,1800,0900,1500,0900,,,1300,0900,35.838744731919846,128.6287203682046
"경기도 성남시 분당구 성남대로925번길 11, 유니마트 2층 (야탑동)",C,0,,이승철신경외과의원,031-701-1190,,1800,0900,1800,0900,1800,0900,1800,0900,1800,0900,1300,0900,,,,,37.4120419689,127.1272892461
"경기도 성남시 분당구 성남대로 381, 207호 (정자동, 폴라리스빌딩)",C,0,"분당클리닉 빌딩, 청소년수련관 근처에 있는 신한은행 건물",이재수신경외과의원,031-717-4782,,1900,0900,1900,0900,1900,0900,1300,0900,1900,0900,1300,0900,,,,,37.37027939575121,127.1075162959868
"대구광역시 수성구 지범로 182, 6층 (지산동, 농협 범물지점)",C,0,,이장준신경과의원,053-781-6114,,1800,0900,1800,0900,1800,0900,1800,0900,1800,0900,1300,0900,,,,,35.821076476,128.6390996352
대구광역시 수성구 수성로 298 (수성동2가),C,0,,정현대신경외과의원,053-764-3200,,1900,0900,1900,0900,1900,0900,1900,0900,1900,0900,1400,0900,,,,,35.85201090495105,128.61364118892863
충청북도 청주시 상당구 수영로 293 (금천동),C,0,,제일신경외과의원,043-286-0123,,1900,0900,1900,0900,1900,0900,1900,0900,1900,0900,1300,0900,,,,,36.63064054429674,127.50593967114091
충청북도 청주시 상당구 중고개로 322 (금천동) ,C,0,새마을금고 옆,참편한하신경과의원,043-285-5288,,1830,0900,1830,0900,1830,0900,1830,0900,1830,0900,1300,0900,,,1300,0900,36.63024800499204,127.50500243795203
"제주특별자치도 서귀포시 중앙로 113, 2층 (서홍동)",C,0,,삼성맘편한신경과의원,064-733-9119,,1800,0830,1800,0830,1800,0830,1800,0830,1800,0830,1200,0830,,,,
충청북도 충주시 탄금대로 140 (봉방동),C,0,롯데마트와 한전 사이,김훈신경외과의원,043-852-7511,,1830,0830,1830,0830,1830,0830,1830,0830,1830,0830,1300,0830,,,1300,0830,36.98008524921581,127.91523944795845
"충청북도 충주시 중앙탑면 원앙9길 18-2, 센텀빌딩  3층",C,0,,다나음신경외과의원,043-853-9477,,2000,0900,1900,0900,2000,0900,1900,0900,1900,0900,1400,0900,,,,,37.0168459632,127.8256120558
충청북도 충주시 연수동산로2길 1 (연수동),C,0,2층,베로니카신경외과의원,043-843-0022,,1830,0830,1830,0830,1830,0830,1830,0830,1830,0830,1300,0830,,,,,36.985722778728245,127.93962193676268
"충청북도 충주시 계명대로 23, 2-3층 (칠금동)",C,0,"터미널 부근, 점심 13시~14시",삼성바른신경외과의원,043-857-8590,,1900,0900,1900,0900,1900,0900,1900,0900,1900,0900,1400,0900,,,,,36.98264203997634,127.91692782946616
전라북도 정읍시 중앙1길 39 (수성동),C,0,,고려신경외과의원,063-532-1414,,1700,0800,1700,0800,1700,0800,1700,0800,1700,0800,1230,0800,,,1230,0800,35.56949737166396,126.85129817614839
"경상남도 창원시 마산합포구 3·15대로 293 (서성동, 늘푸른선미술학원)",C,0,3.15의거탑 부근,친절신경외과의원,055-244-6990,,1800,0900,1800,0900,1800,0900,1800,0900,1800,0900,1300,0900,,,,,35.20332108982432,128.57005045117901
경상남도 창원시 마산회원구 3.15대로 645,C,0,경남은행본점 맞은편,예일신경외과의원,055-296-8383,,1830,0900,1830,0900,1830,0900,1830,0900,1830,0900,1300,0900,,,,,35.23099623094587,128.57642645634675
"경상남도 창원시 마산합포구 월영남로 3, 4층 401.402호 (해운동)",C,0,마산서중학교 부근,김수영신경외과의원,055-247-5991,,1800,0900,1800,0900,1800,0900,1800,0900,1800,0900,1300,0900,,,,,35.178438508914,128.55862949295601
"인천광역시 연수구 독배로40번길 11, 301호, 302호, 303호 (옥련동, 효명프라자)",C,0,남인천농협 인근,굿닥터신경외과의원,032-833-7501,,1900,0900,2100,0900,1900,0900,2100,0900,1900,0900,1400,0900,,,,,37.4245251974,126.64563553270001
"경상남도 창원시 마산합포구 용마로 45 (산호동, 대우약국)",C,0,여성회관 맞은편,김현중신경외과의원,055-221-7517,,1830,0930,1830,0930,1830,0930,1830,0930,1830,0930,,,,,,,35.21790497993506,128.57977841978536
"인천광역시 연수구 청능대로 93, 403호 (청학동, 이리옴프라자)",C,0,,기분좋은신경과의원,032-816-7575,,1830,0930,1830,0930,1830,0930,1830,0930,1830,0930,1400,0900,,,,,37.41431821755084,126.67566776732693
"인천광역시 연수구 독배로40번길 43, 4층 (옥련동, 신송빌딩)",C,0,,김진욱신경외과의원,032-831-7800,,1900,0830,1900,0830,1900,0830,1900,0830,1900,0830,1400,0830,,,,,37.4246237669,126.6472619166
경상남도 창원시 마산회원구 내서읍 삼계로 10 (튼튼한약국),C,0,,리엔신경과의원,055-222-7582,,1800,0900,1800,0900,1800,0900,1800,0900,1800,0900,1300,0900,,,,,35.23223434235428,128.5037180397472
"인천광역시 연수구 신송로 164, 5층 (송도동, 아데니움프라자)",C,0,채드윅 송도국제학교 인근,바른나무신경외과의원,032-859-7300,,1900,0900,1900,0900,1900,0900,1900,0900,1900,0900,1300,0900,,,,,37.398210674088844,126.64883132633441
"인천광역시 연수구 용담로 115, 403호 (연수동, 파크타워)",C,0,"힘찬병원 맞은편, 아울렛 매장 4층에 위치",성모신경외과의원,032-819-8274,,1830,0930,1930,0930,1600,0930,1930,0930,1830,0930,1300,0900,,,,,37.415092556151116,126.6777824742422
"전라북도 전주시 덕진구 백제대로 686, 2층 (인후동2가)",C,0,,전주두사랑신경과의원,063-246-7001,,1800,0900,1800,0900,1800,0900,1800,0900,1800,0900,1300,0900,,,,,35.84371793512852,127.14438582500394
"경상남도 창원시 마산회원구 3·15대로 727 (합성동, 매디칼센타)",C,0,미래메디컬 3층,하사랑신경과의원,055-247-3031,,1830,0900,1830,0900,1830,0900,1300,0900,1830,0900,1300,0900,,,,,35.23724930063635,128.5812399940921
"전라북도 전주시 완산구 용머리로 62, 3층 (효자동1가)",C,0,안행교 사거리국민은행3층,하현주신경과의원,063-227-7989,,1800,0900,1800,0900,1230,0900,1800,0900,1800,0900,1230,0900,,,,,35.80635267781801,127.11696036738325
"경상남도 창원시 마산합포구 합포로 86-1 (오동동, 중앙신경외과의원)",C,0,하나병원 부근,중앙신경외과의원,055-241-8575,,1800,0900,1800,0900,1800,0900,1800,0900,1800,0900,1300,0900,,,,,35.206525,128.58018055555578
"경상남도 창원시 마산회원구 내서읍 호원로 180,",C,0,현대아파트 앞,지상휘신경외과의원,055-232-4044,,1830,0900,1830,0900,1830,0900,1830,0900,1830,0900,1300,0900,,,,,35.2500241002,128.5225171346
"인천광역시 연수구 앵고개로 256, 3층 301호 (동춘동, 웅지프라자)",C,0,,올바른신경외과의원,032-819-7775,,2000,1000,2000,1000,2000,1000,2000,1000,2000,1000,1530,0900,,,,,37.40783164720253,126.67201806532742
"인천광역시 연수구 앵고개로264번길 30-4, 영남프라자 (동춘동)",C,0,,연수성모신경외과의원,032-813-7505,,1830,0930,1930,0930,1600,0930,1930,0930,1830,0930,1300,0900,,,,,37.4068183654,126.6718236924
"충청북도 청주시 상당구 상당로 10, 5층 (서운동)",C,0,석교동 버스정류장 근처,변우규신경과의원,043-255-3375,,1730,0900,1730,0900,1300,0900,1730,0900,1730,0900,1300,0900,,,,,36.62759897697403,127.4911192278418
"전라북도 전주시 덕진구 안덕원로 139, 1,4층 (진북동)",C,0,모래내사거리 신협옆,도신경외과의원,063-273-0007,,1800,0900,1800,0900,1800,0900,1800,0900,1800,0900,1230,0900,,,,,35.832149999999999,127.143727777777784
경기도 안성시 장기로 24 (석정동),C,0,,서울신경외과의원,031-672-7497,,1930,0830,1930,0830,1930,0830,1930,0830,1930,0830,1400,0830,,,1300,0900,37.006536221167394,127.26676511448643
"전라북도 전주시 완산구 당산로 108, 3층 (서신동)",C,0,이마트정문 맞은편,이한샘신경과의원,063-276-8550,,1830,0900,1830,0900,1830,0900,1830,0900,1830,0900,1300,0900,,,,,35.83193810231537,127.1201842180285
전라북도 전주시 완산구 효자천변2길 6,C,0,효자동 서도프라자 옆,세인신경외과의원,063-220-6600,,1800,0900,1800,0900,1800,0900,1800,0900,1800,0900,1230,0900,,,,,35.80539419281804,127.11353468305204
전라북도 전주시 완산구 충경로 23 (중앙동1가),C,0,관통로 전북은행 충경로 지점 옆,신일균신경외과의원,063-284-7266,,1800,0830,1800,0830,1800,0830,1800,0830,1800,0830,1230,0830,,,,,35.81726448374548,127.14185926665252
전라북도 전주시 덕진구 건산로 222 (인후동1가),C,0,노동청사 맞은편에 위치,아중푸름신경외과의원,063-246-8700,,1830,0900,1830,0900,1830,0900,1830,0900,1830,0900,1230,0900,,,,,35.83370917438989,127.16159796088351
"부산광역시 동래구 아시아드대로 191, 사직동예일빌딩 1,2,5층 (사직동)",C,0,버스정류장: 사직1동 파출소부근/3호선 사직역 3번 출구,예일신경외과의원,051-501-2445,,1900,0900,1900,0900,1900,0900,1900,0900,1900,0900,1300,0900,,,,,35.201365535881166,129.0648774229922
"부산광역시 동래구 중앙대로 1325, 9층 902호 (온천동, 이센타워)",C,0,"1,4호선 동래역 1,7번출구",배지호신경과의원,051-714-3114,,1800,0900,1800,0900,1800,0900,1800,0900,1800,0900,1330,0900,,,,,35.2053096286,129.0775322273
부산광역시 동래구 충렬대로459번길 1 (안락동),C,0,버스정류장: 안락SK아파트,보람신경외과의원,051-525-8275,,1800,0900,1800,0900,1800,0900,1800,0900,1800,0900,1300,0900,,,,,35.19568577405223,129.10856573952446
"부산광역시 동래구 중앙대로 1523, SKHUBSKY 2층 B2-6,7,8,9,12,13,14,15호 (온천동)",C,0,1호선 온천장역 5번 출구,삼성스마트신경과의원,051-558-5898,,2000,0900,1800,0900,1800,0900,2000,0900,1800,0900,1400,0900,,,,,35.22129102114556,129.085578347718
"서울특별시 서대문구 충정로 13, 삼창빌딩 3층 (충정로3가)",C,0,,더나음신경외과의원,02-2088-7060,,1930,1000,1930,1000,1930,1000,1930,1000,1930,1000,1500,1000,,,,,37.5605691035,126.9626230724
"서울특별시 서대문구 통일로 448, 7층 (홍제동)",C,0,"홍제역 1,2번 출구",두드림신경과의원,02-379-0050,,1900,0900,1900,0900,1900,0900,1900,0900,1900,0900,1400,0900,,,,,37.58886760101127,126.9444568651997
충청북도 청주시 상당구 단재로 21-1 (석교동),C,0,금석교와 육거리 중간,김영태신경외과의원,043-258-0174,,1800,0830,1800,0830,1800,0830,1800,0830,1800,0830,1400,0830,,,1300,0830,36.626477701126305,127.49294825679303
충청북도 청주시 상당구 수영로 277  (금천동),C,0,,드림신경외과의원,043-221-7555,,1900,0900,1900,0900,1900,0900,1900,0900,1900,0900,1300,0900,,,,,36.629417750054344,127.50531176897957
충청북도 청주시 상당구 상당로 7-1 (남문로1가),C,0,,미래신경과의원,043-224-9933,,1800,0800,1800,0800,1800,0800,1800,0800,1800,0800,1500,0800,,,,,36.628972362766376,127.49110108264543
광주광역시 동구 남문로 774 (학동),C,0,남광주 지하철역 6번 출구,새한신경외과의원,062-221-7575,,1800,0800,1800,0800,1800,0800,1800,0800,1800,0800,1300,0800,1200,0800,1200,0800,35.138682592568536,126.92408972476414
"충청북도 제천시 청전대로 216, 2,4,7층 (장락동)",C,0,미림청솔아파트 맞은편,재림신경외과의원,043-645-7533,,1830,0900,1830,0900,1830,0900,1830,0900,1830,0900,1300,0900,,,1300,0900,37.15004866494013,128.21498528109947
"서울특별시 서대문구 통일로 464, 5층 (홍제동)",C,0,홍제역 1번 출구,자인신경외과의원,02-391-2100,,1900,0900,1900,0900,1900,0900,1900,0900,1900,0900,1400,0900,,,,,37.58996261901124,126.94321962805891
"인천광역시 미추홀구 숙골로 59 (도화동, 지하1층, 1층, 3층, 4층)",C,0,,도화신경외과의원,032-888-4975,,2100,0900,2100,0900,2100,0900,2100,0900,2100,0900,1400,0900,,,1200,0900,37.46799620796467,126.66509502531612
"인천광역시 미추홀구 인하로 301, 지1,1,2층 (주안동)",C,0,쌍용아파트 정문 맞은편,두리신경외과의원,032-438-6313,,1730,0900,1730,0900,1730,0900,1730,0900,1730,0900,1230,0900,,,1230,0900,37.44814774505551,126.68167298867428
인천광역시 미추홀구 경인로 479 (주안동),C,0,석바위사거리 외환은행방향200M,박상덕신경외과의원,032-438-5401,,1800,0900,1800,0900,1800,0900,1800,0900,1800,0900,,,,,,,37.4593170369181,126.69270803294282
"경기도 김포시 김포한강4로 507, 7층 707호 (구래동, M스퀘어)",C,0,,믿음신경외과의원,031-989-0079,,1900,0900,2030,0900,1900,0900,2030,0900,1900,0900,1500,0900,,,,,37.6461181144418,126.62753451337121
"서울특별시 광진구 구의강변로 106 (구의동,삼성쉐르빌 2층)",C,0,구의삼성쉐프빌 2층,임성준신경외과의원,02-454-5788,,1900,0900,1900,0900,1900,0900,1900,0900,1900,0900,1400,0900,,,,,37.54000374582926,127.09480624221902
"인천광역시 남동구 청능대로 581, 401호 (논현동, 광성프라자)",C,0,"논현역 4번출구, 논현홈플러스 대각선",논현신경과의원,032-438-8275,,1900,0900,1900,0900,1900,0900,1900,0900,1900,0900,1500,0900,,,,,37.401262204011616,126.72358967357086
인천광역시 미추홀구 한나루로 411 (학익동),C,0,"학익시장 맞은편, 부영약국2층",정항재신경과의원,032-872-9200,,1830,0830,1830,0830,1830,0830,1830,0830,1830,0830,1300,0900,,,,,37.44440770299277,126.66506460840378
"인천광역시 남동구 남동대로 892, 4층 (간석동, 일주빌딩)",C,0,올리브백화점근처,미래신경과의원,032-425-4666,,1830,0900,1830,0900,1300,0900,1830,0900,1830,0900,1300,0900,,,,,37.462085665425015,126.7086477914506
인천광역시 미추홀구 소성로 136 (학익동),C,0,학익사거리 동아풍림아파트 부근,탑신경외과의원,032-868-1119,,1830,0900,1830,0900,1830,0900,1830,0900,1830,0900,1300,0900,,,,,37.442952480329744,126.66364826643434
부산광역시 남구 수영로 168 (대연동),C,0,2호선 못골역 1번 출구쪽 ,고용호신경외과의원,051-636-4600,,1700,0930,1700,0930,1700,0930,1700,0930,1700,0930,,,,,,,35.134538888888905,129.08494722222372
"인천광역시 남동구 논고개로 87, 701호 (논현동, 논현메디스타워)",C,0,논현역 사거리 신한은행 건물,올바른신경외과의원,032-429-5038,,2000,1000,2000,1000,2000,1000,2000,1000,2000,1000,1530,0900,,,,,37.39907142364844,126.72533246852296
"인천광역시 남동구 성말로13번길 15, 302호,308호 (구월동, 메인프라자)",C,0,"롯데백화점맞은편, 미스터피자건물3층",장수찬신경외과의원,032-424-3114,,1900,0900,1900,0900,1900,0900,1900,0900,1900,0900,1500,0900,,,,,37.446266572419326,126.70180723640316
"인천광역시 남동구 인하로507번길 4, 2층 일부호 (구월동, 벽성빌딩)",C,0,"신세계백화점, 농수산물맞은편 외환은행건물",한양신경과의원,032-433-2116,,1900,0900,1900,0900,1900,0900,1900,0900,1900,0900,1400,0900,,,,,37.44338684188226,126.70318379912044
"경기도 김포시 김포한강4로 117, 704,705호 (장기동, 홍우프라자)",C,0,,아산신경외과의원,031-992-5000,,1730,0900,1730,0900,1730,0900,1730,0900,1730,0900,1300,0900,,,,,37.64417380771457,126.66797226126172
"부산광역시 해운대구 재반로 199, 3층 (반여동, 새아빌딩)",C,0,"버스정류장: 반여2, 3동 파출소/새아빌딩 3층",고려신경외과의원,051-532-0002,,1800,0900,1800,0900,1800,0900,1800,0900,1800,0900,1300,0900,,,,,35.19509684107768,129.1304667915859
"부산광역시 해운대구 마린시티2로 2, 601~603호 (우동, 마린파크)",C,0,버스정류장: 해운대소방서,마린시티신경과의원,051-864-2744,,1830,0900,1830,0900,1330,0900,1830,0900,1830,0900,1330,0900,,,1200,0900,35.1593269458,129.1442415779
"전라남도 광양시 중마중앙로 71-1, 1층 (중동)",C,0,,나성규신경과의원,061-791-0719,,1800,0830,1800,0830,1800,0830,1230,0830,1800,0830,1230,0830,,,,,34.93665447575517,127.69772026908796
"전라남도 광양시 광양읍 칠성로 56, 4,5층",C,0,백운마트 건너편,우리신경외과의원,061-761-7533,,1800,0830,1800,0830,1800,0830,1800,0830,1800,0830,1300,0830,,,,,34.978725784476566,127.58453436897993
"경기도 고양시 일산서구 중앙로 1564 (대화동, 그린월드 303,303-1,305호)",C,0,,황금철신경외과의원,031-914-0070,,1900,0900,1900,0900,1900,0900,1900,0900,1900,0900,1500,0900,,,,,37.67616969948307,126.74803162427443
"부산광역시 해운대구 좌동순환로 505, 7층 704호~708호 (중동)",C,0,2호선 중동역 7번출구,신세계신경외과의원,051-747-0651,,1800,0900,1800,0900,1800,0900,1800,0900,1800,0900,1300,0900,,,,,35.1656692568,129.1682257679
"부산광역시 해운대구 양운로 82, 해운대화인크리닉센타 5층 503호 (좌동)",C,0,2호선 장산역 10번 출구,임용빈신경과의원,051-701-9700,,1800,0900,1800,0900,1800,0900,1800,0900,1800,0900,1300,0900,,,,,35.17045766572705,129.17557413074658
부산광역시 해운대구 재반로12번길 27 (재송동),C,0,,박종권신경과의원,051-783-3770,,1830,1030,1800,1030,1800,1030,1830,1030,1800,1030,,,,,,,35.180758333333330,129.127499999999998
"부산광역시 해운대구 센텀2로 15 (우동, 센텀브라이언 5층,9층)",C,0,2호선 센텀시티역 8번출구,센텀척신경외과의원,051-743-1300,,1800,0900,1800,0900,1800,0900,1800,0900,1800,0900,1300,0900,,,,,35.167803139388404,129.13236456546832
부산광역시 해운대구 선수촌로 65-29 (반여동),C,0,버스정류장: 장산중학교 뒷편 삼해대림아파트앞,참신경외과의원,051-531-1119,,1930,0900,1930,0900,1930,0900,1930,0900,1930,0900,1500,0900,,,,,35.19980000000001,129.11726111111278
대구광역시 동구 아양로 56  (신암동),C,0,,가톨릭신경외과의원,053-941-3119,,1900,0900,1900,0900,1900,0900,1900,0900,1900,0900,1300,0900,,,1300,0900,35.88215313105198,128.62026236591572
"대구광역시 동구 안심로 359, 3층 (각산동)",C,0,,김민수신경외과의원,053-962-8787,,1830,0900,1830,0900,1830,0900,1830,0900,1830,0900,1400,0900,,,1300,0900,35.8680699529,128.7234982831
"대구광역시 동구 아양로 200, 4층 (효목동)",C,0,,김태완신경과의원,053-584-2005,,1730,0830,1730,0830,1730,0830,1730,0830,1730,0830,1300,0830,,,,,35.885494291848296,128.6349207846055
"대구광역시 동구 아양로 198, 2층 (효목동)",C,0,,도현철신경과의원,053-957-7001,,1800,0900,1800,0900,1230,0900,1800,0900,1800,0900,1230,0900,,,,,35.885594116256726,128.63473680053127
대구광역시 동구 반야월로 229 (동호동),C,0,,동대구스마일신경과의원,053-964-0011,,1830,0930,1830,0930,1830,0930,1830,0930,1830,0930,1300,0930,,,,,35.8722458803,128.7135402193
"서울특별시 노원구 노해로 452, 401호,402호 (상계동)",C,0,"7호선 수락산역 4번출구,5번출구사이 ",수락신경외과의원,02-3392-4582,,1800,0900,1800,0900,1800,0900,1800,0900,1800,0900,,,,,,,37.6535030508,127.0584242925
"서울특별시 노원구 동일로 1417, 삼양빌딩 3층 (상계동)",C,0,,맑은머리신경과의원,02-939-2075,,1800,0900,1800,0900,1800,0900,1800,0900,1800,0900,1300,0900,,,,,37.655069979258194,127.05998033062788
"서울특별시 노원구 동일로 1548, 2층 (상계동, 세일빌딩)",C,0,,양우석신경과의원,02-936-9933,,1900,0900,1900,0900,1900,0900,1900,0900,1900,0900,1400,0900,,,,,37.66663256972252,127.05757887172302
"서울특별시 노원구 한글비석로24길 63, 중앙의원 (상계동)",C,0,상계역 3번출구 GS25 건물 2층,미래신경과의원,02-939-1115,,1830,0900,1830,0900,1830,0900,1830,0900,1830,0900,1300,0900,,,,,37.66316755481571,127.07351019910419
"서울특별시 노원구 동일로 1371, 302호 (상계동, 현대프라자빌딩)",C,0,,박상근신경외과의원,02-930-4942,,1830,0930,1830,0930,1830,0930,1830,0930,1830,0930,1330,0930,,,,,37.6509536968,127.0611373974
"경기도 부천시 상동로 113 , 302호,303호 (상동)",C,0,영광사거리 농협건물3층,패밀리신경외과의원,032-327-5916,,1900,0900,1900,0900,1900,0900,1900,0900,1900,0900,1300,0900,,,,,37.5075066926406,126.75313705013512
"경기도 부천시 길주로 237, 303호,305호 (중동, 중동메디칼)",C,0,,해맑은신경과의원,032-721-7550,,1900,0900,1900,0900,1900,0900,1900,0900,1900,0900,1400,0900,,,,,37.5045085937,126.7689396502
"대구광역시 동구 안심로 106, 201호,202호,403호 (율하동)",C,0,,등푸른연합신경외과의원,053-965-7588,,1830,0900,1830,0900,1830,0900,1300,0900,1830,0900,1300,0900,,,,,35.8670095541,128.6962012428
"대구광역시 동구 동촌로 281, 1,2층 (방촌동)",C,0,,버드나무신경외과의원,053-983-7582,,1800,0900,1800,0900,1800,0900,1800,0900,1800,0900,1300,0900,,,,,35.879846972284724,128.670879420584
대구광역시 동구 아양로 167 (신암동),C,0,,제일신경외과의원,053-959-0551,,1830,0900,1830,0900,1830,0900,1830,0900,1830,0900,1300,0900,,,1300,0900,35.885777777777776,128.631349999999998
대구광역시 동구 반야월로 63 (용계동),C,0,,한국신경외과의원,053-964-3337,,1800,0900,1800,0900,1800,0900,1800,0900,1800,0900,1230,0900,,,1230,0900,35.873911884042144,128.69552024305952
경기도 안양시 만안구 박달로 531 (박달동),C,0,,늘편한신경외과의원,031-465-0119,,1830,0900,1830,0900,1830,0900,1830,0900,1830,0900,1500,0900,,,,,37.40276106198753,126.91182289713121
"경기도 부천시 부천로 81 (심곡동, 보림빌딩)",C,0,대성병원옆 버스정류장위 법무사무소건물7층,강남신경외과의원,032-614-7100,,1900,0900,1900,0900,2000,0900,1900,0900,1900,0900,1330,0900,,,,,37.49173949386828,126.7841493931516
"경기도 부천시 송내대로 38, 5층 (송내동)",C,0,송내역 남부 왼편에 있는 성심빌딩 2층,미래신경과의원,032-664-9944,,1900,0900,1900,0900,1900,0900,1900,0900,1900,0900,1330,0900,,,,,37.48702213178668,126.75379183499396
"경기도 부천시 중동로 48, 대우프라자 504호,505호 (송내동)",C,0,,반듯한신경외과의원,032-721-7522,,1900,0900,2000,0900,1900,0900,2000,0900,1900,0900,1400,0900,,,,,37.48436722386665,126.76422579308853
"경기도 부천시 길주로 183, 602호 (중동, 영라이프빌딩)",C,0,,부천뽀빠이신경과의원,032-327-8875,,1900,1000,1900,1000,1900,1000,1900,1000,1900,1000,1400,1000,,,,,37.50527881021124,126.76295668921155
"경기도 부천시 부천로 80 (심곡동, 201,202호)",C,0,"부천 대성병원 대각선 맞은편,건물2층에 위치.",부천신경내외의원,032-652-0488,,1800,0930,1800,0930,1800,0930,2000,0930,1800,0930,,,,,,,37.49139798938888,126.78463436352858
"충청남도 천안시 동남구 만남로 6, 8층 8001,8002,8003호 (신부동)",C,0,고속버스터미널건물 4층,도화범신경과의원,041-552-1050,,1830,0900,1830,0900,1830,0900,1830,0900,1830,0900,1300,0900,,,,,36.819193953446785,127.15443325919716
"경기도 부천시 소사로 188-1 (소사본동, 지상2층)",C,0,소사초교사거리,윤신경과의원,032-347-7544,,1900,0930,1900,0930,1900,0930,1900,0930,1900,0930,1330,0900,,,,,37.4750843277,126.7957783353
"경기도 성남시 분당구 내정로 167, 303호 (수내동, 양지프라임)",C,0,,JP신경외과의원,031-716-5288,,1900,0900,1900,0900,1900,0900,1900,0900,1900,0900,1300,0900,,,,,37.37389397327026,127.11915015169688
"대구광역시 수성구 달구벌대로 2401, 3층 (범어동)",C,0,,대구삼성신경과의원,053-753-5566,,1830,0930,1830,0930,1830,0930,1830,0930,1830,0930,1230,0930,,,,,35.85976461462525,128.62527918296485
"대구광역시 수성구 지범로 183, 403호 (지산동, 시티월드)",C,0,,동아신경외과의원,053-781-0770,,1900,0900,1900,0900,1400,0900,1900,0900,1900,0900,1300,0900,,,,,35.821513781346425,128.6396853896292
"경기도 부천시 오정로 226 (오정동, 2,3,4,5,6층)",C,0,OBS경인방송 건너편 국민은행 옆건물,튼튼신경외과의원,032-678-0005,,1900,0900,1900,0900,1900,0900,1900,0900,1900,0900,1400,0900,,,,,37.528101135717485,126.78456959269415
"경기도 성남시 분당구 미금로 48, 301호 (구미동, 오성프라자)",C,0,,구미신경외과의원,031-713-5602,,1900,0930,1900,0930,1900,0930,1900,0930,1900,0930,1500,0930,,,,,37.33775458540035,127.11650661377406
"경기도 성남시 분당구 돌마로 85, 동양프라자 301호 (금곡동)",C,0,,분당성모신경외과의원,031-712-8271,,1900,0930,1900,0930,1900,0930,1900,0930,1900,0930,1400,0930,,,,,37.3503883866,127.1113433842
"경기도 성남시 분당구 서현로210번길 20, 403호 (서현동, 코코프라자)",C,0,,노숙영앤유신경과의원,031-703-5558,,1800,0900,1800,0900,1800,0900,1800,0900,1800,0900,1300,0900,,,,,37.38585814980095,127.1240381009854
"대구광역시 수성구 화랑로 98, 바른등빌딩 3~5층 (만촌동)",C,0,,바른등신경외과의원,053-754-7575,,1800,0900,1800,0900,1800,0900,1800,0900,1800,0900,1300,0900,,,1300,0900,35.87244528362611,128.63761562299715
전라북도 완주군 삼례읍 삼례로 376,C,0,삼례 우석사거리,다나은신경외과의원,063-291-0008,,1730,0800,1730,0800,1730,0800,1730,0800,1730,0800,1230,0800,,,,,35.91091118686123,127.07257350734163
"대구광역시 수성구 달구벌대로 3083, 1층, 3층 (시지동)",C,0,,성주경신경외과의원,053-795-0100,,1830,0900,1830,0900,1830,0900,1830,0900,1830,0900,1300,0900,,,,,35.84340016608793,128.6943967349734
대구광역시 수성구 달구벌대로 3231 (신매동),C,0,,경산신경외과의원,053-794-0608,,1830,0900,1830,0900,1830,0900,1830,0900,1830,0900,1250,0900,,,,,35.83937334461424,128.7099542789308
대구광역시 수성구 청수로 194,C,0,,늘맑은신경과의원,053-762-1188,,1830,0900,1830,0900,1830,0900,1830,0900,1830,0900,1400,0900,,,1300,0900,35.838748049406675,128.62927378431755
충청남도 천안시 동남구 만남로 11,C,0,포스코 옆 건물 2층,홍성조신경외과의원,041-555-2578,,1850,0900,1850,0900,1850,0900,1850,0900,1850,0900,1400,0900,,,,,36.81904380431885,127.15346908246305
"경기도 성남시 분당구 성남대로 168, 304호 (금곡동, 미도프라자)",C,0,,로아신경과의원,031-718-6700,,1800,0900,1800,0900,1800,0900,1800,0900,1800,0900,1300,0900,,,,,37.35088748136273,127.10949312683758
"경상남도 통영시 무전대로 41, 201~401호 (무전동)",C,0,,DO두신경과의원,055-725-7979,,1800,0900,1800,0900,1800,0900,1800,0900,1800,0900,1300,0900,,,,,34.86040400949353,128.42519597962217
"경기도 부천시 중동로 244, 203~205호 (중동, 상록센트럴타워)",C,0,,앤(N)서울신경외과의원,032-326-6119,,1900,1000,1900,1000,1900,1000,1900,1000,1900,1000,1500,1000,,,,,37.50153550265819,126.76905285661802
"경기도 성남시 분당구 판교로255번길 9-22, 판교우림더블유시티 2층 218,223호 (삼평동)",C,0,,미라클신경외과의원,031-8023-5670,,1900,0930,1900,0930,1900,0930,1900,0930,1900,0930,1400,0930,,,,,37.40402381709999,127.1000920401
"경기도 부천시 상일로 100, 401호 (상동)",C,0,상1동 주민센터 맞은편 국민은행 옆 건물 4층,영동신경외과의원,032-324-8288,,1900,0900,1900,0900,1900,0900,1900,0900,1900,0900,1400,0830,,,,,37.49132584205516,126.75327172774409
"대전광역시 서구 도산로 45, 502호 (도마동)",C,0,도마사거리 엔제이 클리닉 5층,백낙천신경과의원,042-583-5969,,1800,0900,1800,0900,1800,0900,1800,0900,1800,0900,1300,0900,,,,,36.31268949809247,127.38031055206934
"대전광역시 서구 청사서로 10, 1층 (월평동)",C,0,무지개아파트 상가 맞은 편,선사신경외과의원,042-472-9975,,1830,0900,1830,0900,1830,0900,1830,0900,1830,0900,1300,0900,,,,,36.35867476744882,127.37689755620904
"서울특별시 구로구 디지털로34길 55, 코오롱싸이언스밸리2차 216호 (구로동)",C,0,"구로디지털단지역 2,3번 출구",강남삼성신경외과의원,02-866-1346,,1900,0730,1900,0730,1900,0730,1900,0730,1900,0730,1300,0730,,,,,37.48428563805346,126.89928088213493
"서울특별시 서초구 반포대로 300-3, 2층 (잠원동, 상화빌딩)",C,0,상화빌딩 2층,신동휘신경외과의원,02-533-6373,,1800,0900,1800,0900,1800,0900,1800,0900,1800,0900,1200,0900,,,,,37.505779733407074,127.00123503386518
"서울특별시 서초구 반포대로30길 81, 5층 501호 (서초동)",C,0,교대역 9번 출구,아나파신경과의원,02-6082-7582,,2100,0900,2100,0900,2100,0900,2100,0900,2100,0900,1600,0900,,,,,37.492827836563606,127.01287462646945
"서울특별시 서초구 서초중앙로 39, 6층 (서초동, 21세기병원)",C,0,,연세신경과의원,02-3472-8858,,1800,0900,1800,0900,1800,0900,1800,0900,1800,0900,1400,0900,,,,,37.48522132058115,127.0156801993091
"서울특별시 중랑구 면목로 415, 3층 (면목동)",C,0,면목역 롯데리아건물 3층,미래신경과의원,02-438-7582,,1830,0900,1830,0900,1830,0900,1830,0900,1830,0900,1400,0900,,,,,37.5890251303095,127.08709656013168
"서울특별시 관악구 은천로 110, 402-3호 (봉천동, WS타워)",C,0,현대시장사거리 인근,삼성신경외과의원,02-872-5454,,1900,0830,1900,0830,1900,0830,1900,0830,1900,0830,1400,0830,,,,,37.4866846869,126.9473502982
"서울특별시 관악구 신림로 137, 3층 (신림동)",C,0,조흥빌딩 3층,새힘신경외과의원,02-877-9119,,1900,0900,1900,0900,1900,0900,1900,0900,1900,0900,1330,0900,,,,,37.47115182272927,126.93405340447077
서울특별시 중랑구 망우로 238,C,0,중랑역 인근,박용신경외과의원,02-433-0881,,1800,0900,1800,0900,1800,0900,1800,0900,1800,0900,1300,0900,,,,,37.59444200398422,127.07911233593168
"서울특별시 중랑구 망우로 410, 삼부빌딩 2,4층 (망우동)",C,0,신내지하차도교차로 인근,서울척척신경외과의원,02-437-7501,,1900,0900,1900,0900,1900,0900,1900,0900,1900,0900,1500,0900,,,,,37.5989746596,127.0976122266
"서울특별시 중랑구 면목로 305, 2층 (면목동, 성일빌딩)",C,0,사가정역 3번출에서 중랑구민회관 방향으로 50m지점 이동하면 버스정류장앞 건물2층,성모척편한신경외과의원,02-2208-2119,,1900,0900,1900,0900,1900,0900,1900,0900,1900,0900,1600,0900,1300,0900,1300,0900,37.57969247842971,127.08748808663282
"서울특별시 서초구 효령로 360, 지하1층~4층 (서초동)",C,0,한국상담대학원대학교 옆,이익모신경외과의원,02-525-4600,,1800,0900,1800,0900,1800,0900,1800,0900,1800,0900,,,,,,,37.486784191347574,127.02341449308837
"서울특별시 중랑구 사가정로 389, KFC 4,5층 (면목동)",C,0,,확실한신경외과의원,02-435-7582,,1900,0900,1900,0900,1900,0900,1900,0900,1900,0900,1400,0900,,,,,37.5809407239,127.0880381216
"강원도 춘천시 중앙로 59, 4.5층 (중앙로2가)",C,0,"명동입구 동양증권빌딩 3,4층",다나신경외과의원,033-253-6700,,1830,0830,1830,0830,1830,0830,1830,0830,1830,0830,1300,0830,,,,,37.87970212402289,127.72721831378924
강원도 춘천시 후석로 22 (석사동),C,0,석사동 국민은행 옆건물,배재천신경과의원,033-261-3710,,1730,0900,1730,0900,1700,0900,1730,0900,1730,0900,1230,0900,,,,,37.856731136797315,127.74024379585765
"강원도 춘천시 중앙로 136, 2층 (소양로4가)",C,0,,삼성신경외과의원,033-251-3227,,1800,0900,1800,0900,1800,0900,1800,0900,1800,0900,1400,0900,,,,,37.876134896,127.7201090455
강원도 춘천시 낙원길 39-1 (낙원동),C,0,춘천 관광호텔 옆,신해철신경외과의원,033-254-2664,,1730,0830,1730,0830,1730,0830,1300,0830,1730,0830,1300,0830,,,,,37.87991744162458,127.72619743920315
"강원도 춘천시 보안길 65, 501호 (후평동, 엠타워빌딩)",C,0,포스코아파트 근처 신한은행 5층,연세이상무신경과의원,033-252-9606,,1800,0900,1800,0900,1800,0900,1800,0900,1800,0900,1230,0900,,,,,37.88006687777229,127.75022471036934
"서울특별시 관악구 신림로 340, 르네상스복합쇼핑몰 3층 (신림동)",C,0,,강남삼성신경외과의원,02-878-5930,,2100,0900,2100,0900,2100,0900,2100,0900,2100,0900,1300,0900,,,,,37.484761997669814,126.93009767946334
"전라남도 목포시 영산로 246-1, 1,2층 (산정동)",C,0,,박종선신경외과의원,061-274-7582,,1800,0900,1800,0900,1800,0900,1800,0900,1800,0900,1240,0900,,,1250,0900,34.80272999168608,126.39345452642533
"서울특별시 관악구 난곡로 316, 2층 (신림동, 진성타워 )",C,0,난곡사거리 인근,엄창수신경외과의원,02-862-4208,,2100,0900,2100,0900,2100,0900,2100,0900,2100,0900,1600,0900,,,,,37.4821678191,126.9147371349
충청남도 논산시 중앙로 459 (반월동),C,0,신한은행근처,서울신경과의원,041-733-8484,,1730,0830,1730,0830,1730,0830,1730,0830,1730,0830,1230,0830,,,,,36.20412730956583,127.08502482651996
충청남도 논산시 강경읍 계백로153번길 5,C,0,논산경찰서 옆 ,연합신경외과의원,041-745-0119,,1800,0830,1800,0830,1800,0830,1800,0830,1800,0830,1300,0830,,,,,36.15781937270895,127.01680824001983
"서울특별시 관악구 남부순환로 1952, 6층 (봉천동)",C,0,낙성대역 1번출구 사당가는 방면 70m가면 고려정형외과 건물 6층,미래드림신경과의원,02-875-7507,,2000,1000,1900,1000,2000,1000,1900,1000,2000,1000,1400,0930,,,,,37.47594780043532,126.96567247561053
충청남도 논산시 계백로 992 (취암동),C,0,시외버스터미널옆,제일신경외과의원,041-733-8275,,1800,0900,1800,0900,1800,0900,1800,0900,1800,0900,1300,0900,,,,,36.20278806786857,127.08765647663671
"서울특별시 관악구 남부순환로 1761, 3층 (봉천동, 서원빌딩)",C,0,,바른성모신경외과의원,02-854-8275,,1830,0900,1830,0900,1830,0900,1830,0900,1830,0900,1300,0900,,,,,37.4822439024,126.9459876153
"부산광역시 동구 중앙대로 193, 4층 (초량동, 마린리더스타워)",C,0,1호선 초량역 2번출구,센텀신경외과의원,051-466-0002,,1800,0900,1800,0900,1800,0900,1800,0900,1800,0900,1300,0900,,,,,35.11762018943916,129.04145223126932
"부산광역시 동구 중앙대로 521-1, (범일동)",C,0,한성기린 APT 맞은편,양승열신경외과의원,051-646-6835,,1800,0900,1800,0900,1800,0900,1800,0900,1800,0900,1300,0900,,,,,35.13976111111113,129.05617222222358
전라남도 목포시 수문로 8 (대안동),C,0,,세련신경과의원,061-242-5559,,1730,0900,1730,0900,1730,0900,1730,0900,1730,0900,1200,0900,,,1200,0900,34.79162970076437,126.38522459309432
"전라남도 목포시 용해지구로 11, 3층 (용해동)",C,0,,아름신경외과의원,061-274-0604,,1830,0840,1830,0840,1830,0840,1830,0840,1830,0840,1230,0840,,,1230,0840,34.81696929877247,126.39812596937601
전라남도 목포시 옥암로 101 (상동),C,0,포르모상가와 이마트 사이에 있습니다.,연세신경외과의원,061-283-4300,,1900,0900,1900,0900,1900,0900,1900,0900,1900,0900,1500,0900,,,,,34.807988704633786,126.42587354325994
전라남도 목포시 영산로 333 (용당동),C,0,,우림신경외과의원,061-272-3737,,1800,0900,1800,0900,1800,0900,1800,0900,1800,0900,1230,0900,,,1230,0900,34.806145867051356,126.40188535000814
"전라남도 목포시 영산로 515, 2층 (상동)",C,0,*목포터미널 부근 (종로약국 옆),이성민신경과의원,061-279-5500,,1800,0800,1800,0830,1800,0830,1300,0830,1800,0830,1300,0830,,,,,34.81165625021119,126.4177146381228
경상남도 김해시 진례면 송현로 12,C,0,진례우체국 근처,부경신경과의원,055-345-6727,,1830,0900,1830,0900,1830,0900,1830,0900,1830,0900,1300,0900,,,,,35.248716666666667,128.749474999999990
"경상남도 김해시 금관대로 1294, 3,4층 (내동)",C,0,내동파출소 건너편,바른등신경외과의원,055-324-0707,,1900,0900,1900,0900,1900,0900,1900,0900,1900,0900,1300,0900,,,,,35.23960726341488,128.86147058180902
"경상남도 김해시 내외중앙로 57, 401호 (내동)",C,0,,새찬신경외과의원,055-338-6993,,1900,0900,1900,0900,1900,0900,1900,0900,1900,0900,1300,0900,,,,,35.23524364399419,128.86645147752205
경상남도 김해시 구산로 31  (구산동),C,0,현대병원 근처,우리신경외과의원,055-332-0076,,1700,0900,1700,0900,1700,0900,1700,0900,1700,0900,1700,0900,,,,,35.24902808144527,128.87211779892561
"경상남도 김해시 장유로 262, 2층 (부곡동)",C,0,장유면사무소 맞은편,이문태신경외과의원,055-313-2235,,1830,0900,1830,0900,1830,0900,1300,0900,1830,0900,1400,0900,,,,,35.20144599749356,128.81160197846302
"경기도 오산시 경기대로 154, 3층 (원동, 랜드웨딩문화원뷔패)",C,0,,고신경외과의원,031-374-2449,,1900,0900,1900,0900,1900,0900,1900,0900,1900,0900,1300,0900,,,,,37.13852603249273,127.07384518671681
"경기도 오산시 대원로 6, 4층 (원동, 역전빌딩)",C,0,오산터미널 앞에 국민은행 바로 맞은 편.,오즈신경과의원,031-375-0777,,1800,0900,1800,0900,2000,0900,1800,1400,1800,0900,1330,0900,,,,,37.146282781500155,127.06892100226409
"서울특별시 성동구 성덕정길 106, 2층 (성수동2가)",C,0,다이소 성수2가점 건물,늘푸른신경외과의원,02-499-6536,,1900,0900,1900,0900,1900,0900,1900,0900,1900,0900,1400,0900,,,,,37.537157821452276,127.05510648552253
"서울특별시 성동구 아차산로 120, 5,6층 (성수동2가, 베델플레이스)",C,0,성수역 3번 출구,마스터신경외과의원,02-461-8275,,1830,0930,2000,0930,1830,0930,2000,0930,1830,0930,1400,0930,,,,,37.5439107083,127.0572252079
"서울특별시 성동구 고산자로 234, 4층 (행당동)",C,0,,미래신경과의원,02-3395-8275,,1830,0930,1830,0930,1300,0930,1830,0930,1830,0930,1400,0900,,,,,37.56056253476294,127.03528535844184
"경기도 양주시 회천남로 88, M타워 503호 (옥정동)",C,0,,늘편한 신경과의원,031-858-7321,,1830,0830,1830,0830,1830,0830,1830,0830,1830,0830,1330,0830,,,1330,0830,37.8185494819,127.0927943722
"서울특별시 성동구 독서당로 278, B1, 1, 3층 (금호동4가)",C,0,,서울신경외과의원,02-2282-3119,,1800,0900,1800,0900,1800,0900,1800,0900,1800,0900,1200,0900,,,,,37.54713038976275,127.02025127439303
경기도 의왕시 사천2길 12 (왕곡동),C,0,,성모신경외과의원,031-457-0660,,1900,0800,1900,0800,1900,0800,1900,0800,1900,0800,1600,0800,1300,0900,1300,0900,37.34600162873793,126.97573547550564
서울특별시 성동구 독서당로 223,C,0,,이종문신경과의원,02-2281-4342,,1830,0900,1830,0900,1830,0900,1830,0900,1830,0900,1300,0900,,,,,37.544418597788194,127.0154035582766
인천광역시 부평구 부평대로 109-1 (부평동),C,0,부평중앙병원 근처 백마장 입구 인근,인강신경외과의원,032-5196-2767,,1830,0900,1830,0900,1830,0900,1830,0900,1830,0900,1300,0900,,,,,37.5012526709,126.7214604197
"부산광역시 북구 효열로 228, (금곡동)",C,0,버스정류장:금곡주공3단지,오엔케이신경외과의원,051-363-9901,,1800,0900,1800,0900,1800,0900,1800,0900,1800,0900,1200,0900,,,,,35.26406469380359,129.0200688106281
"부산광역시 북구 만덕대로 22, 4층 (덕천동)",C,0,"2,3호선 덕천역 4,9번 출구/드림메디컬빌딩 4층",온누리신경과의원,051-338-8275,,1810,1000,2000,1000,1810,1000,1810,1000,1810,1000,1300,1000,,,,,35.21037180091693,129.0075709054646
"경기도 화성시 향남읍 발안로 111, 3층",C,0,,더바른신경외과의원,031-354-7599,,1900,0900,1900,0900,1900,0900,1900,0900,1900,0900,1400,0900,,,,,37.13168499187063,126.92277111265207
"경기도 화성시 동탄순환대로 706, 501.502.503.504호 (영천동, 서건에듀프라자)",C,0,,바로본신경외과의원,031-8050-8579,,2000,1000,2000,1000,2000,1000,2000,1000,2000,1000,1500,0900,,,,,37.20781221773317,127.11059283707249
"경기도 화성시 동탄대로 495, 407~409호 (오산동)",C,0,,신나는신경외과의원,031-377-7815,,2000,1000,2000,1000,2000,1000,2000,1000,2000,1000,1400,0900,,,,,37.19795119177797,127.0982378935308
"인천광역시 부평구 마장로 314 (산곡동, 5층일부)",C,0,롯데마트 주변 새봄산부인과 옆 건물 5층. ,중앙신경외과의원,032-507-9800,,1830,0900,1830,0900,1830,0900,1830,0900,1830,0900,,,,,,,37.506066666666669,126.703563888888894
"인천광역시 부평구 원적로 434, 5층 (산곡동, 혜성프라자)",C,0,원길 삼거리 인근,편한성모신경외과의원,032-715-4166,,1900,0900,1900,0900,1900,0900,1900,0900,1900,0900,1400,0900,,,,,37.503319434108214,126.71460827662274
인천광역시 부평구 경원대로 1436 (부평동),C,0,굴다리오거리 버스정류장 주변 하나로약국 건물 2층.,푸른솔신경과의원,032-518-3080,,1830,0900,1830,0900,1830,0900,1830,0900,1830,0900,1300,0900,,,,,37.49086426906696,126.72850517890867
"대구광역시 달서구 도원로 19, 4층 (도원동)",C,0,,편안한마디연합신경외과의원,053-632-1006,,1900,0900,1900,0900,1900,0900,1900,0900,1900,0900,1400,0900,,,,,35.80793233677308,128.53608680281928
인천광역시 부평구 평천로 402 (삼산동),C,0,"삼산사거리 농수산물방향으로200M 우측, 삼산중 앞 건물 2층",바른신경외과의원,032-523-7585,,1900,0900,1900,0900,1900,0900,1900,0900,1900,0900,1500,0900,,,1300,0900,37.5171284529111,126.73495158518308
인천광역시 부평구 부평문화로 61 (부평동),C,0,"부평문화의거리입구 금강제화, 명신당 옆건물 3층",방성우신경과의원,032-526-0012,,1730,0930,1730,0930,1730,0930,1730,0930,1730,0930,,,,,,,37.49408844148709,126.72323187876046
"충청남도 천안시 서북구 충무로 175, 2층 (쌍용동)",C,0,이마트맞은편 던킨도너츠건물 3층,두신경과의원,041-578-0502,,1800,0900,1800,0900,1800,0900,1800,0900,1800,0900,1300,0900,,,1130,0900,36.79426189387999,127.12697803031955
경기도 화성시 향남읍 행정중앙2로 63-3 (백상프라자 202호 304호),C,0,,연세정답신경외과  의원,031-359-8825,,1800,0900,1800,0900,1800,0900,1800,0900,1800,0900,1300,0900,,,,,37.129864293,126.9219266886
"경기도 화성시 동탄순환대로 715, 501-504호 (영천동, 스타프라자)",C,0,,팔팔신경외과의원,031-8055-8184,,2000,1000,2000,1000,2000,1000,2000,1000,2000,1000,1400,0900,,,,,37.208022627599995,127.1091196508
충청남도 천안시 서북구 불당대로 260,C,0,한라동백아파트 앞 하이렉스파 사우나건물 4층,이규신경외과의원,041-575-8004,,1800,0900,1800,0900,1300,0900,1800,0900,1800,0900,1300,0900,,,,,36.79974317479987,127.1245308186723
"충청남도 천안시 서북구 불당21로 71, 402호 (불당동)",C,0,,이앤오신경과의원,0415222501,,1800,0900,1800,0900,1800,0900,1800,0900,1800,0900,1400,0900,,,,,36.81296464048112,127.10817531137911
"충청남도 천안시 서북구 충무로 205, 4층 (쌍용동, 다선빌딩)",C,0,국민은행 맞은편,찬스신경과의원,041-415-2235,,1900,0900,1900,0900,2100,0900,1900,0900,1900,0900,1300,0900,,,,,36.79666640901221,127.12880491006378
"충청남도 홍성군 홍성읍 조양로 166, 선일빌딩 2층",C,0,,배상우젊은신경과의원,041-633-7878,,1730,0830,1730,0830,1730,0830,1730,0830,1730,0830,1300,0830,,,,,36.6009674599,126.6682283335
"광주광역시 동구 중앙로 229, 2,3층 (대인동)",C,0,,우리신경외과의원,062-225-7585,,1800,0830,1800,0830,1800,0830,1800,0830,1800,0830,1800,0830,,,,,35.15286858463769,126.91841541477305
"충청남도 홍성군 홍성읍 내포로 12, 3층",C,0,외환은행건물3층,편한허리신경외과의원,041-635-0885,,1830,0830,1830,0830,1830,0830,1830,0830,1830,0830,1300,0800,,,,,36.600615308796605,126.66603929738468
광주광역시 남구 대남대로 262 (백운동),C,0,동아병원과 신우아파트사이에 주월주택단지 버스정차,오민석신경외과의원,062-670-8800,,1800,0900,1800,0900,1230,0900,1800,0900,1800,0900,1230,0900,,,,,35.1361900026378,126.89814859190689
광주광역시 남구 서문대로650번길 8 (진월동),C,0,구차정형외과 자리,친절한신경외과의원,062-672-9177,,1830,0830,1830,0830,1830,0830,1230,0830,1830,0830,1300,0830,,,,,35.11704458246933,126.89898678366082
"광주광역시 남구 경열로 84, 2층 (월산동)",C,0,,광주신경외과의원,062-363-0291,,1800,0900,1800,0900,1300,0900,1800,0900,1800,0900,1300,0900,,,,,35.151472222222225,126.895375000000001
"광주광역시 남구 서문대로701번길 2, 4층 (진월동, 넥스타워)",C,0,넥스타워 4층,하나로신경과의원,062-672-6060,,1730,0900,1730,0900,1730,0900,1230,0900,1730,0900,1230,0900,,,,,35.12221042309488,126.89809828150334
"광주광역시 남구 용대로 208, 2층 201호 (방림동)",C,0,,홍상훈신경과의원,062-716-7396,,1800,0900,1800,0900,1800,0900,1800,0900,1800,0900,1230,0900,,,,,35.134758871103685,126.91737828126348
"광주광역시 남구 봉선로25번길 4, 5층 (주월동)",C,0,,문신경외과의원,062-719-3080,,1830,0900,1830,0900,1700,0900,1830,0900,1830,0900,1300,0900,,,,,35.1308403011,126.9034963157
"경기도 광명시 광명로 823, 6층 601,602호 (광명동, 현대타운)",C,0,,우리신경외과의원,02-6335-0870,,2000,0900,2000,0900,2000,0900,2000,0900,2000,0900,1500,0900,,,,,37.47294673602026,126.85096548603397
"경기도 광명시 하안로 200, 2층 203-204호 (소하동, 스페이스B/D)",C,0,스페이스B/D 2층 203-204호.,제일신경외과의원,02-807-0075,,1900,0900,1900,0900,1900,0900,1900,0900,1900,0900,1300,0900,,,,,37.45504902804016,126.88666167406448
경상북도 구미시 인동중앙로 24 (인의동),C,0,,제일신경외과의원,054-471-0911,,1900,0900,1900,0900,1900,0900,1900,0900,1900,0900,1300,0900,,,1300,0900,36.10723386075672,128.42163930817733
경상북도 경주시 안강읍 안강중앙로 234,C,0,,안강미래연합신경외과의원,054-763-7400,,1800,0830,1800,0830,1800,0830,1800,0830,1800,0830,1300,0830,,,,,35.99190687068155,129.225628349343
경상북도 경주시 건천읍 단석로 1593-9 (건천읍) ,D,0,,신경주요양병원,054-624-2000,,1720,0900,1720,0900,1720,0900,1720,0900,1720,0900,1220,0900,,,,,35.82256545593444,129.07316524401057
"제주특별자치도 서귀포시 중앙로 86 (서귀동, 동산프라자약국)",C,0,,삼성신경외과의원,064-732-8575,,1830,0830,1830,0830,1830,0830,1830,0830,1830,0830,1230,0830,,,,,33.25227117948724,126.56131948059256
"서울특별시 서초구 방배로 84, 유성빌딩 6층 (방배동)",C,0,,헤세드신경외과의원,02-597-0153,,1900,0900,1900,0900,1900,0900,1800,0900,1900,0900,1400,0900,,,,,37.48198952593394,126.99764377810105
"서울특별시 서초구 동작대로 118, (방배동)",C,0,총신대입구역 2번출구 방배예다인빌딩 501호,흐린뒤맑음신경과의원,02-522-8275,,1800,0930,1800,0930,1800,0930,1800,0930,1800,0930,1500,0930,,,,,37.4870051048,126.9827455136
"서울특별시 은평구 서오릉로 168, 2층 (갈현동)",C,0,"구산역 4번출구, 은평구 건강가정지원센터 옆",우리신경외과의원,02-352-8263,,1800,0900,1800,0900,1800,0900,1800,0900,1800,0900,1400,0900,,,,,37.61286680143028,126.9149143476543
전라남도 여수시 신월로 786-3 (봉강동),C,0,교보생명빌딩 신월동방향으로 100m,세일신경외과의원,061-642-7575,,1830,0900,1830,0900,1830,0900,1830,0900,1830,0900,1300,0900,,,1300,0900,34.73874026141383,127.7252601968016
"서울특별시 은평구 연서로 252, 세종빌딩 4층 (불광동)",C,0,,히로신경외과의원,02-388-2500,,1900,0900,1900,0900,1800,0900,1800,0900,1900,0900,1400,0900,,,,,37.619456726757655,126.92292182284363
"서울특별시 은평구 불광로 15, 3층 (대조동)",C,0,,바로편한신경외과의원,02-356-2655,,1900,0900,1900,0900,1900,0900,1900,0900,1900,0900,1400,0900,,,,,37.6099562431,126.927892236
"서울특별시 은평구 진관3로 20, 3층 (진관동, sw메디컬빌딩 )",C,0,구파발역 1번 출구 인근,삼성바른신경외과의원,02-386-8788,,1830,0930,1830,0930,1830,0930,1830,0930,1830,0930,1400,0900,,,,,37.6389153285,126.9188954432
"서울특별시 은평구 수색로 256, 3층 (수색동)",C,0,수색역 삼거리 수색마트 3층,수색신경외과의원,02-305-4463,,1800,0900,1800,0900,1800,0900,1800,0900,1800,0900,1400,0900,,,,,37.58206967178308,126.89603453460953
"경기도 안양시 동안구 동안로 128, 4층 (호계동, 신포빌딩)",C,0,,평촌범계바른신경외과의원,031-381-8572,,1900,0900,1900,0900,2100,0900,1900,0900,1900,0900,1500,0900,,,,,37.3903464034,126.95178115589998
세종특별자치시 조치원읍 새내로 132,C,0,조치원읍 교리,김형기신경외과의원,044-868-7574,,1900,0900,1900,0900,1900,0900,1900,0900,1900,0900,1400,0900,,,,,36.6036843804,127.2980118044
"세종특별자치시 한누리대로 249, 408~410호 (나성동, 에스제이타워)",C,0,나성동,두미소신경과의원,044-867-6119,,1800,0900,1800,0900,1800,0900,1800,0900,1800,0900,1400,0900,,,,,36.4863928542554,127.2576159638217
"세종특별자치시 나성북로 9, 701,702호 (나성동, 메가타워1)",C,0,나성동,서울아산신경외과의원,044-868-5288,,1800,0930,1800,0930,1800,0930,1800,0930,1800,0930,1330,0930,,,,,36.489649385,127.2578481853
세종특별자치시 조치원읍 새내로 75,C,0,조치원읍 정리,연세신경외과의원,044-865-2116,,1830,0830,1830,0830,1830,0830,1830,0830,1830,0830,1300,0830,,,,,36.5985444311803,127.29846073627962
강원도 강릉시 주문진읍 주문로 77,C,0,주문진시장약국 2층,연세신경외과의원,033-662-2931,,1730,0830,1730,0830,1230,0830,1730,0830,1730,0830,1230,0830,,,,,37.8908253018957,128.8257784024154
"강원도 강릉시 경강로 2120, 5층 512호 (옥천동)",C,0,옥천동 홈플러스 5층 512호,세란신경과의원,033-641-7119,,1740,0900,1740,0900,1230,0900,1740,0900,1740,0900,1230,0900,,,,,37.75572308501845,128.89868764102863
"강원도 강릉시 옥가로 21, 2층 (옥천동)",C,0,,임수빈신경과의원,033-646-5522,,1800,0900,1800,0900,1800,0900,1800,0900,1800,0900,1300,0900,,,,,37.75834659278987,128.8990065905436
강원도 강릉시 경강로 2093,C,0,신영빌딩 건너편 강림약국 옆 2층,장신경과의원,033-641-2717,,1730,0900,1730,0900,1730,0900,1730,0900,1730,0900,1200,0900,,,,,37.75470369324717,128.8958405877384
"경기도 안양시 동안구 시민대로 187, 401,402호 (비산동, 안양건설타워)",C,0,,더우리들신경외과의원,031-440-9006,,2100,0900,1900,0900,2100,0900,1900,0900,1900,0900,1400,0900,,,,,37.391784429711926,126.95176668363071
"경기도 안양시 동안구 관악대로 91, 4층 (비산동)",C,0,대림타워 4층,서울신경외과의원,031-449-9119,,1830,0900,1830,0900,1830,0900,1830,0900,1830,0900,1500,0900,,,,,37.398963856439714,126.93408934015565
"대전광역시 서구 문예로 69, 6층 (둔산동)",C,0,크로바 아파트 104동 맞은편 4층,두리신경외과의원,042-472-7511,,1900,0900,1900,0900,1900,0900,1900,0900,1900,0900,1300,0900,,,,,36.35289809233202,127.38986423410408
"대전광역시 서구 대덕대로 244, 건국타워 703,704호 (둔산동)",C,0,대전시청7번출구,디에이치안광병신경과의원,042-486-8100,,1800,0900,1800,0900,1800,0900,1430,0900,1800,0900,1300,0900,,,,,36.35451600208488,127.37997914572401
"대전광역시 서구 둔산남로 107, 9층 (둔산동)",C,0,우리은행 옆건물 3층,라파엘신경과의원,042-488-8204,,1830,0900,1830,0900,1830,0900,1830,0900,1830,0900,1400,0900,,,,,36.34928731875829,127.38951648155624
"대전광역시 서구 동서대로 1147, 3층 (가장동, 온누리클리닉)",C,0,온누리클리닉3층,류태희신경외과의원,042-366-7775,,1800,0900,1800,0900,1800,0900,1800,0900,1800,0900,1300,0900,,,,,36.32803207754771,127.38788264126879
"대전광역시 서구 문예로 65, 5층 (둔산동)",C,0,크로바아파트 103동 맞은편,박상철신경과의원,042-485-7669,,1800,0900,1800,0900,1800,0900,1800,0900,1800,0900,1500,0900,,,,,36.35255922183432,127.38986701854983
"경기도 성남시 중원구 은이로5번길 1, 3층.4층 (은행동)",C,0,,허리편한신경외과의원,031-731-8733,,1830,0900,1830,0900,1830,0900,1830,0900,1830,0900,1400,0900,,,,,37.45794738162126,127.16481484154087
"경기도 성남시 중원구 산성대로 268, 2~7층.9층 (중앙동, 홍익빌딩)",C,0,,홍익신경외과의원,031-745-3400,,1800,0900,1800,0900,1800,0900,1800,0900,1800,0900,1600,0900,,,,,37.440267666879215,127.14708936764478
대전광역시 동구 대전로 307,C,0,대성동 삼거리,중앙신경외과의원,042-284-0700,,1830,0900,1830,0900,1830,0900,1830,0900,1830,0900,1300,0900,,,,,36.29528041969412,127.46031281334243
"대전광역시 동구 동서대로 1661, 1층 (용전동)",C,0,,한동균신경과의원,042-710-7582,,1900,0930,1900,0930,1900,0930,1900,0930,1900,0930,1300,0930,,,,,36.3486067595,127.4342739673
"대전광역시 동구 대전로 822, 2층 (정동)",C,0,,해켓신경외과의원,042-710-8850,,1800,0900,1800,0900,1800,0900,1800,0900,1800,0900,1300,0900,,,,,36.3327608332,127.4321945597
"대전광역시 동구 곤룡로 6, 1,2층 (낭월동)",C,0,산내초등학교근처 산내클리닉2층,마디신경외과의원,042-271-7008,,1800,0840,1800,0840,1800,0840,1700,0840,1800,0840,1300,0840,,,,,36.27989743095939,127.46861512299503
충청남도 아산시 온천대로 1488,C,0,온양온천역 앞 명빌딩 까페베네 5층,명신경과의원,041-544-4990,,1900,0900,1900,0900,1900,0900,1900,0900,1900,0900,1500,0900,,,,,36.78129805165407,127.00294639235939
"충청남도 아산시 충무로 3, 2층 (온천동)",C,0,버거킹 2층 ,백병석신경외과의원,041-534-7585,,1830,0830,1830,0830,1830,0830,1830,0830,1830,0830,1400,0830,,,,,36.78170549985293,127.00388504032608
"경기도 성남시 중원구 산성대로 208, 3층 (성남동)",C,0,,자유신경외과의원,031-753-8380,,1900,0900,1900,0900,1900,0900,1900,0900,1900,0900,1800,0900,1800,0900,1800,0900,37.43747720713543,127.1419448763545
"서울특별시 송파구 오금로 410 (가락동, 2층)",C,0,개롱역 3번 출구,송파고려신경외과의원,02-400-2286,,1800,0900,1800,0900,1800,0900,1700,0900,1800,0900,1300,0900,,,,,37.49743447489999,127.1354359876
"서울특별시 송파구 백제고분로50길 28, 2층.3층 (방이동, 보광빌딩)",C,0,,송파길신경외과의원,02-415-7584,,1900,0900,1900,0900,1800,0900,1900,0900,1900,0900,1600,0900,,,,,37.513387881588194,127.11755842712892
"강원도 원주시 중앙시장길 11, 2층 (중앙동, 자유시장 1블럭 1호)",C,0,,서울튼튼신경외과의원,033-743-7583,,1830,0830,1830,0830,1830,0830,1830,0830,1830,0830,1400,0830,,,,,37.3502267655,127.9486242616
"강원도 원주시 능라동길 35, 베르뉴시티 3층 301호,302호 (무실동)",C,0,,신준현신경과의원,033-735-5254,,1800,0900,1800,0900,1800,0900,1800,0900,1800,0900,1400,0900,,,,,37.33380375586154,127.92859015520557
강원도 원주시 문막읍 문막시장1길 43,C,0,문막중학교 인근,연세신경외과의원,033-733-9911,,1800,0900,1800,0900,1800,0900,1300,0900,1800,0900,1300,0900,,,,,37.305945034208285,127.81650765306784
경기도 광주시 중앙로 95-4 (역동),C,0,,굿모닝신경외과의원,031-763-7272,,1900,0900,1900,0900,1900,0900,1900,0900,1900,0900,1400,0900,,,,,37.40845095678735,127.25846526244159
경기도 광주시 중앙로 95-3,C,0,,미래신경과의원,031-765-1116,,1830,0900,1830,0900,1830,0900,1830,0900,1830,0900,1500,0900,,,,,37.4080089074602,127.2587634359447
서울특별시 송파구 올림픽로 100 효창타워 7층,C,0,2호선 신천역 4번출구 200M 직진,에스신경외과의원,1899-4375,,1830,0900,1830,0900,1830,0900,1830,0900,1830,0900,1500,0900,,,,,37.5114170102,127.0816902803
"서울특별시 송파구 백제고분로 216 (삼전동, 2층)",C,0,,연세신경과의원,02-3432-7722,,1800,0900,1800,0900,1800,0900,1800,0900,1800,0900,1400,0900,,,,,37.50336640293091,127.0905209871038
"서울특별시 송파구 오금로 404, 3층 304호 (가락동, 원일빌딩)",C,0,개롱역 3번 출구,연세오케이신경외과의원,02-2038-2712,,1830,0900,1830,0900,1830,0900,1830,0900,1830,0900,1300,0900,,,,,37.497593409,127.1351241575
"강원도 원주시 양지로 4, 4층, 5층 (반곡동)",C,0,,죠훈신경외과의원,033-748-9111,,2200,0830,2200,0830,2200,0830,2200,0830,1700,0830,,,1700,0830,,,37.3254050438,127.9788375538
강원도 원주시 치악로 1864 (봉산동),C,0,원주경찰서 앞,이하우신경외과의원,033-745-3686,,1800,0900,1800,0900,1800,0900,1300,0900,1800,0900,1300,0900,,,,,37.347611111111114,127.956169444444441
"경기도 광주시 중앙로 108, 3층 (경안동)",C,0,,추신경외과의원,031-766-8578,,1830,0900,1830,0900,,,1830,0900,1830,0900,1300,0830,,,,,37.40940920746035,127.25866283369467
강원도 원주시 서원대로 509 (단구동),C,0,삼오정 사거리,효성신경외과의원,033-761-7582,,1800,0900,1800,0900,1800,0900,1800,0900,1800,0900,1300,0900,,,,,37.32502421936746,127.95952389906887
충청남도 공주시 유구읍 중앙1길 55,C,0,유구중학교 근처,서울신경외과의원,041-841-9997,,1830,0850,1830,0850,1830,0850,1830,0850,1830,0850,1300,0830,,,1300,0830,36.54954899464344,126.95062882320422
"충청남도 공주시 용당길 17, 2층 (산성동)",C,0,산성시장 공용주차장 맞은편,서울튼튼신경외과의원,041-852-0975,,1830,0830,1830,0830,1830,0830,1830,0830,1830,0830,1300,0830,,,,,36.4585653263,127.1231162858
"서울특별시 송파구 중대로 80 (문정동, LG문정프라자 3층)",C,0,가락시장역 7번출구,미래신경과의원,02-2043-8275,,1900,0900,1900,0900,1900,0900,1900,0900,1900,0900,1500,0900,,,,,37.49176257607539,127.11784451376074
"충청남도 공주시 웅진로 199, 3층 301호 (산성동)",C,0,,정다운신경과의원,041-853-9905,,1800,0830,1800,0830,1800,0830,1800,0830,1800,0830,1300,0830,,,,,36.458188854111604,127.1246462693008
"강원도 원주시 남원로 528-31, 신세계프라자 7층 (단구동)",C,0,,바로편한신경외과의원,033-746-7501,,1800,0900,1800,0900,1800,0900,1800,0900,1800,0900,1200,0900,,,,,37.3515357357,127.9462841658
강원도 원주시 남원로 548 (개운동),C,0,원주의료원 입구,고승연신경외과의원,033-764-0625,,1730,0830,1730,0830,1730,0830,1730,0830,1730,0830,1230,0830,,,,,37.332971097825336,127.94778212445568
"전라북도 익산시 인북로 250, 2층 (남중동)",C,0,,박동수신경외과의원,063-857-2422,,1800,0830,1800,0830,1800,0830,1800,0830,1800,0830,1230,0830,,,,,35.9507107924,126.9582042795
"전라북도 익산시 무왕로 1101, (영등동)",C,0,영등동육교아래,박성욱신경과의원,063-836-7585,,1830,0900,1830,0900,1830,0900,1830,0900,1830,0900,1300,0900,,,,,35.95882021780665,126.97929068520436
"부산광역시 사상구 낙동대로 786, 애진빌딩 6층 (엄궁동)",C,0,버스정류장: 엄궁삼거리,부산신경외과의원,051-715-3301,,1900,0900,1900,0900,1900,0900,1900,0900,1900,0900,1400,0900,,,,,35.1307294982,128.9720880089
전라북도 익산시 서동로 125 (마동),C,0,마동사거리 전북은행 옆,채병문신경외과의원,063-857-5119,,1830,0900,1830,0900,1830,0900,1830,0900,1830,0900,1230,0900,,,,,35.93532502304551,126.96488889886881
전라북도 익산시 평동로 738 (동산동),C,0,,친절한신경외과의원,063-836-8275,,1800,0830,1800,0830,1800,0830,1800,0830,1800,0830,1230,0830,,,,,35.92903089917041,126.95937698312191
전라북도 익산시 고현로 108 (모현동1가),C,0,전북은행 맞은편,한일신경외과의원,063-858-3322,,1800,0900,1800,0900,1800,0900,1800,0900,1800,0900,1300,0900,,,,,35.946689923769924,126.94393310403258
"전라북도 익산시 인북로 191, 2층 (남중동)",C,0,상공회의소 맞은편,굿모닝신경과의원,063-837-7575,,1800,0830,1800,0830,1230,0830,1800,0830,1800,0830,1230,0830,,,,,35.9458756471,126.9557330177
전라북도 익산시 무왕로 1112 (어양동),C,0,하나로사거리근처 현대오일뱅크건너편,우리들신경외과의원,063-830-2100,,1830,0900,1830,0900,1830,0900,1830,0900,1830,0900,1230,0900,,,1230,0900,35.95836071569937,126.98033082954026
전라북도 익산시 무왕로 1036,C,0,홈플러스 맞은편 ,김요식신경과의원,063-838-8200,,1800,0900,1800,0900,1800,0900,1800,0900,1800,0900,1230,0900,,,,,35.95812460931157,126.97187968217077
"전라북도 익산시 선화로 88, 강남빌딩 2층 (모현동1가)",C,0,,김정환신경과의원,0638439000,,1830,0900,1830,0900,1830,0900,1830,0900,1830,0900,1300,0900,,,,,35.9488936854,126.9406130433
"부산광역시 사상구 가야대로 274-3, 5~7층 (주례동)",C,0,2호선 주례역 7번출구,나상옥신경과의원,051-323-6226,,1830,0900,1830,0900,1900,0900,1830,0900,1830,0900,1300,0900,,,,,35.15015000000001,129.0016250000023
"부산광역시 사상구 가야대로 276, 6,7층 (주례동, M-square 메디컬센터)",C,0,2호선 주례역 5번출구/M-square 메디컬센터 6-7층,바로척신경외과의원,051-711-7900,,1800,0930,1800,0930,1800,0930,1800,0930,1800,0930,1300,0900,,,,,35.1500381662122,129.0027361179887
"서울특별시 성북구 동소문로 181 (돈암동, 성북성심빌딩)",C,0,고명중고등학교 인근,성북성심신경과의원,02-927-5100,,1830,0900,1830,0900,1830,0900,1830,0900,1830,0900,1500,0900,1300,0900,1300,0900,37.598453554153004,127.0214813369487
"서울특별시 성북구 정릉로 250, 지상2층 (정릉동)",C,0,정릉2동 주민센터 옆건물,수호신경외과의원,02-916-3535,,1800,0830,1800,0830,1800,0830,1800,0830,1800,0830,1330,0830,,,,,37.6042690538,127.011370027
"서울특별시 성북구 화랑로 87, 지상5층 (하월곡동)",C,0,월곡역 3번 출구,노신경외과의원,02-911-0006,,1800,0830,1800,0830,1800,0830,1800,0830,1800,0830,1500,0830,,,,,37.6026980804046,127.04179191761132
"부산광역시 사상구 새벽로 163 (감전동, 한세신경외과)",C,0,버스정류장: 감전2동 우체국,한세신경외과의원,051-325-2060,,1900,0900,1300,0900,1900,0900,1900,0900,1900,0900,1300,0900,,,,,35.1557910372,128.9830337417
서울특별시 양천구 신월로 327 (신정동),C,0,,양천신경외과의원,02-2607-9901,,1900,0900,1900,0900,1900,0900,1900,0900,1900,0900,1500,0900,,,,,37.521861306299996,126.8574293515
"서울특별시 양천구 공항대로 558, 3층 (목동, 남영빌딩)",C,0,,하나로신경과의원,02-2646-1182,,1830,0900,1830,0900,1830,0900,1830,0900,1830,0900,1400,0900,,,,,37.54928498129757,126.8674351670965
서울특별시 양천구 오목로 48 (신월동),C,0,,하나신경외과의원,02-2603-1910,,1730,0900,1730,0900,1600,0930,1730,0900,1730,0900,1400,0930,,,,,37.52200511404662,126.84294484409545
경기도 수원시 장안구 덕영대로535번길 38 (천천동),C,0,,피앤알신경외과의원,031-256-7114,,1800,0900,1800,0900,1800,0900,1800,0900,1800,0900,1400,0900,,,,,37.29718121790333,126.98241452006508
경기도 수원시 장안구 송원로 81 (조원동),C,0,,한일신경외과의원,031-258-5577,,1800,0900,1800,0900,1800,0900,1800,0900,1800,0900,1300,0900,,,,,37.30227073902261,127.00938544215754
서울특별시 양천구 오목로 232,C,0,5호선 목동역 8번출구에서 직진 보성상가 305호,백기훈신경과의원,02-2690-2075,,1800,0900,1800,0900,1800,0900,1800,0900,1800,0900,1400,0900,,,,,37.52575275531086,126.86322092377739
"서울특별시 용산구 회나무로6길 5 (이태원동, 혜광빌딩 1층)",C,0,,삼성신경외과의원,02-793-8863,,1800,0845,1800,0845,1800,0845,1800,0845,1800,0845,1200,0845,,,,,37.53870545257588,126.9888028689141
"서울특별시 용산구 우사단로 2-1, 신진약국,신경란의원 (보광동)",C,0,,신경란의원,02-795-3495,,1800,0900,1800,0900,1800,0900,1800,0900,1800,0900,1300,0900,,,,,37.5305933318,126.9969181809
"서울특별시 양천구 월정로 51, 302호 (신월동, 청송프라임)",C,0,경창시장 맞은편 수협건물,삼성탑신경외과의원,02-2696-7533,,1900,0900,1900,0900,1900,0900,1900,0900,1900,0900,1400,0900,,,,,37.52422346011379,126.84165508179957
"서울특별시 양천구 오목로 199, 1~3층 (신정동, 호애빌딩)",C,0,,서울연세신경외과의원,02-6737-0820,,1900,0900,2100,0900,1900,0900,2100,1400,1900,0900,1400,0900,,,,,37.5256625985,126.8596575321
"경기도 평택시 송탄로 274, 2층 (서정동)",C,0,,한사랑신경과의원,031-666-8133,,1830,0900,1830,0900,1830,0900,1830,0900,1830,0900,1300,0900,,,,,37.0680836293735,127.05921361486303
"광주광역시 북구 금남로 136, 지하1층 (누문동, 교보생명빌딩)",C,0,,맑은머리김동욱신경과의원,062-528-5030,,1800,0900,1800,0900,1900,0900,1200,0900,1800,0900,1300,0900,,,,,35.15398784699094,126.90889498985527
"광주광역시 광산구 하남대로 288 (운남동,세린빌딩 302호)",C,0,"광주은행 운남동지점 옆건물, 미니스탑 3층",박종귀신경과의원,062-961-7495,,1830,0900,1830,0900,1830,0900,1830,0900,1830,0900,1300,0900,,,,,35.178736111111114,126.825002777777783
"전라북도 남원시 용성로 114, 2층 (죽항동)",C,0,,남원신경과의원,0636262030,,1730,0830,1730,0830,1730,0830,1730,0830,1730,0830,1230,0830,,,,,35.4097344477,127.3887306651
전라북도 남원시 용성로 109  (동충동),C,0,시외버스터미널2층,송대원신경과의원,063-632-2356,,1730,0830,1730,0830,1730,0830,1730,0830,1730,0830,1230,0830,,,,,35.40964700751854,127.38789353176676
"전라북도 남원시 용성로 121, 우리들신경외과 (동충동)",C,0,터미널맞은편,우리들신경외과의원,063--631-3232,,1730,0830,1730,0830,1730,0830,1730,0830,1730,0830,1200,0830,,,,,35.410198060244745,127.38898720046672
부산광역시 사하구 낙동남로 1400  (하단동),C,0,1호선 하단역 4번 출구,임권일신경과의원,051-202-1917,,1830,0900,1830,0900,1830,0900,1830,0900,1830,0900,1300,0900,,,,,35.10581494110493,128.96467961783978
전라북도 남원시 의총로 63 (금동),C,0,공설시장사거리,친절한신경외과의원,063-633-5678,,1800,0830,1800,0830,1800,0830,1800,0830,1800,0830,1300,0830,,,1200,0830,35.40635235776491,127.376070792722
"광주광역시 광산구 하남대로 135, 2층 (흑석동)",C,0,,경희신경외과의원,062-714-1050,,1800,0900,1800,0900,1300,0900,1800,0900,1800,0900,1300,0900,,,,,35.180350517497885,126.80880999399031
광주광역시 광산구 풍영로230번길 4 (장덕동),C,0,,금강신경외과의원,062-603-6800,,1800,0900,1800,0900,1800,0900,1800,0900,1800,0900,1300,0900,,,,,35.1919137007445,126.81448608687677
"광주광역시 북구 설죽로 325, 3층 (매곡동)",C,0,,한빛신경외과의원,062-574-7582,,1800,0900,1800,0900,1230,0900,1800,0900,1800,0900,1230,0900,,,,,35.18848572886465,126.89869957109553
"경기도 수원시 영통구 봉영로 1623, 드림피아빌딩 509호 (영통동)",C,0,,임태성신경과의원,031-273-0075,,1800,0900,1800,0900,1800,0900,1800,0900,1800,0900,1300,0900,,,,,37.255934544244866,127.07473584312541
경상북도 경산시 중앙로 85 (중방동),C,0,,경북신경외과의원,053-812-7373,,1900,0845,1900,0845,1900,0845,1900,0845,1900,0845,1500,0845,,,1300,0845,35.82375217749769,128.73626051653093
"광주광역시 광산구 상무대로 260, 2,3층 (송정동)",C,0,영광통 사거리 KT 옆 은성약국 2층에 위치하였습니다,임신경외과의원,062-945-6666,,1700,0900,1700,0900,1300,0900,1700,0900,1700,0900,1300,0900,,,,,35.141580555555556,126.795030555555556
"경상북도 경산시 경안로 203, 1,2,5,6층 (중방동)",C,0,시외버스터미널건너편,경산제일신경외과의원,053-816-1191,,1930,0900,1930,0900,1930,0900,1930,0900,1930,0900,1500,0900,,,1700,0900,35.82567209255009,128.736598846144
경상북도 경산시 중앙로 81  (중방동),C,0,,달팽이신경과의원,053-814-1500,,1900,0900,1900,0900,1300,0900,1900,0900,1900,0900,1400,0900,,,,,35.82379536376524,128.73576575806766
"경상북도 경산시 하양읍 하양로 107, 2층",C,0,강동빌딩 2층,등편한신경외과의원,053-851-8215,,1830,0900,1830,0900,1830,0900,1830,0900,1830,0900,1300,0900,,,,,35.9138763994,128.8189671342
"경상북도 경산시 하양읍 대학로 1536, 3층",C,0,,하양맑은신경과의원,053-295-7575,,1830,0900,1830,0900,1830,0900,1830,0900,1830,0900,1300,0900,,,,,35.914891548464745,128.82047916871687
광주광역시 광산구 신창로 124 (신창동),C,0,신창광주은행 맞은편 50M/,한결신경외과의원,062-960-1100,,1830,0900,1830,0900,1830,0900,1830,0900,1830,0900,1300,0900,,,,,35.19618591083705,126.83863961367177
"경상북도 경산시 백자로 78, 3층 (사동)",C,0,,명성신경외과의원,053-814-2555,,1900,0900,1900,0900,1900,0900,1900,0900,1900,0900,1400,0900,,,1300,0900,35.8125076883,128.7557780839
"경상북도 경산시 경안로 202, 4층 (중방동)",C,0,,이김신경과의원,053-811-8200,,1830,0900,1830,0900,1830,0900,1830,0900,1830,0900,1300,0900,,,,,35.82558578970002,128.73736190850045
"경상북도 경산시 대학로10길 1, 1,3층 (정평동)",C,0,,정평경대연합신경외과의원,053-217-8899,,1930,0900,1930,0900,1930,0900,1930,0900,1930,0900,1600,0900,,,1300,0900,35.8336939191,128.7280041142
"경상북도 경산시 진량읍 공단로 496, 1,3,4층",C,0,,제일연합신경외과의원,053-852-6699,,2100,0900,2100,0900,2100,0900,2100,0900,2100,0900,1400,0900,1300,0900,1300,0900,35.875736194053395,128.81934718421235
대구광역시 중구 달구벌대로 1992 (남산동),C,0,,신남미래연합신경외과의원,053-252-3375,,1830,0900,1830,0900,1830,0900,1830,0900,1830,0900,1300,0900,,,1300,0900,35.8644401095423,128.5821247398489
울산광역시 동구 방어진순환도로 689 (일산동),C,0,방어진농협 본점 근처,동울산신경외과의원,052-233-8172,,1830,0900,1830,0900,1830,0900,1830,0900,1830,0900,1300,0900,,,,,35.50330175521463,129.4290613066418
"서울특별시 강남구 강남대로 254, 4층 (도곡동, 용문빌딩)",C,0,,허릐업신경외과재활의학과의원,02-586-9090,,1830,0900,1830,0900,1830,0900,1830,0900,1830,0900,1400,0900,,,,,37.48622669046571,127.0337035642007
"대구광역시 달서구 조암로 4, 4층 401,402호 (월성동, 그루메디컬빌딩)",C,0,,그루메디신경외과의원,053-642-2119,,1900,0900,1900,0900,1900,0900,1900,0900,1900,0900,1500,0900,,,,,35.82625242637395,128.52919858611088
"광주광역시 동구 문화전당로 3, (남동)",C,0,전남대학교병원오거리 무등상약국 2층,베스트신경과의원,062-232-2175,,1700,0900,1700,0900,1700,0900,1700,0900,1700,0900,1300,0900,,,,,35.14290322068216,126.92023001721583
"경기도 수원시 팔달구 동말로 84 (화서동, 화서프라자)",C,0,,팔팔신경외과의원,031-255-4575,,1900,0900,1900,0900,1900,0900,1900,1400,1900,0900,1900,1400,,,,,37.27870361819848,127.00338883393864
"경상남도 진주시 하대로 80, 1,5층 (하대동, 메디칼팜빌딩)",C,0,삼전아파트(탑마트) 옆,진주신경외과의원,055-753-4707,,1800,0900,1800,0900,1800,0900,1800,0900,1800,0900,1200,0900,,,1200,0900,35.1929047795,128.1203686891
"경기도 군포시 산본로 378, 205,206호 (산본동, 산본사이버텔)",C,0,산본사이버텔05호,중앙신경외과의원,031-396-8420,,1830,0900,1830,0900,1830,0900,1830,0900,1830,0900,1400,0900,,,,,37.364135699828154,126.93058045466708
"제주특별자치도 제주시 1100로 3351, 5층 (노형동, 세기빌딩)",C,0,노형로타리 위치. ,김앤김신경외과의원,064-713-2500,,1900,0900,1900,0900,1900,0900,1900,0900,1900,0900,1300,0900,,,,,33.48511356047241,126.47933657361412
서울특별시 강동구 양재대로 1589 (천호동),C,0,,신경숙산부인과의원,02-488-0082,,1730,0930,1730,0930,1730,0930,1730,0930,1730,0930,1300,0930,,,,,37.547534134984275,127.14297459426237
전라남도 여수시 문수로 84 (문수동),C,0,,심병수신경외과의원,061-655-1700,,1830,0830,1830,0830,1830,0830,1830,0830,1830,0830,1200,0830,,,1200,0830,34.75409904897617,127.70439251120677
"충청북도 청주시 흥덕구 복대로 185, 7층 (복대동)",C,0,,마디신경외과의원,043-271-8275,,1900,0900,1900,0900,1900,0900,1900,0900,1900,0900,1500,0900,,,1500,0900,36.6330585984756,127.44055395101324
"부산광역시 연제구 중앙대로 1107, 601호 (연산동)",C,0,"1,3호선 연산역 5,7번출구",이성훈신경과의원,051-851-7581,,1800,0900,1800,0900,1800,0900,1800,0900,1800,0900,1300,0900,,,,,35.18664722222223,129.0808861111126
"서울특별시 종로구 창신길 1, 2층 (창신동, 영화빌딩)",G,0,동대문역 1번 출구,창신경희한의원,02-762-1075,,2100,0900,1900,0900,1900,0900,2100,0900,1900,0900,1400,0900,,,,,37.5718514454,127.0101968918
"서울특별시 강남구 논현로159길 17 (신사동, 301호)",C,0,,서울브레인신경과의원,02-541-8275,,1730,0900,1730,0900,1730,0900,1730,0900,1730,0900,1230,0900,,,,,37.5229066246,127.0266294335
"부산광역시 사상구 새벽로 163 (감전동, 한세신경외과)",C,0,버스정류장: 감전2동 우체국,한세신경외과의원,051-325-2060,,1900,0900,1300,0900,1900,0900,1900,0900,1900,0900,1300,0900,,,,,35.1557910372,128.9830337417
"서울특별시 성북구 동소문로 181 (돈암동, 성북성심빌딩)",C,0,고명중고등학교 인근,성북성심신경과의원,02-927-5100,,1830,0900,1830,0900,1830,0900,1830,0900,1830,0900,1500,0900,1300,0900,1300,0900,37.598453554153004,127.0214813369487
"서울특별시 성북구 정릉로 250, 지상2층 (정릉동)",C,0,정릉2동 주민센터 옆건물,수호신경외과의원,02-916-3535,,1800,0830,1800,0830,1800,0830,1800,0830,1800,0830,1330,0830,,,,,37.6042690538,127.011370027
"서울특별시 성북구 화랑로 87, 지상5층 (하월곡동)",C,0,월곡역 3번 출구,노신경외과의원,02-911-0006,,1800,0830,1800,0830,1800,0830,1800,0830,1800,0830,1500,0830,,,,,37.6026980804046,127.04179191761132
"서울특별시 양천구 월정로 51, 302호 (신월동, 청송프라임)",C,0,경창시장 맞은편 수협건물,삼성탑신경외과의원,02-2696-7533,,1900,0900,1900,0900,1900,0900,1900,0900,1900,0900,1400,0900,,,,,37.52422346011379,126.84165508179957
"서울특별시 양천구 오목로 199, 1~3층 (신정동, 호애빌딩)",C,0,,서울연세신경외과의원,02-6737-0820,,1900,0900,2100,0900,1900,0900,2100,1400,1900,0900,1400,0900,,,,,37.5256625985,126.8596575321
"서울특별시 양천구 공항대로 558, 3층 (목동, 남영빌딩)",C,0,,하나로신경과의원,02-2646-1182,,1830,0900,1830,0900,1830,0900,1830,0900,1830,0900,1400,0900,,,,,37.54928498129757,126.8674351670965
서울특별시 양천구 오목로 48 (신월동),C,0,,하나신경외과의원,02-2603-1910,,1730,0900,1730,0900,1600,0930,1730,0900,1730,0900,1400,0930,,,,,37.52200511404662,126.84294484409545
서울특별시 양천구 신월로 327 (신정동),C,0,,양천신경외과의원,02-2607-9901,,1900,0900,1900,0900,1900,0900,1900,0900,1900,0900,1500,0900,,,,,37.521861306299996,126.8574293515
경기도 수원시 장안구 덕영대로535번길 38 (천천동),C,0,,피앤알신경외과의원,031-256-7114,,1800,0900,1800,0900,1800,0900,1800,0900,1800,0900,1400,0900,,,,,37.29718121790333,126.98241452006508
경기도 수원시 장안구 송원로 81 (조원동),C,0,,한일신경외과의원,031-258-5577,,1800,0900,1800,0900,1800,0900,1800,0900,1800,0900,1300,0900,,,,,37.30227073902261,127.00938544215754
서울특별시 양천구 오목로 232,C,0,5호선 목동역 8번출구에서 직진 보성상가 305호,백기훈신경과의원,02-2690-2075,,1800,0900,1800,0900,1800,0900,1800,0900,1800,0900,1400,0900,,,,,37.52575275531086,126.86322092377739
"서울특별시 용산구 회나무로6길 5 (이태원동, 혜광빌딩 1층)",C,0,,삼성신경외과의원,02-793-8863,,1800,0845,1800,0845,1800,0845,1800,0845,1800,0845,1200,0845,,,,,37.53870545257588,126.9888028689141
"서울특별시 용산구 우사단로 2-1, 신진약국,신경란의원 (보광동)",C,0,,신경란의원,02-795-3495,,1800,0900,1800,0900,1800,0900,1800,0900,1800,0900,1300,0900,,,,,37.5305933318,126.9969181809
"경기도 평택시 송탄로 274, 2층 (서정동)",C,0,,한사랑신경과의원,031-666-8133,,1830,0900,1830,0900,1830,0900,1830,0900,1830,0900,1300,0900,,,,,37.0680836293735,127.05921361486303
"광주광역시 북구 금남로 136, 지하1층 (누문동, 교보생명빌딩)",C,0,,맑은머리김동욱신경과의원,062-528-5030,,1800,0900,1800,0900,1900,0900,1200,0900,1800,0900,1300,0900,,,,,35.15398784699094,126.90889498985527
"광주광역시 북구 설죽로 325, 3층 (매곡동)",C,0,,한빛신경외과의원,062-574-7582,,1800,0900,1800,0900,1230,0900,1800,0900,1800,0900,1230,0900,,,,,35.18848572886465,126.89869957109553
"경기도 수원시 영통구 봉영로 1623, 드림피아빌딩 509호 (영통동)",C,0,,임태성신경과의원,031-273-0075,,1800,0900,1800,0900,1800,0900,1800,0900,1800,0900,1300,0900,,,,,37.255934544244866,127.07473584312541
"전라북도 남원시 용성로 114, 2층 (죽항동)",C,0,,남원신경과의원,0636262030,,1730,0830,1730,0830,1730,0830,1730,0830,1730,0830,1230,0830,,,,,35.4097344477,127.3887306651
전라북도 남원시 용성로 109  (동충동),C,0,시외버스터미널2층,송대원신경과의원,063-632-2356,,1730,0830,1730,0830,1730,0830,1730,0830,1730,0830,1230,0830,,,,,35.40964700751854,127.38789353176676
"전라북도 남원시 용성로 121, 우리들신경외과 (동충동)",C,0,터미널맞은편,우리들신경외과의원,063--631-3232,,1730,0830,1730,0830,1730,0830,1730,0830,1730,0830,1200,0830,,,,,35.410198060244745,127.38898720046672
부산광역시 사하구 낙동남로 1400  (하단동),C,0,1호선 하단역 4번 출구,임권일신경과의원,051-202-1917,,1830,0900,1830,0900,1830,0900,1830,0900,1830,0900,1300,0900,,,,,35.10581494110493,128.96467961783978
전라북도 남원시 의총로 63 (금동),C,0,공설시장사거리,친절한신경외과의원,063-633-5678,,1800,0830,1800,0830,1800,0830,1800,0830,1800,0830,1300,0830,,,1200,0830,35.40635235776491,127.376070792722
"광주광역시 광산구 하남대로 135, 2층 (흑석동)",C,0,,경희신경외과의원,062-714-1050,,1800,0900,1800,0900,1300,0900,1800,0900,1800,0900,1300,0900,,,,,35.180350517497885,126.80880999399031
광주광역시 광산구 풍영로230번길 4 (장덕동),C,0,,금강신경외과의원,062-603-6800,,1800,0900,1800,0900,1800,0900,1800,0900,1800,0900,1300,0900,,,,,35.1919137007445,126.81448608687677
대구광역시 중구 달구벌대로 1992 (남산동),C,0,,신남미래연합신경외과의원,053-252-3375,,1830,0900,1830,0900,1830,0900,1830,0900,1830,0900,1300,0900,,,1300,0900,35.8644401095423,128.5821247398489
경상북도 경산시 중앙로 85 (중방동),C,0,,경북신경외과의원,053-812-7373,,1900,0845,1900,0845,1900,0845,1900,0845,1900,0845,1500,0845,,,1300,0845,35.82375217749769,128.73626051653093
"광주광역시 광산구 상무대로 260, 2,3층 (송정동)",C,0,영광통 사거리 KT 옆 은성약국 2층에 위치하였습니다,임신경외과의원,062-945-6666,,1700,0900,1700,0900,1300,0900,1700,0900,1700,0900,1300,0900,,,,,35.141580555555556,126.795030555555556
"경상북도 경산시 경안로 203, 1,2,5,6층 (중방동)",C,0,시외버스터미널건너편,경산제일신경외과의원,053-816-1191,,1930,0900,1930,0900,1930,0900,1930,0900,1930,0900,1500,0900,,,1700,0900,35.82567209255009,128.736598846144
경상북도 경산시 중앙로 81  (중방동),C,0,,달팽이신경과의원,053-814-1500,,1900,0900,1900,0900,1300,0900,1900,0900,1900,0900,1400,0900,,,,,35.82379536376524,128.73576575806766
"경상북도 경산시 하양읍 하양로 107, 2층",C,0,강동빌딩 2층,등편한신경외과의원,053-851-8215,,1830,0900,1830,0900,1830,0900,1830,0900,1830,0900,1300,0900,,,,,35.9138763994,128.8189671342
"경상북도 경산시 하양읍 대학로 1536, 3층",C,0,,하양맑은신경과의원,053-295-7575,,1830,0900,1830,0900,1830,0900,1830,0900,1830,0900,1300,0900,,,,,35.914891548464745,128.82047916871687
광주광역시 광산구 신창로 124 (신창동),C,0,신창광주은행 맞은편 50M/,한결신경외과의원,062-960-1100,,1830,0900,1830,0900,1830,0900,1830,0900,1830,0900,1300,0900,,,,,35.19618591083705,126.83863961367177
"광주광역시 광산구 하남대로 288 (운남동,세린빌딩 302호)",C,0,"광주은행 운남동지점 옆건물, 미니스탑 3층",박종귀신경과의원,062-961-7495,,1830,0900,1830,0900,1830,0900,1830,0900,1830,0900,1300,0900,,,,,35.178736111111114,126.825002777777783
"경상북도 경산시 백자로 78, 3층 (사동)",C,0,,명성신경외과의원,053-814-2555,,1900,0900,1900,0900,1900,0900,1900,0900,1900,0900,1400,0900,,,1300,0900,35.8125076883,128.7557780839
"경상북도 경산시 경안로 202, 4층 (중방동)",C,0,,이김신경과의원,053-811-8200,,1830,0900,1830,0900,1830,0900,1830,0900,1830,0900,1300,0900,,,,,35.82558578970002,128.73736190850045
"경상북도 경산시 대학로10길 1, 1,3층 (정평동)",C,0,,정평경대연합신경외과의원,053-217-8899,,1930,0900,1930,0900,1930,0900,1930,0900,1930,0900,1600,0900,,,1300,0900,35.8336939191,128.7280041142
"경상북도 경산시 진량읍 공단로 496, 1,3,4층",C,0,,제일연합신경외과의원,053-852-6699,,2100,0900,2100,0900,2100,0900,2100,0900,2100,0900,1400,0900,1300,0900,1300,0900,35.875736194053395,128.81934718421235
"서울특별시 강북구 도봉로 30, 10층 (미아동)",C,0,3층,마디신경외과의원,02-985-5015,,1800,0900,1800,0900,1800,0900,1800,0900,1800,0900,1300,0900,,,,,37.61166790513969,127.03073269349835
"광주광역시 서구 치평로 124, 2층 209~213호 (치평동)",C,0,상무지구 한국은행 건너편 케이원2층,우일신경외과의원,062-384-0027,,1830,0900,1830,0900,1300,0900,1830,0900,1830,0900,1300,0900,,,,,35.15859696695707,126.84766611768916
"경상북도 안동시 경북대로 486, 3층 (송현동)",C,0,1층 비손약국,유영수신경과의원,054-855-8275,,1800,0900,1800,0900,1800,0900,1800,0900,1800,0900,1300,0900,,,,,36.5715354664,128.6977257846
충청북도 제천시 의림대로 122 (중앙로2가),C,0,,위성목신경외과의원,043-648-8797,,1800,0900,1830,0900,1830,0900,1830,0900,1830,0900,1230,0900,,,1230,0900,37.13855181389448,128.21111448545065
충청북도 청주시 청원구 오창읍 중심상업로 7,C,0,,오창본메디신경외과의원,043-241-4114,,1900,0900,1900,0900,1900,0900,1900,0900,1900,0900,1500,0900,,,,,36.71140900873238,127.42866555127388
대전광역시 유성구 반석로 7 (반석동),C,0,반석역 2번 출구 앞,노은삼성신경과의원,042-823-3425,,1830,0900,1830,0900,1830,0900,1830,0900,1830,0900,1400,0900,,,,,36.391580338857075,127.3138749765661
"서울특별시 강남구 봉은사로 133, 1~3층 (논현동, MJL빌딩)",C,0,,마디힐신경외과의원,02-515-0466,,1730,0900,1730,0900,1730,0900,1730,0900,1730,0900,1300,0900,,,,,37.50622664410001,127.0291569254
"전라북도 군산시 축동안3길 3, 2층 (수송동)",C,0,(구)시청앞사거리 이성당빵집건물 2층에위치,김춘식신경과의원,063-446-2992,,1800,0900,1800,0900,1300,0900,1800,0900,1800,0900,1200,0900,,,,,35.987097066311364,126.7113003572925
부산광역시 사하구 감천로 122 (감천동),C,0,버스정류장: 감천사거리,문화신경외과의원,051-205-4525,,1830,0900,1830,0900,1830,0900,1830,0900,1830,0900,1400,0900,,,,,35.08720012710341,129.0047334843002
부산광역시 사하구 장림번영로 44 (장림동),C,0,버스정류장:장림시장 기업은행 2층 ,이원외신경외과의원,051-265-1233,,1900,0900,1900,0900,1900,0900,1900,0900,1900,0900,1330,0900,,,,,35.08043653167911,128.97003541114114
"서울특별시 금천구 독산로 132, 2층 (시흥동, 하나은행)",C,0,,서울강한신경외과의원,02-893-7577,,1800,1000,1800,1000,1800,1000,1800,1000,1800,1000,,,,,,,37.4589938847909,126.90533693377736
"충청북도 청주시 서원구 사직대로 90, 1,2,5층 (사창동)",C,0,"충대사거리~사창사거리 사이
청주고 맞은편",장헌상신경외과의원,043-276-8275,,1900,0830,1900,0830,1900,0830,1900,0830,1900,0830,1300,0830,,,,,36.634476954616,127.45749705404998
"대구광역시 달서구 달구벌대로 1736, 2층 (두류동)",C,0,,광장신경외과의원,053-624-7755,,1830,0900,1830,0900,1830,0900,1830,0900,1830,0900,1300,0900,,,,,35.856679886720535,128.5552930037086
경기도 평택시 중앙로 81 (비전동),C,0,,백신경외과의원,031-655-5115,,1830,0900,1830,0900,1830,0900,1830,0900,1830,0900,1400,0900,,,,,36.99400555555556,127.09209444444444
"부산광역시 부산진구 범일로 127, 9층 (범천동)",C,0,1호선 범일역 9번출구,손제용신경과의원,051-632-1155,,1800,0900,2000,0900,1800,0900,1800,0900,1800,0900,1400,0900,,,,,35.1415239902,129.0590583408
"부산광역시 부산진구 가야대로 785, 4,5,6층 (부전동, 성영빌딩)",C,0,"1,2호선 서면역 9번출구/서면롯데백화점건너편",알파신경외과의원,051-807-0114,,1900,0900,1900,0900,1900,0900,1900,0900,1900,0900,1300,0900,,,,,35.15789722222223,129.0574972222236
"충청북도 청주시 서원구 산남로 38, 3층 302호 (산남동, 산남렉슬Ⅰ)",C,0,"산남동 기업은행 건물, 점심시간 12시 30분~13시 30분",똑똑한신경과의원,043-296-7301,,1700,0900,1700,0900,1700,0900,1700,0900,1700,0900,1200,0900,,,,,36.611551183643264,127.46980019927837
"부산광역시 연제구 중앙대로 1033, 7,8층 (연산동)",C,0,1호선 시청역 7번출구 앞 ,우리신경외과의원,051-853-1853,,1900,0900,1900,0900,1900,0900,1900,0900,1900,0900,1300,0900,,,,,35.1809310558,129.0771441248
"서울특별시 강북구 삼양로19길 214, 4층 (미아동)",C,0,강북소방서 인근,마디척신경외과의원,02-988-3375,,1900,0900,1900,0900,1900,0900,1900,0900,1900,0900,1400,0900,,,,,37.61965748625155,127.01541839652662
서울특별시 마포구 월드컵로 128 (성산동),C,0,,백신경외과의원,02-334-8822,,1830,0900,1830,0900,1830,0900,1830,0900,1830,0900,1300,0900,,,,,37.5596627502,126.9071609379
"경상북도 포항시 북구 죽도로 28, 2층 (죽도동)",C,0,,포항제통신경외과의원,054-249-1633,,1800,0900,1800,0900,1800,0900,1800,0900,1800,0900,1300,0900,,,,,36.0339890821,129.363664624
"경기도 여주시 세종로 69, 3층 (홍문동, 제일빌딩)",C,0,,바로본신경외과의원,031-885-8579,,2000,1000,2000,1000,2100,1400,2000,1000,2000,1000,1500,0900,,,,,37.29153302429285,127.63559325158881
서울특별시 강동구 진황도로 8-1 (천호동),G,0,,신경한의원,02-478-0740,,1900,1400,,,,,1900,1400,1900,1400,1900,1400,,,,,37.5399228427,127.1283662597
인천광역시 서구 가정로 287 (석남동),C,0,롯데하이마트 서경점 인근 ,김성철신경외과의원,032-583-7582,,1830,0900,1830,0900,1830,0900,1830,0900,1830,0900,1300,0900,,,,,37.5104463788,126.6722617931
경상북도 문경시 흥덕로 2 (흥덕동),C,0,,우리신경외과의원,054-552-5502,,1800,0830,1800,0830,1800,0830,1800,0830,1800,0830,1400,0800,,,,,36.60183283435821,128.20387842079285
"서울특별시 강남구 압구정로 162, 4층 (신사동, 베네하임시티 4층일부)",C,0,압구정역 5번 출구,예담신경외과의원,02-543-7785,,1900,0900,2100,1000,1900,0900,2100,1000,1900,0900,1400,0900,,,,,37.5263086174,127.0274677997
"서울특별시 중구 다산로11길 3, 4층 (신당동, 약수JK빌딩)",C,0,약수역 9번 출구,한가람신경외과의원,02-2235-7582,,1830,0900,1830,0900,1830,0900,1830,0900,1830,0900,,,,,,,37.5544297915,127.010036077
"서울특별시 중구 서소문로 120, 3층 (서소문동, ENA센터)",C,0,시청역 9번 출구 맞은편 ENA빌딩,현명신경외과의원,02-3789-9790,,1900,0930,1800,0930,1800,0930,1800,0930,1800,0930,1200,0930,,,,,37.562950931762465,126.97466020763375
대구광역시 북구 침산로 138 (침산동),C,0,,명성연합신경외과의원,053-358-7272,,1900,0900,1900,0900,1900,0900,1900,0900,1900,0900,1300,0900,,,1300,0900,35.888752499792716,128.5917712659173
"경기도 의왕시 원골로 3, 3층 (오전동, 주원빌딩)",C,0,,제일신경외과의원,031-427-7575,,1900,0900,1900,0900,1900,0900,1900,0900,1900,0900,1500,0900,1300,0900,,,37.3581453103059,126.96674660276409
"경기도 군포시 산본로 341, 302,303,304호 (산본동, 현대코아텔)",C,0,,박정민신경과의원,031-399-7399,,1800,0900,1800,0900,1800,0900,1400,0900,1800,0900,1400,0900,,,,,37.36087867796557,126.93238056340246
경기도 수원시 권선구 경수대로 346 (권선동),C,0,,새한신경외과의원,031-233-8484,,1800,0900,1800,0900,1800,0900,1800,0900,1800,0900,1300,0900,,,,,37.25731112936512,127.02297087599966
"전라남도 여수시 남산로 126, 2층 (서교동, 성흔빌딩)",C,0,,한우리신경외과의원,061-643-3366,,1800,0830,1800,0830,1800,0830,1800,0830,1800,0830,1300,0830,,,,,34.7400872612,127.7280056742
"전라남도 여수시 망마로 25, 4층 (학동)",C,0,,바로본신경외과의원,061-685-8576,,2000,0900,2000,0900,2100,0900,2000,0900,2000,0900,1500,0900,,,,,34.7634360794334,127.66249530337659
"대구광역시 달서구 계대동문로 124, 2층 (이곡동)",C,0,,내맑은신경과의원,053-587-0009,,1900,0900,1900,0900,1900,0900,1900,0900,1900,0900,1400,0900,,,,,35.855088056000014,128.50590857480014
"충청북도 청주시 서원구 구룡산로 311, 2층 (수곡동)",C,0,,수곡신경외과의원,043-298-7582,,1830,0900,1830,0900,1230,0900,1830,0900,1830,0900,1230,0900,,,,,36.61872358768021,127.47900140677598
"경상남도 진주시 진주대로816번길 18-1, 명성빌딩 2층 (주약동)",C,0,,진주신경과의원,055-762-0945,,1800,0900,1800,0900,1800,0900,1800,0900,1800,0900,,,,,,,35.1739361408,128.095730854
"제주특별자치도 제주시 연삼로 342, 2층 (도남동)",C,0,,고영관신경외과의원,064-742-7572,,1730,0830,1730,0830,1730,0830,1730,0830,1730,0830,1230,0830,,,,,33.48797023367231,126.4768790819604
"인천광역시 서구 원적로 103, 2층 (가좌동)",C,0,,가좌신경외과의원,032-577-4215,,1900,0930,1900,0930,1900,0930,1900,0930,1900,0930,1530,0930,,,,,37.495655181453955,126.68269385466735
"서울특별시 동대문구 망우로 123, 4층 (휘경동)",C,0,,현대척신경외과의원,02-2216-9222,,1830,0930,1830,0930,1830,0930,1830,0930,1830,0930,1500,0900,,,,,37.5917126215,127.0665963249
울산광역시 북구 호계6길 34 (호계동),C,0,호계역 앞,미래신경외과의원,052-298-7582,,1900,0900,1900,0900,1900,0900,1900,0900,1900,0900,1300,0900,,,,,35.622353464583035,129.35492722529685
서울특별시 강동구 천호대로 1201  (길동),C,0,둔촌고교입구 교차로 국민은행 맞은편,바로나신경외과의원,02-486-7582,,1830,0900,1830,0900,1830,0900,1830,0900,1830,0900,1300,0900,,,,,37.535198337642235,127.14444989776785
"서울특별시 동대문구 사가정로 148, 104~108호 (전농동)",C,0,,토마스신경과의원,02-3394-4430,,1800,0930,1800,0930,1800,0930,1800,0930,1800,0930,1300,0930,,,,,37.57749701462936,127.05889430969557
강원도 삼척시 진주로 28-41 (남양동),C,0,중앙시장 안쪽 새마을 금고 3층,문희태신경외과의원,033-574-8575,,1800,0900,1800,0900,1300,0900,1800,0900,1800,0900,1300,0900,,,,,37.44263199178003,129.16464801895432
부산광역시 중구 대청로 109 (대청동1가),C,0,버스정류장: 대청동 부산근대역사관(구 미문화원) 맞은 편,이상익신경과의원,051-464-1373,,1800,0900,1800,0900,1800,0900,1800,0900,1800,0900,1400,0900,,,,,35.1030605817,129.0320313258
대구광역시 북구 칠곡중앙대로 537  (읍내동),C,0,,인성신경과의원,053-323-0018,,1800,0830,1800,0830,1800,0830,1800,0830,1800,0830,1300,0830,,,1300,0900,35.943639434241845,128.5505797474587
"경상북도 상주시 상산로 241, 102호 (남성동, 메디컬센터)",C,0,메디컬센터 1층,박신경외과의원,054-701-0119,,1800,0800,1800,0800,1800,0800,1800,0800,1800,0800,1300,0830,,,,,36.412499010525835,128.1593020290085
"서울특별시 강남구 압구정로 151, 3동 203호 (압구정동)",C,0,,설현욱신경과의원,02-512-1101,,1730,0930,1730,0930,1730,0930,1730,0930,1730,0930,1500,0930,,,,,37.5267850089,127.0244541901
"경상남도 거제시 거제중앙로 1940, 하이프라자 4층 (고현동)",C,0,,차충량신경외과의원,055-636-7755,,1830,0900,1830,0900,1830,0900,1830,0900,1830,0900,1300,0900,,,,,34.8911470189,128.6220772907
부산광역시 금정구 두실로 36 (남산동),C,0,버스정류장: 남산119안전센터 사거리 ,최진섭신경외과의원,051-515-4845,,1800,0930,1800,0930,1800,0930,1800,0930,1800,0930,1300,0930,,,1300,0930,35.261083441294566,129.08758662255343
경상북도 포항시 남구 오천읍 장기로 1691,C,0,,오천제통신경외과의원,054-292-7585,,1800,0900,1800,0900,1800,0900,1800,0900,1800,0900,1230,0900,,,1230,0900,35.965962611793294,129.41621516359146
"경상북도 포항시 북구 대신로 48, 2층 (대신동)",C,0,,장상섭신경과의원,054-614-0070,,1800,0830,1800,0830,1800,0830,1800,0830,1800,0830,1300,0830,,,,,36.048474402227626,129.36799431848712
"광주광역시 동구 중앙로 288, (계림동)",C,0,계림동 소재 광주고등학교 옆,가나신경외과의원,062-226-8801,,1800,0900,1800,0900,1800,0900,1800,0900,1800,0900,1200,0900,,,,,35.15738876511873,126.92091775459676
경상남도 고성군 고성읍 동외로 175 (양강빌딩),C,0,,시원신경외과의원,055-673-8338,,1800,0830,1800,0830,1800,0830,1800,0830,1800,0830,1300,0830,,,,,34.9769096606,128.3259009591
"충청북도 청주시 서원구 사직대로 123, 3층 (사창동)",C,0,사창사거리,선하신경과의원,043-274-8135,,1830,0830,1830,0830,1300,0830,1830,0830,1830,0830,1300,0830,,,,,36.63524542967755,127.4610571988086
서울특별시 강남구 압구정로 214  (신사동),C,0,,연세오원석신경과의원,02-547-2360,,1800,0900,1800,0900,1800,0900,1800,0900,1800,0900,1300,0900,,,,,37.527994487818226,127.03073566616045
"경기도 수원시 팔달구 권광로 146, 5층 (인계동, 보성빌딩)",C,0,,연세신경과의원,031-898-7675,,1800,1000,1800,1000,1300,1000,1800,1000,1800,1000,1300,1000,,,,,37.2604626641,127.0318576393
"경기도 수원시 팔달구 중부대로 43, 3,4층 (지동)",C,0,,장우영신경외과의원,031-253-8275,,1900,0900,1900,0900,1900,0900,1900,0900,1900,0900,1600,0900,,,,,37.275559194,127.0217838812
"경기도 용인시 수지구 풍덕천로 122, 403-1호 (풍덕천동, 하나로프라자)",C,0,,맑은신경과의원,031-266-7501,,1800,0900,1800,0900,1800,0900,1800,0900,1800,0900,1300,0900,,,,,37.32250264833024,127.09557471660226
경상북도 상주시 동수1길 19 (무양동),C,0,,연세S신경외과의원,054-535-8275,,1800,0850,1800,0850,1800,0850,1800,0850,1800,0850,1300,0850,,,,,36.41978735413288,128.15211548266555
전라남도 여수시 좌수영로 15-1 (서교동),C,0,,이신경외과의원,061-641-4535,,1800,0830,1800,0830,1800,0830,1800,0830,1800,0830,1200,0830,,,1200,0830,34.741804001764834,127.72769588318432
"제주특별자치도 제주시 중앙로 366, 2층 (이도이동)",C,0,,김래상신경외과의원,064-725-8275,,1900,0900,1900,0900,1900,0900,1900,0900,1900,0900,1300,0900,,,,,33.48921857841012,126.53847473733299
경상북도 포항시 북구 용당로 19 (용흥동),C,0,,제일신경외과의원,054-273-0911,,1900,0900,1900,0900,1900,0900,1900,0900,1900,0900,1300,0900,,,,,36.03028472020002,129.35686747650328
"서울특별시 금천구 시흥대로153길 99, 2층 (가산동)",C,0,두산위브아파트 정문 맞은편/,마디엔신경외과의원,02-869-8275,,1830,0900,1830,0900,1830,0900,1830,0900,1830,0900,1200,0900,,,,,37.47578573098306,126.89335926463316
전라남도 여수시 중앙로 6-1 (서교동),C,0,여수 서시장 앞 전화국옆.,홍신경외과의원,061-642-4480,,1800,0830,1800,0830,1800,0830,1800,0830,1800,0830,1300,0830,,,1300,0830,34.740219187958125,127.72825035276739
광주광역시 서구 금화로 90  (금호동),C,0,,홍신경외과의원,062-682-0037,,1830,0900,1830,0900,1830,0900,1830,0900,1830,0900,1230,0900,,,,,35.13190492038087,126.85854336226589
전라남도 영광군 영광읍 옥당로 177,C,0,영광경찰서 인근 ,서울신경외과의원,061-351-3341,,1700,0840,1700,0840,1700,0840,1700,0840,1700,0840,1300,0840,,,,,35.2777761472988,126.50005379692226
강원도 태백시 황지로 90 (황지동),C,0,황지동 삼성생명 맞은편,김수일신경외과의원,033-553-7055,,1730,0830,1730,0830,1730,0830,1730,0830,1730,0830,1230,0830,,,,,37.16674405546222,128.99217118724084
"대구광역시 달서구 달구벌대로 1762, 302호 (두류동)",C,0,"대구광역시 달서구 두류2동 148- 1 두류메디칼타뭐 3층
(302호)",대경신경과의원,053-624-0119,,1800,0900,1800,0900,1800,0900,1800,0900,1800,0900,1600,0900,,,,,35.85726170984496,128.55851898981854
대구광역시 달성군 유가읍 테크노상업로 98,C,0,,연세마디신경외과의원,053-614-5355,,1900,0900,2100,0900,1900,0900,2100,0900,1900,0900,1400,0900,,,,,35.69323315,128.4600981036
"전라남도 순천시 이수로 321, 6층 (조례동)",C,0,,황인용신경과의원,061-724-5577,,1800,0810,1800,0810,1800,0810,1800,0810,1800,0810,1300,0810,,,,,34.9541373517,127.5192451831
"대구광역시 북구 동북로 172, 2층 (산격동)",C,0,,늘편한신경외과의원,053-952-2345,,1830,0900,1830,0900,1830,0900,1830,0900,1830,0900,1300,0900,,,,,35.898879082705754,128.6113439200257
전라남도 순천시 중앙로 21 (저전동),C,0,장천동 동사무소 인근,순천신경외과의원,061-744-7575,,1800,0830,1800,0830,1800,0830,1800,0830,1800,0830,1100,0830,,,,,34.94821609854632,127.48638352645088
"대구광역시 달서구 월배로 175, 우리빌딩 3,7층 302,701,702호 (상인동)",C,0,,완쾌신경과의원,053-642-2123,,1630,0900,1630,0900,1630,0900,1630,0900,1630,0900,1300,0900,,,,,35.81753431864361,128.5326869897616
"경상남도 거창군 거창읍 거열로 116, 2층 (경남은행)",C,0,,척바른신경외과의원,055-945-2220,,2000,0900,2000,0900,1800,0900,2000,0900,1800,0900,1300,0900,,,,,35.6886070179,127.9065111292
서울특별시 강북구 도봉로77길 9,C,0,"수유역푸르지오시티 길 건너편, KB국민은행 옆",이창훈신경과의원,02-987-2616,,1830,0930,1830,0930,1830,0930,1830,0930,1830,0930,1400,0930,,,,,37.63350331474731,127.0227613522623
"경상남도 창원시 진해구 웅천동로106번길 31, 센텀빌딩 3층 (남문동)",C,0,,서울센텀신경외과의원,055-547-3300,,,,,,,,,,,,,,,,,,35.10524627576645,128.7528519105372
"대구광역시 달서구 달구벌대로 1852, 1,6,7층 (두류동)",C,0,,이시우신경외과의원,053-652-0119,,1800,0900,1800,0900,1800,0900,1800,0900,1800,0900,1300,0900,,,,,35.860480555555554,128.567408333333333
"충청북도 청주시 흥덕구 대농로 70, 2층 205호 (복대동)",C,0,흥덕구청 옆/점심 13~14시,성모신경외과의원,043-904-7582,,1900,0930,1900,0930,1900,0930,1900,0930,1900,0930,1400,0930,,,,,36.6415213439,127.4300977938
"부산광역시 부산진구 중앙대로 761, 2층 (부전동)",C,0,1호선 부전역 1번출구,바른신경외과의원,051-819-7582,,,,,,,,,,,,,,,,,,35.16044840397623,129.06096626643176
경기도 수원시 팔달구 중부대로 190 (인계동),C,0,"라마다호텔 옆건물 , 마이웨딩홀 맞은편",권혜영신경과의원,031-215-2938,,1830,0930,1830,0930,1830,0930,1830,0930,1830,0930,1300,0930,,,,,37.27670879601666,127.03680316110294
"충청북도 청주시 청원구 오창읍 2산단로 142, 402호",C,0,부영6단지 앞 파리바게트 4층,더나은신경외과의원,043-213-7582,,1900,0900,1900,0900,1900,0900,1900,0900,1900,0900,1400,0900,,,,,36.73395442708382,127.45162903313458
울산광역시 동구 방어진순환도로 799 (전하동),C,0,,안신경외과의원,052-235-4900,,1900,0900,1900,0900,1900,0900,1900,0900,1900,0900,1330,0900,,,1300,0900,35.513202777777778,129.430749999999989
"부산광역시 사하구 낙동대로 161, 지하1층일부지상1층 (괴정동)",C,0,1호선 대티역 2번 출구,사하신경외과의원,051-203-1302,,1830,0900,1830,0900,1300,0900,1830,0900,1830,0900,1230,0900,,,,,35.102278278786756,128.99865433480102
"서울특별시 강남구 논현로 853, 클리닉나인빌딩 지하1층,지상2~6층 (신사동)",C,0,,연세더바로신경외과의원,02-6353-5000,,1830,0930,1830,0930,1830,0930,1830,0930,1830,0930,1330,0930,,,,,37.5251047307,127.0280963472
부산광역시 금정구 가마실로 21-1 (부곡동),C,0,버스정류장: 부곡시장,든든한덕모신경외과의원,051-513-5666,,1830,0900,1830,0900,1830,0900,1830,0900,1830,0900,1400,0900,,,,,35.22484954931114,129.09138006928867
"경기도 안산시 단원구 광덕대로 138, 305~309호 (고잔동, 골든에이스프라자)",C,0,,젊은신경과의원,031-483-7075,,1800,0900,1800,0900,1800,0900,1800,0900,1800,0900,1300,0900,,,,,37.3087026876,126.8306113476
부산광역시 서구 구덕로 113 (충무동1가),C,0,,토머스신경외과의원,051-255-7222,,1700,0900,1700,0900,1700,0900,1700,0900,1700,0900,,,,,,,35.09638179577013,129.02363862553614
"경기도 안산시 상록구 예술광장로 35, 5층 501호 (월피동)",C,0,,임신경외과의원,031-491-4500,,1800,0900,1800,0900,1800,0900,1800,0900,1800,0900,1300,0900,,,,,37.3280981812997,126.84774526138756
"서울특별시 중구 퇴계로 320, 7층(광희동2가, S/W 빌딩)",C,0,광희동사거리 sw빌딩 7층,선우엔조신경과의원,02-2268-1400,,1730,0900,1730,0900,1730,0900,1730,0900,1730,0900,1300,0900,,,,,37.5639120755,127.0074612318
강원도 동해시 동해대로 5461 (평릉동),C,0,동해산재병원에서 100m(해군 1함대 사령부 옆),백신경외과의원,033-533-8181,,1800,0900,1800,0900,1800,0900,1800,0900,1800,0900,1300,0900,,,,,37.529595695349926,129.10449363347308
"서울특별시 강동구 구천면로 403, 지하1,2~5층 (명일동, 명일동메디컬빌딩)",C,0,명일역 1번 출구,박종수신경외과의원,02-476-0199,,1900,0900,1900,0900,1900,0900,1900,0900,1900,0900,1400,0900,,,,,37.5508833638,127.143354703
"대구광역시 중구 달성로 37, (대신동)",C,0,,임정근신경과의원,053-422-2590,,1830,0900,1830,0900,1830,0900,1830,0900,1830,0900,1300,0930,,,,,35.86851324542298,128.58191920640965
"대구광역시 중구 중앙대로 359, 1층 (남산동, 반월당메티칼오피스타워)",C,0,,두신경과의원,053-252-2225,,1800,0900,1800,0900,1800,0900,1800,0900,1800,0900,1300,0900,,,,,35.86508382867707,128.59288496149412
"대구광역시 달서구 월배로 180, 4층 (상인동)",C,0,,예신경과의원,053-638-9119,,1830,0930,1830,0930,1830,0930,1830,0930,1830,0930,1300,0930,,,,,35.817268966177764,128.53354256113917
"서울특별시 강남구 학동로 206 (논현동, 동화빌딩4층)",C,0,학동역 2번출구 동화빌딩 4층,서울성모신경외과의원,02-3481-8275,,1800,0830,1800,0830,1800,0830,1800,0830,1800,0830,1400,0830,,,,,37.5139025955,127.0315216604
부산광역시 부산진구 새싹로 10-1 (부전동),C,0,"1,2호선 서면역 13번 출구 ",가온신경외과의원,051-714-2288,,1900,0900,1900,0900,1900,0900,1900,0900,1900,0900,1330,0900,,,,,35.15905419507222,129.05837652551764
"제주특별자치도 서귀포시 대정읍 하모중앙로 76, 2층",C,0,,조재익신경외과 의원,064-792-1224,,1830,0830,1830,0830,1830,0830,1830,0830,1830,0830,1300,0830,,,,,33.22137647963174,126.25181454363051
경상남도 통영시 안개로 45-10 (무전동),C,0,진주빌라 옆 건물,통영신경외과의원,055-641-7901,,1800,0900,1900,0900,1800,0900,1900,0900,1800,0900,1300,0900,,,1300,0900,34.859731667594474,128.43056417145635
부산광역시 사하구 사하로 163  (괴정동),C,0,버스정류장:괴정동뉴코아에서 다대포방향으로 200m에위치,세림신경외과진단검사의학과의원,051-262-4600,,1800,0900,1800,0900,1800,0900,1800,0900,1800,0900,1300,0900,,,,,35.096487941818694,128.99345197648813
"경기도 구리시 이문안로 128 9차 3층 (토평동, 새롬프라자)",C,0,,구리성심신경외과의원,031-553-7577,,1900,0900,1900,0900,1900,0900,1900,0900,1900,0900,1300,0900,,,1300,0900,37.59110103236481,127.1455831255842
충청북도 괴산군 괴산읍 괴강로 19,C,0,"일요일 장날만 진료, 통화 후 방문토록",괴산신경외과의원,043-834-7582,,1800,0900,1800,0900,1800,0900,1800,0900,1800,0900,1400,0900,,,,,36.8096172542,127.7966656549
"경기도 용인시 수지구 광교중앙로 294, 304호 (상현동, 엘리치안빌딩)",C,0,엘리치안빌딩 3층,하버드신경과의원,031-225-3080,,1800,0900,1800,0900,1800,0900,1800,0900,1800,0900,1400,0900,,,,,37.29607741218334,127.06925816487148
"경기도 구리시 이문안로 140 (토평동, 아카시아신경외과)",C,0,,아카시아신경외과의원,031-569-7542,,1800,0900,1800,0900,1800,0900,1800,0900,1800,0900,1400,0900,,,,,37.59090476320666,127.14691882108248
전라북도 군산시 대야면 대야시장로 16 ,C,0,대야시장 내,참사랑신경과의원,063-451-9222,,1720,0900,1720,0900,1720,0900,1720,0900,1720,0900,1230,0900,,,,,35.944810270755326,126.81676783528672
"전라북도 정읍시 중앙로 145-7, 2층 (수성동)",C,0,,유일신경외과의원,063-537-4488,,1730,0830,1730,0830,1730,0830,1730,0830,1730,0830,1230,0830,,,,,35.5659685786,126.8548213153
"경기도 의정부시 오목로 207, 정원빌딩 3층 (민락동)",C,0,,허필우신경외과의원,031-853-6611,,1800,0900,1800,0900,1800,0900,1800,0900,1800,0900,1300,0900,,,,,37.7449145027,127.0985887282
경기도 수원시 팔달구 정조로 900 (북수동),C,0,,유계희신경외과의원,031-241-1141,,1800,0830,1800,0830,1800,0830,1800,0830,1800,0830,1400,0830,,,,,37.288433333333330,127.014869444444443
충청북도 청주시 흥덕구 가경로 9-19  (가경동),C,0,-가경동 홈플러스 옆,굿모닝신경외과의원,043-239-7533,,1900,0900,1900,0900,1900,0900,1900,0900,1900,0900,1600,0900,,,,,36.61615510690338,127.4430425340527
경상북도 영덕군 영해면 예주시장길 10,C,0,영해시외버스터미널 앞,김연수신경외과의원,054-732-7600,,1800,0830,1800,0830,1800,0830,1800,0830,1800,0830,1300,0830,,,,,36.5384519993,129.40519887
제주특별자치도 제주시 월랑로 3 (노형동),C,0,,박지욱신경과의원,064-747-6119,,1800,0900,1800,0900,1800,0900,1800,0900,1800,0900,1200,0900,,,,,33.486480437791705,126.4784977207665
대구광역시 달성군 화원읍 비슬로 2727,C,0,,척앤추제일신경외과의원,053-753-1110,,1900,0900,1900,0900,1900,0900,1900,0900,1900,0900,1700,0900,,,1300,0900,35.80994753904658,128.51305219545156
"부산광역시 부산진구 신암로 1, 4층 (범천동)",C,0,버스정류장:범천동 우체국,정성원신경외과의원,051-637-9200,,1800,0900,1800,0900,1800,0900,1800,0900,1800,0900,1300,0900,,,,,35.14218961544768,129.05573555886053
"광주광역시 서구 경열로 107, 1,3층 (양동)",C,0,돌고개역 버스정류장 건너편,중앙신경외과의원,062-526-8275,,1830,0900,1830,0900,1830,0900,1230,0900,1830,0900,1430,0900,,,1200,0900,35.15270232102507,126.89740917317328
경상북도 포항시 북구 중흥로 319,C,0,,이용희신경과의원,054-272-3777,,1800,0900,1800,0900,1800,0900,1800,0900,1800,0900,1300,0900,,,,,36.0308450489947,129.36407828226146
"전라남도 여수시 망마로 15, 2,3,4,5층 (학동)",C,0,"2,3.4,5층",최광영신경외과의원,061-682-0086,,1800,0830,1800,0830,1800,0830,1800,0830,1800,0830,1300,0830,,,1300,0830,34.760707776360995,127.66509598023121
"경기도 의정부시 천보로 38, 4층 405호 (민락동)",C,0,,SH통증제로신경외과의원,031-851-0715,,1900,0930,1900,0930,1900,0930,1900,0930,1900,0930,1400,0900,1300,0900,,,37.74403659210003,127.0968584355
"경상북도 안동시 경동로 559, 1층 (당북동)",C,0,"당북동 안동우체국 건너편, 안동내과 1층소재",굿모닝연합신경과통증의학과의원,054-842-7582,,1800,0900,1800,0900,1800,0900,1800,0900,1800,0900,1300,0900,,,,,36.56393250051044,128.7189781011634
"대구광역시 달서구 월배로 168, 아보스타워 4층 403호 (상인동)",C,0,,두웰신경과의원,053-642-5757,,1830,0900,1830,0900,1830,0900,1830,0900,1830,0900,,,,,,,35.816707510622834,128.53229932337348
대구광역시 중구 달구벌대로415길 25 (계산동2가),C,0,,이상도신경과의원,053-252-0418,,1800,0900,1800,0900,1500,0900,1800,0900,1800,0900,,,,,,,35.867458871572836,128.589942213998
"부산광역시 서구 구덕로 312, 3,4층 (동대신동2가)",C,0,1호선 동대신역 1번출구,서영준신경외과의원,051-715-8755,,1900,0900,1900,0900,1900,0900,1900,0900,1900,0900,1400,0900,,,,,35.1119235285,129.0172047693
"경기도 용인시 수지구 만현로 103, 302~303호 (상현동, 한길프라자)",C,0,,진수신경외과의원,031-266-7200,,1900,0900,1900,0900,1900,0900,1900,0900,1900,0900,1300,0900,,,,,37.30738431481727,127.08543998775997
"서울특별시 강남구 테헤란로 413, 태양빌딩, 2층일부 (삼성동)",C,0,선릉역 10번출구,에이케이신경외과의원,02-555-5757,,1900,1000,1900,1000,1900,1000,1900,1000,1900,1000,1400,1000,,,,,37.5055811988,127.0512831734
경상남도 통영시 안개1길 44 (무전동),C,0,무전동소방서 부근,충무제일신경외과의원,055-642-4201,,1800,0830,1800,0830,1800,0830,1800,0830,1800,0830,1230,0830,,,,,34.8593299058898,128.42947251686405
"서울특별시 동대문구 왕산로 167, 1층 (제기동)",C,0,,위풍당당신경외과의원,02-966-8275,,1900,0900,1900,0900,1900,0900,1900,0900,1900,0900,1400,0900,,,,,37.579416482853404,127.04168831279182
서울특별시 강동구  양재대로  1477 (길동),C,0,길동역 1번출구 우리은행 건물 6층,김형철신경과의원,02-478-5856,,1830,0930,1830,0930,1300,0930,1830,0930,1830,0930,1300,0930,,,,,37.5377692256,127.1396817492
충청북도 청주시 흥덕구 대농로 56 (복대동),C,0,솔밭초 부근,브레인신경과의원,043-238-7588,,1800,0900,1800,0900,1800,0900,1800,0900,1800,0900,1400,0900,,,,,36.6415850105596,127.4284342476708
"대구광역시 북구 학정로 419, 3층 304호 (동천동)",C,0,,굿모닝신경과의원,053-323-0075,,1800,0900,1800,0900,1800,0900,1800,0900,1800,0900,1400,0900,,,,,35.94208968526428,128.5630804491422
"대전광역시 중구 계백로 1715, 201호 (오류동)",C,0,,제일신경과의원,042-286-7582,,1830,0900,1830,0900,1930,0900,1830,0900,1830,0900,1300,0900,,,,,36.32207951834248,127.40984068699407
충청남도 태안군 태안읍 동문1길 15,C,0,서산수협 바로 뒤,이신경외과의원,041-674-6006,,1600,0800,1600,0800,1600,0800,1600,0800,1600,0800,1300,0800,,,,,36.7497302623834,126.3019689221023
전라남도 순천시 중앙로 70 (장천동),C,0,중앙병원 앞,이백현신경외과의원,061-755-1100,,1900,0900,1900,0900,1900,0900,1900,0900,1900,0900,1330,0830,,,1300,0900,34.951869700655315,127.48416079979434
"서울특별시 강남구 일원로 53, 소림빌딩 2층 (일원동)",C,0,,심신경외과의원,02-6925-3736,,1900,0900,1900,0900,1900,0900,1900,0900,1900,0900,1500,0900,,,,,37.48926299528938,127.08181088280385
"전라북도 정읍시 우암로 15-1, 2~3층 (시기동)",C,0,,아나파신경과의원,063-927-8114,,1700,0830,1700,0830,1700,0830,1700,0830,1700,0830,1230,0830,,,,,35.5649580558,126.8539362727
"서울특별시 강남구 선릉로 669, 상경빌딩 7,8층 (논현동)",C,0,상경빌딩 8층,청담마디신경외과의원,02-547-7533,,1830,0900,1830,0900,1830,0900,1830,0900,1830,0900,1400,0900,,,,,37.51657695447195,127.04118362268083
"대구광역시 달서구 달구벌대로251길 33, 302호 (이곡동)",C,0,,성서제일신경외과의원,053-585-7276,,1900,0900,1900,0900,1900,0900,2000,1400,1900,0900,1400,0900,,,,,35.8551570897,128.5047143723
"대전광역시 대덕구 대덕대로 1610, 2층 (석봉동)",C,0,,제일신경외과의원,042-934-8118,,1900,0900,1900,0900,1900,0900,1900,0900,1900,0900,1230,0900,,,,,36.45045119871708,127.42674720229388
"서울특별시 강북구 도봉로 217, 2,3,4층 (미아동)",C,0,미아역 8번 출구,성모더원신경외과의원,02-980-1275,,2000,0900,2000,0900,2000,0900,2000,0900,2000,0900,,,,,,,37.6280566256,127.0251126558
서울특별시 종로구 종로 221 (종로5가),C,0,종로5가역 4번 출구,연세종로신경외과의원,02-747-7585,,1800,0800,1800,0800,1800,0800,1800,0800,1800,0800,1300,0800,,,,,37.57126801870001,127.00228658529998
대구광역시 북구 침산로 128  (침산동),C,0,,이재봉신경과의원,053-353-0007,,1800,0900,1800,0900,1800,0900,1800,0900,1800,0900,1400,0900,,,,,35.88742864623283,128.5920518741526
서울특별시 강북구 한천로 1073 (수유동),C,0,,고신경외과의원,02-993-0000,,1800,0900,1800,0900,1800,0900,1800,0900,1800,0900,1300,0900,,,,,37.64199697489161,127.0236489210846
충청북도 청주시 흥덕구 대농로 17,C,0,지웰시티 상가건물 3층,지웰신경외과의원,043-238-8585,,1800,0900,1800,0900,1800,0900,1800,0900,1800,0900,1300,0900,,,,,36.64371655709317,127.4267885713804
"전라남도 무안군 삼향읍 남악4로34번길 6, 2층 210호211호호 (에드가채움 주상복합 아파트)",C,0,,삼성맑은신경과의원,061-283-1717,,1800,0900,1800,0900,1800,0900,1300,0900,1800,0900,1300,0900,,,,,34.80745196000086,126.46642892732308
"대구광역시 달서구 한실로 75, 3층 (도원동)",C,0,,중앙신경외과의원,053-642-9400,,1800,0900,1800,0900,1800,0900,1800,0900,1800,0900,1300,0900,,,,,35.80722245138533,128.53494029833985
전라북도 부안군 부안읍 석정로 221,C,0,부안고속터미널 사거리,한국신경외과의원,063-584-9200,,1730,0800,1730,0800,1730,0800,1730,0800,1730,0800,1300,0800,,,,,35.72607689270345,126.7378268630171
"경상북도 청송군 청송읍 금월로 265,",C,0,청송읍 파출소옆,대구신경과의원,054-873-1407,,1830,0830,1830,0830,1800,0830,1830,0830,1830,0830,1300,0830,,,,,36.4327415489,129.0560106441
강원도 횡성군 둔내면 경강로둔방8길 2,C,0,,삼성신경외과의원,033-343-0222,,1800,0900,1800,0900,1800,0900,1300,0900,1800,0900,1400,0900,,,,,37.5130240037,128.2125077511
제주특별자치도 제주시 서광로 263 (삼도일동),C,0,,박경식신경외과의원,064-755-1155,,1800,0900,1800,0900,1800,0900,1800,0900,1800,0900,1300,0900,,,,,33.50021899271509,126.52458615271308
"경기도 군포시 군포로 487, 2,3층 (당동, 동영프라자)",C,0,동영프라자2층,성심신경외과의원,031-391-1488,,1900,0900,1900,0900,1900,0900,1900,0900,1900,0900,1300,0900,,,,,37.349951839414146,126.94410966681001
경기도 여주시 세종로45번길 6 (홍문동),C,0,,제일신경외과의원,031-885-6600,,1800,0900,1800,0900,1800,0900,1300,0900,1800,0900,1300,0900,,,1400,0900,37.293513042995315,127.63667904435688
경상북도 상주시 삼백로 89,C,0,,김원기신경외과의원,054-536-7545,,1800,0830,1800,0830,1800,0830,1800,0830,1800,0830,1300,0830,,,,,36.418676375800636,128.15332106993782
"충청북도 음성군 대소면 오태로 71, 1~2층",C,0,,대소신경외과의원,043-883-7112,,1830,0830,1830,0830,1830,0830,1830,0830,1830,0830,1300,0830,,,,,36.9688809737,127.4837243889
부산광역시 부산진구 연수로 25 (양정동),C,0,"1호선 양정역 6,8번출구/양정로타리 망미동 방향200m",튼튼신경외과의원,051-991-1117,,1930,0900,1830,0900,1930,0900,1830,0900,1830,0900,1430,0900,1200,0900,,,35.17412004394517,129.07388896586877
경상북도 안동시 경동로 906 (용상동),C,0,,늘편한신경외과의원,054-822-0700,,1800,0900,1800,0900,1800,0900,1800,0900,1800,0900,1300,0900,,,,,36.5569865066,128.7541658206
"경기도 의정부시 회룡로 137, 301호 (호원동, 거원빌딩)",C,0,,예신경외과의원,031-872-8575,,2000,0900,2000,0900,2000,0900,2000,0900,2000,0900,1500,0900,,,,,37.7261046316974,127.04916288176219
"충청북도 청주시 흥덕구 풍산로48번길 6, 2층 (가경동)",C,0,청주축협 가경지점 맞은편,조은신경외과의원,043-234-5321,,1900,0840,1900,0840,1900,0840,1900,0840,1900,0840,1400,0840,,,,,36.62684555397749,127.43554364293395
강원도 평창군 진부면 진부중앙로 84,C,0,,박찬우신경외과의원,033-336-7017,,1800,0830,1800,0830,1800,0830,1800,0830,1800,0830,1300,0830,,,,,37.63853532499971,128.55999991611722
"강원도 철원군 동송읍 이평로 54, 한양신경외과의원산부인과",C,0,롯데리아 사거리에서 우동리 방향 좌측,한양신경외과의원,033-455-7360,,1700,0830,1700,0830,1700,0830,1700,0830,1700,0830,1230,0830,,,,,38.20969074092286,127.218025780329
"부산광역시 부산진구 가야대로 462, 1~2층,4~6층 (개금동)",C,0,2호선 개금역 11번 출구/미래산부인과 옆건물,조은신경외과의원,051-893-8200,,1800,0900,1800,0900,1800,0900,1800,0900,1800,0900,1300,0900,,,,,35.15292777777778,129.02241944444566
"서울특별시 강남구 선릉로64길 20, 4층 (대치동)",C,0,한티역 2번 출구 국제코어필라테스협회 옆건물,허브신경과의원,02-6012-7840,,1900,0940,2000,0940,1900,0940,1500,0940,2000,0940,1500,0940,,,,,37.4979466916708,127.05394679374064
경기도 수원시 팔달구 정조로 788 (팔달로2가),C,0,,수원연세신경과의원,031-271-1260,,1800,0930,1800,0930,1800,0930,1800,0930,1800,0930,1300,0930,,,,,37.278327793447566,127.01697369818078
"경기도 의정부시 평화로 228, 202호 (호원동, 로뎀프라자)",C,0,망월사역 1번출구 건너편 농협 건물,고려신경외과의원,031-855-1710,,1830,0830,1830,0830,1830,0830,1830,0830,1830,0830,1530,0830,,,,,37.71225430245941,127.04781767741629
