주소,분류,응급여부,간이약도,이름,Tel,Tel_E,월close,월open,화close,화open,수close,수open,목close,목open,금close,금open,토close,토open,일close,일open,공close,공open,위도,경도

"서울특별시 은평구 통일로 935, 은평장례식장 C동 (갈현동)",D,0,,은평요양병원,02-384-2311,,1800,0900,1800,0900,1800,0900,1800,0900,1800,0900,1300,0900,,,,,37.62650738301746,126.91952064445857

인천광역시 중구 연안부두로21번길 11-12 (항동7가),D,0,,고은요양병원,032-715-5933,,1800,0900,1800,0900,1800,0900,1800,0900,1800,0900,1500,0900,,,,,37.4557300319,126.6050354151

인천광역시 중구 개항로 82 (경동),D,0,,예지요양병원,032-773-6035,,1800,0900,1800,0900,1800,0900,1800,0900,1800,0900,1700,0900,,,,,37.47156846022992,126.63170899628633

"인천광역시 중구 우현로62번길 30 (경동, 지하1층, 1층, 2층, 3층)",D,0,,인천삼성요양병원,032-721-7575,,1800,0900,1800,0900,1800,0900,1800,0900,1800,0900,1200,0900,,,,,37.4722223525757,126.6307640848303

"인천광역시 중구 영종대로 106, 지하1층(일부), 5~6층, 8~10층 (운서동)",D,0,공항신도시 롯데마트부근,힐락암요양병원,032-746-8100,,1800,0900,1800,0900,1800,0900,1800,0900,1800,0900,1200,0900,,,,,37.49491950417052,126.49090904975

전라북도 순창군 순창읍 순창로 105,D,0,순창톨게이트에서 읍내방향 100미터,의료법인태종의료재단순창요양병원,063-650-8000,,1730,0830,1730,0830,1730,0830,1730,0830,1730,0830,,,,,,,35.36507809897915,127.14116617346131

"경상남도 창원시 의창구 동읍 의창대로 870-5, 동창원요양병원 1,2,3,4층 지하1층(103호)호",D,0,,동창원요양병원,055-291-2002,,1730,0900,1730,0900,1730,0900,1730,0900,1730,0900,1200,0900,,,,,35.2780840372,128.686708123

경상남도 창원시 의창구 북면 천주로 1092,D,0,,북면이화요양병원,055-293-3311,,1730,0830,1730,0830,1730,0830,1730,0830,1730,0830,,,,,,,35.3480062827,128.6082158247

"경상남도 창원시 의창구 남산로17번길 28, 2층, 3층 (팔용동, 팔용에이스빌딩 2,3층)",D,0,,서라벌요양병원,055-294-1400,,1800,0900,1800,0900,1800,0900,1800,0900,1800,0900,,,,,,,35.26055261027518,128.61439258809818

경상남도 창원시 의창구 사림로45번길 4-11 (사림동),D,0,봉림고교 부근,성미카엘요양병원,055-264-6007,,1800,0900,1700,0900,1700,0900,1700,0900,1700,0900,1300,0900,,,,,35.24782634655048,128.67845592456493

경상남도 창원시 의창구 북면 단내로 499-32,D,0,,시립창원요양병원,055-298-2442,,1700,0800,1700,0800,1700,0800,1700,0800,1700,0800,,,,,,,35.34935408133419,128.5743013477541

경상남도 창원시 의창구 대봉로26번길 12-3 (봉림동),D,0,"창원 의창구 봉림동 주민센터 옆, 창원 컨트리클럽가는길목, 봉곡동 대동 그린코아 근처",시티요양병원,055-270-5500,,1800,0900,1730,0900,1730,0900,1730,0900,1730,0900,1300,0900,,,,,35.251007059074105,128.66845355088765

경상남도 창원시 의창구 동읍 의창대로 882,D,0,,의료법인 자은의료재단 덕산요양병원,055-251-2221,,1730,0900,1730,0900,1730,0900,1730,0900,1730,0900,1200,0900,,,,,35.2783565035,128.6870742484

경상남도 창원시 의창구 남산로1번길 60 (팔용동),D,0,의창사거리 부근,의료법인청민의료재단참사랑요양병원,055-294-7575,,1730,0900,1730,0900,1730,0900,1730,0900,1730,0900,1300,0900,,,,,35.261344444444447,128.616741666666655

"경상남도 창원시 의창구 우곡로217번길 6 (명서동, 2,3,4층)",D,0,the큰병원 부근,자비요양병원,055-288-6300,,1700,0900,1700,0900,1700,0900,1700,0900,1700,0900,1330,0900,,,,,35.239382735822666,128.64848747070778

경상남도 창원시 의창구 의안로2번길 31 (소답동),D,0,39사단 정문 건너편,창산요양병원,055-298-7582,,1800,0900,1700,0900,1700,0900,1700,0900,1700,0900,1300,0900,,,,,35.261649979469546,128.62719554393465

경상남도 창원시 의창구 창원천로94번길 82-18 (대원동),D,0,,푸른요양병원,055-270-8888,,1700,0900,1700,0900,1700,0900,1700,0900,1700,0900,1300,0900,,,,,35.23727706705043,128.65841388122422

"경상남도 창원시 의창구 북면 천주로 785, 행복한병원",D,0,"북면온천 부근, 명당주유소 부근",행복한요양병원,055-259-1112,,1730,0830,1730,0830,1730,0830,1730,0830,1730,0830,1200,0830,,,,,35.32335627849794,128.601969752306

경상남도 창원시 성산구 원이대로393번길 25 (반지동),D,0,반지민원센터 부근,희연요양병원,055-270-2500,,1700,0900,1700,0900,1700,0900,1700,0900,1700,0900,1700,0900,1700,0900,1700,0900,35.23996915376772,128.66253810302106

전라북도 고창군 성내면 이재로 81-9,D,0,성내면 구 북초등학교자리,의료법인정익재단 메디케어요양병원,063-561-6550,,1800,0900,1800,0900,1800,0900,1800,0900,1800,0900,1300,0900,,,,,35.558757862646395,126.7433805574675

광주광역시 동구 증심사길 2 (운림동),D,0,,치유요양병원,062-250-7575,,1730,0900,1730,0900,1730,0900,1730,0900,1730,0900,1200,0900,,,,,35.13348361716874,126.9531400580649

"경상남도 합천군 대양면 대야로 737-20, 1호",D,0,,합천고려요양병원,055-933-1008,,1730,0830,1730,0830,1730,0830,1730,0830,1730,0830,,,,,,,35.5530402822,128.1612791732

경상남도 합천군 합천읍 신소양2길 40,D,0,,합천요양병원,055-933-3400,,1700,0900,1700,0900,1700,0900,1700,0900,1700,0900,,,,,,,35.58112386273627,128.1671476271645

충청남도 서산시 동헌로 15 (석남동),D,0,"금강산 보석 사우나 맞은편, 영진크로바 아파트 옆",우리요양병원,041-665-1166,,1800,0900,1800,0900,1800,0900,1800,0900,1800,0900,,,,,,,36.77110588716495,126.45312942004665

충청남도 서산시 중앙로 149 (석림동),D,0,서산의료원 옆,충청남도도립서산노인전문병원,041-689-7001,,1700,0900,1700,0900,1700,0900,1700,0900,1700,0900,,,,,,,36.77562843927687,126.46500340084463

"경기도 파주시 경의로1240번길 39, 2,3,4층 (와동동, 한미프라자)",D,0,운정역 1번출구,세계로요양병원,031-932-4200,,1730,0930,1730,0930,1730,0930,1730,0930,1730,0930,1500,0930,,,,,37.72835281492071,126.76326384414031

"경기도 파주시 문산읍 문향로 93, 1,3,5,6층",D,0,,소망요양병원,031-954-8275,,1800,0900,1800,0900,1800,0900,1800,0900,1800,0900,,,,,,,37.8599627541,126.7866391385

"경기도 파주시 경의로 1108, 월드타워7 6~9층 (야당동)",D,0,,연세나을암요양병원,031-949-4188,,1800,0900,1800,0900,1800,0900,1800,0900,1800,0900,1300,0900,,,,,37.716165561,126.7602267554

경기도 파주시 방촌로326번길 46 (맥금동),D,0,,연세요양병원,031-944-6123,,1800,0900,1800,0900,1800,0900,1800,0900,1800,0900,1300,0900,,,,,37.77330136094501,126.72713518958008

경기도 파주시 문산읍 화석정로 31,D,0,,예담요양병원,031-953-0000,,1800,0900,1800,0900,1800,0900,1800,0900,1800,0900,,,,,,,37.87655677800443,126.80483203990622

"경기도 파주시 책향기로 830, 월드스퀘어 5-8층 (와동동)",D,0,,운정서울대효요양병원,031-934-2100,,1730,0830,1730,0830,1730,0830,1730,0830,1730,0830,1230,0830,,,,,37.72932874795333,126.76290681327937

경기도 파주시 경의로 1102 (야당동),D,0,,운정한강요양병원,031-942-6262,,1730,0900,1730,0900,1730,0900,1730,0900,1730,0900,,,,,,,37.7157726295,126.7601735818

경기도 파주시 법원읍 술이홀로 1139-67,D,0,,월산암요양병원,031-959-8799,,1700,0900,,,,,1700,0900,1700,0900,1700,0900,,,,,37.8717717146,126.8804889818

경기도 파주시 탄현면 새오리로 215-50,D,0,,자성대요양병원,070-4658-7407,,1730,0830,1730,0830,1730,0830,1730,0830,1730,0830,,,,,,,37.80364018369563,126.68642963774985

경기도 파주시 탄현면 새오리로 215-19,D,0,,자유로요양병원,031-949-9004,,2400,0000,2400,0000,2400,0000,2400,0000,2400,0000,2400,0000,2400,0000,2400,0000,37.802841691593116,126.68700985585012

경기도 파주시 운정로 146-95 (상지석동),D,0,,큰나무요양병원,031-944-2006,,1800,0900,1800,0900,1800,0900,1800,0900,1800,0900,,,,,,,37.71847635110211,126.77902899245173

경기도 파주시 하지석길 45 (교하동),D,0,,파주개성요양병원,031-947-0000,,1800,0900,1800,0900,1800,0900,1800,0900,1800,0900,1400,0900,,,,,37.75473955646636,126.74227297854327

"경기도 파주시 숲속노을로 273, 바이오텍홀딩스 1~7층 (문발동)",D,0,,파주로하스요양병원,031-945-6090,,1800,0900,1800,0900,1800,0900,1800,0900,1800,0900,1300,0900,,,,,37.7248522196,126.7109926815

경기도 파주시 월롱면 통일로 715-2,D,0,,파주보람요양병원,031-942-0600,,2400,0000,2400,0000,2400,0000,2400,0000,2400,0000,,,,,,,37.77306118191819,126.78917068435238

"경기도 파주시 한마음2길 25, 금촌그린플라자 (금촌동)",D,0,,파주삼성요양병원,031-942-8200,,1700,0900,1700,0900,1700,0900,1700,0900,1700,0900,,,,,,,37.75636523679282,126.77218026303397

"경기도 파주시 탄현면 평화로574번길 17, (의)청학의료재단 파주성모병원.요양병원",D,0,,파주성모요양병원,031-8071-1661,,1800,0900,1800,0900,1800,0900,1800,0900,1800,0900,1300,0900,,,,,37.773953454183484,126.72122440556852

"경기도 파주시 금빛로 19, 5,6,7층 (금촌동, 파주프라임타워)",D,0,,파주시티요양병원,031-942-7500,,1730,0830,1730,0830,1730,0830,1730,0830,1730,0830,,,,,,,37.7512761974,126.766458787

"경기도 파주시 파평면 청송로652번길 14, 외2필지",D,0,,한강요양병원,031-944-1797,,1800,0900,1800,0900,1800,0900,1800,0900,1800,0900,,,,,,,37.94216735206594,126.88002922619711

경기도 파주시 파주읍 통일로 1568,D,0,,한사랑요양병원,031-954-7111,,1800,0900,1800,0900,1800,0900,1800,0900,1800,0900,,,,,,,37.84794379231969,126.79078310229214

"경기도 파주시 청석로 260, 트리플메디칼타워 805,806,901호 (동패동)",D,0,,힐링요양병원,031-944-6123,,1800,0900,1800,0900,1800,0900,1800,0900,1800,0900,1200,0900,,,,,37.72508077278059,126.71773809575652

경기도 동두천시 탑신로 536 (탑동동),D,0,,경기도립노인전문동두천병원,031-860-4114,,1800,0900,1800,0900,1800,0900,1800,0900,1800,0900,1300,0900,,,,,37.90039722222222,127.13636666666666

경기도 동두천시 삼육사로 747 (상패동),D,0,,동두천의료소비자생활협동조합우리들요양병원,031-861-5733,,1800,0900,1800,0900,1800,0900,1800,0900,1800,0900,,,,,,,37.934502937600016,127.0635145786

"경기도 동두천시 광암로 7, 동두천제일요양병원 (광암동)",D,0,,동두천제일요양병원,031-860-8800,,1800,0900,1800,0900,1800,0900,1800,0900,1800,0900,1300,0900,,,,,37.895018175664255,127.08274193176729

경기도 동두천시 탑신로 522 (탑동동),D,0,,동원노인전문병원,031-867-4776,,1700,0900,1700,0900,1700,0900,1700,0900,1700,0900,,,,,,,37.900397222222225,127.136366666666660

경기도 동두천시 탑신로 522 (탑동동),D,0,,동원병원,031-870-0701,,1700,0900,1700,0900,1700,0900,1700,0900,1700,0900,1700,0900,,,,,37.9000542376,127.1360976553

경기도 동두천시 삼육사로 1012 (생연동),D,0,,로젠요양병원,031-857-9933,,1800,0900,1800,0900,1800,0900,1800,0900,1800,0900,1300,0900,,,,,37.89932605861936,127.06252226131315

경기도 동두천시 평화로2169번길 24 (송내동),D,0,,로하스요양병원,031-867-8275,,1800,0900,1800,0900,1800,0900,1800,0900,1800,0900,1300,0900,,,,,37.88156491820501,127.05339787852692

경기도 동두천시 천보산로 504 (탑동동),D,0,,서울요양병원,031-863-0900,,1700,0900,1700,0900,1700,0900,1700,0900,1700,0900,1500,0900,1700,0900,1700,0900,37.879933131251825,127.10156920795293

경기도 동두천시 광암로17번길 10 (광암동),D,0,,성지요양병원,031-860-9000,,1500,1000,1500,1000,1500,1000,1500,1000,1500,1000,,,,,,,37.89582467638602,127.08380697021983

경기도 동두천시 강변로 422 (생연동),D,0,,힐링탑요양병원,031-864-9200,,1800,0830,1800,0830,1800,0830,1800,0830,1800,0830,1500,0830,,,1300,0800,37.90683206930665,127.05107371927938

전라남도 광양시 진등길 91 (마동),D,0,마동 송보6차 아파트 부근,광양시공립노인전문요양병원,061-797-8200,,1730,0830,1730,0830,1730,0830,1730,0830,1730,0830,1230,0830,,,,,34.957492697881996,127.69011132362752

"경기도 용인시 기흥구 신정로159번길 60, 신갈백세암요양병원 (신갈동)",D,0,,감인의료재단신갈백세요양병원,031-693-6900,,1800,0900,1800,0900,1800,0900,1800,0900,1800,0900,1200,0900,,,,,37.28682753901771,127.09719403986105

"경기도 용인시 기흥구 구갈로 70 (구갈동, 구갈메가타운 8,9층)",D,0,,강동요양병원,031-282-6262,,1700,1000,1700,1000,1700,1000,1700,1000,1700,1000,,,,,,,37.280475889300604,127.11186346107142

경기도 용인시 기흥구 중부대로 940 (상하동),D,0,,경기도립노인전문용인병원,031-288-0400,,1630,0930,1630,0930,1630,0930,1630,0930,1630,0930,,,,,,,37.2505694553386,127.15352431083915

"경기도 용인시 기흥구 용구대로 2252, 더원병원 (신갈동)",D,0,,더원요양병원,031-282-8123,,1800,0900,1800,0900,1800,0900,1800,0900,1800,0900,,,,,,,37.2874588414,127.108950071

경기도 용인시 기흥구 동백중앙로 269 (중동),D,0,벤포스타 빌딩 5층~9층,동백요양병원,031-284-7577,,1800,0900,1800,0900,1800,0900,1800,0900,1800,0900,1230,0900,,,,,37.27656309233231,127.15305789554018

경기도 용인시 기흥구 동백중앙로 283 (중동),D,0,동백e마트 뒤편 골드프라자 B동 6층,동백우리요양병원,031-275-7600,,1800,0900,1800,0900,1800,0900,1800,0900,1800,0900,1400,0900,,,,,37.27768690104325,127.15358784268028

"경기도 용인시 기흥구 흥덕2로105번길 6, 6~9층 (영덕동, 흥덕U프라자)",D,0,"흥덕U프라자6~9층, 흥덕이마트 맞은편",베스트안요양병원,031-216-2279,,1730,0900,1730,0900,1730,0900,1730,0900,1730,0900,1300,0900,,,,,37.27706090700743,127.07298469196432

"경기도 용인시 기흥구 구성로 26-2, 지하1~5층 (마북동)",D,0,,용인효요양병원,031-282-9114,,1800,0900,1800,0900,1800,0900,1800,0900,1800,0900,1500,0900,,,,,37.294155686900844,127.11244690719196

"경기도 용인시 기흥구 흥덕1로79번길 24 (영덕동, 굿모닝타워 4,5,6,7,8,9층)",D,0,흥덕 이마트부근,의료법인 상록의료재단 굿모닝요양병원,031-547-0800,,1800,0900,1800,0900,1800,0900,1800,0900,1800,0900,1300,0900,,,,,37.276812449597266,127.07141552313445

경기도 용인시 기흥구 흥덕2로117번길 23 (영덕동),D,0,,의료법인광화의료재단하워드힐병원,031-217-0303,,1800,0930,1800,0930,1800,0930,1800,0930,1800,0930,1330,0930,,,,,37.277850789436854,127.07145263524114

경기도 용인시 기흥구 민속촌로 28 (보라동),D,0,,케어스힐요양병원,031-285-2000,,1800,0900,1800,0900,1800,0900,1800,0900,1800,0900,1300,0900,,,,,37.25477727944911,127.10787496515934

경기도 용인시 기흥구 중부대로874번길 1-30 (상하동),D,0,용인시 효자고개에 위치해 있습니다. 수원톨게이트에서 약 6km 거리 입니다.,효자병원,031-288-0511,,1630,0930,1630,0930,1630,0930,1630,0930,1630,0930,,,,,,,37.250288888888896,127.1519111111111

"대구광역시 달성군 다사읍 달구벌대로109길 12-6, 1~4층",D,0,,문양재활요양병원,053-582-7777,,1800,0900,1800,0900,1800,0900,1800,0900,1800,0900,,,,,,,35.85300786125591,128.44038341048724

충청남도 금산군 금산읍 비단로 183,D,0,새금산 병원 근처,새금산요양병원,041-754-0060,,1800,0900,1800,0900,1800,0900,1800,0900,1800,0900,,,,,,,36.10400635050308,127.49618774246035

충청남도 금산군 금산읍 인삼로 71,D,0,금산초앞 ,의료법인예은의료재단편안요양병원,041-751-0014,,1800,0900,1800,0900,1800,0900,1800,0900,1800,0900,1300,0900,,,,,36.103214861894934,127.48968095075713

강원도 홍천군 북방면 팔봉산로 2420-58,D,0,,의료법인연호요양병원,033-262-5002,,1700,0900,1700,0900,1700,0900,1700,0900,1700,0900,,,,,,,37.73233046667139,127.81420286070636

인천광역시 부평구 장제로 117 (부평동),D,0,부평역 도보 10분 / 부평시장역 도보10분 / 굴포천역 905번 버스 승차 후 2정류장,인천노인전문병원,032-506-6262,,1730,0930,1730,0930,1730,0930,1730,0930,1730,0930,1300,0900,,,,,37.496178723799005,126.72982824255688

전라북도 군산시 대학로 183 (문화동),D,0,,군산제일요양병원,063-468-0371,,1730,0830,1730,0830,1730,0830,1730,0830,1730,0830,1230,0830,,,,,35.97542655038726,126.70298401227656

울산광역시 울주군 서생면 용리길 165-11,D,0,,간절곶자연요양병원,052-246-0002,,1730,0900,1730,0900,1730,0900,1730,0900,1730,0900,,,,,,,35.36670921525471,129.32263878709594

울산광역시 울주군 온양읍 온양로 3,D,0,온양 IC입구,고려요양병원,052-239-0669,,1800,0900,1800,0900,1800,0900,1800,0900,1800,0900,1800,0900,,,,,35.415997994661055,129.27476642214842

"울산광역시 울주군 범서읍 구영로 94, 엠프라자 3,7,8층",D,0,,범서사랑요양병원,052-211-9393,,1730,0900,1730,0900,1730,0900,1730,0900,1730,0900,1230,0900,,,,,35.574169128115564,129.2412164919774

울산광역시 울주군 온양읍 덕남로 233,D,0,,보람요양병원,052-231-8200,,1730,0830,1730,0830,1730,0830,1730,0830,1730,0830,1230,0830,,,,,35.42242172494262,129.2985070724119

울산광역시 울주군 상북면 삽재로 400,D,0,,언양아하브요양병원,052-264-6100,,1700,0900,1700,0900,1700,0900,1700,0900,1700,0900,1200,0900,,,,,35.63619081529028,129.05093426922554

울산광역시 울주군 삼남면 반구대로 785,D,0,,언양요양병원,052-262-5200,,1730,0900,1730,0900,1730,0900,1730,0900,1730,0900,,,,,,,35.11246655558122,129.01115557749816

울산광역시 울주군 온양읍 덕남로 243,D,0,,울산광역시립노인병원,052-231-7900,,1730,0830,1730,0830,1730,0830,1730,0830,1730,0830,1300,0900,,,,,35.421988311745466,129.29760749181707

"울산광역시 울주군 범서읍 천상5길 10-5, 연세요양병원",D,0,청구 제네스아프트 버스정류장 맞음편,울산연세요양병원,052-248-8900,,1800,0900,1800,0900,1800,0900,1800,0900,1800,0900,1300,0900,,,,,35.56251303871683,129.2239886325925

울산광역시 울주군 삼남면 하방로 39,D,0,경부고속도로 통도IC부근 방기초등학교 앞,이손요양병원,052-780-1000,,1745,0900,1745,0900,1745,0900,1745,0900,1745,0900,1245,0900,,,,,35.5065496652362,129.09048520698423

울산광역시 울주군 상북면 소야정길 216-39,D,0,,정토마을 자재요양병원,052-255-8400,,1800,0900,1800,0900,1800,0900,1800,0900,1800,0900,,,,,,,35.60583531382182,129.06725891719336

"울산광역시 울주군 언양읍 읍성로 11, 평화요양병원(별관 방천1길 13)",D,0,,평화요양병원,052-262-3229,,1800,0900,1800,0900,1800,0900,1800,0900,1800,0900,1230,0900,,,,,35.565577777777776,129.116761111111117

"인천광역시 계양구 계산새로 71, C동 11,12,13층 (계산동, 하이베라스)",D,0,한국씨티은행 뒤편,빅토리아요양병원,032-552-8050,,1800,0900,1800,0900,1800,0900,1800,0900,1800,0900,1300,0900,,,,,37.538319109013216,126.73625203121588

"인천광역시 계양구 장제로 672, 새봄요양병원 2,3,4층 201,305,402호 (작전동)",D,0,광평프라자건물,새봄요양병원,032-543-7582,,1800,0900,1800,0900,1800,0900,1800,0900,1800,0900,1300,0900,,,,,37.52787886258426,126.73388284454286

"인천광역시 계양구 아나지로 380, 전체동 (작전동, 해룡빌딩)",D,0,"작전동 현광아파트 근처 건물 1,3,4층",성로 요양병원,032-555-4663,,1700,0900,1700,0900,1700,0900,1700,0900,1700,0900,1200,0900,,,,,37.52525783418827,126.73442943266457

"인천광역시 계양구 계양대로 188, 4,5층 (계산동, 노바체빌딩)",D,0,경인교대입구역 1번출구,예진요양병원,032-556-8810,,1730,0900,1730,0900,1730,0900,1730,0900,1730,0900,1200,0900,,,,,37.540525579176375,126.72304334809495

인천광역시 계양구 주부토로 494 (계산동),D,0,,의료법인 샬롬의료재단 브니엘요양병원,032-555-1088,,1800,0900,1800,0900,1800,0900,1800,0900,1800,0900,1300,0900,,,,,37.538238652876075,126.72838779904771

"인천광역시 계양구 드림로 852, 노인치매요양병원 (갈현동)",D,0,,인천제2시립노인치매요양병원,032-554-8300,,1800,0900,1800,0900,1800,0900,1800,0900,1800,0900,1200,0900,,,,,37.57491762277962,126.72894292705355

"인천광역시 계양구 오조산로57번길 11-1, 강남모던빌 1,2,3,7층 (계산동)",D,0,,청구요양병원,032-542-3535,,1800,0900,1800,0900,1800,0900,1800,0900,1800,0900,,,,,,,37.535737381324104,126.73728398241241

"인천광역시 계양구 오조산로 51, 지하1~5층 (계산동)",D,0,인천광역시 계양구 계산동 계양구청 앞,한아름요양병원,032-541-8575,,1800,0900,1800,0900,1800,0900,1800,0900,1800,0900,,,,,,,37.535367000512366,126.73828688532566

인천광역시 계양구 안남로 538 (효성동),D,0,,효성요양병원,032-555-2695,,1730,0830,1730,0830,1730,0830,1730,0830,1730,0830,1230,0830,,,,,37.53090368860166,126.71132182615797

부산광역시 수영구 수영로536번길 71 (광안동),D,0,버스정류장: 서호병원,(의)서호의료재단서호광안요양병원,051-754-2222,,1730,0900,1730,0900,1730,0900,1730,0900,1700,0900,1200,0900,,,,,35.15271801571637,129.11585204873978

"부산광역시 수영구 수영로 563-1, 지하1~10층 (광안동)",D,0,2호선 광안역 6번 출구,가나안요양병원,051-752-8000,,1800,0900,1800,0900,1800,0900,1800,0900,1800,0900,,,,,,,35.15618417481576,129.1124261830825

"부산광역시 수영구 광안해변로 292, 3~6층 (민락동)",D,0,버스정류장: 광안리 해수욕장/민락동 마린랜드 옆,광안정다운요양병원,051-710-0119,,1730,0900,1730,0900,1730,0900,1730,0900,1730,0900,1300,0900,,,,,35.15598485916668,129.12552975153872

부산광역시 수영구 광안해변로 235 (민락동),D,0,버스정류장: 광안리해수욕장,광안참사랑요양병원,051-751-1515,,1800,0900,1800,0900,1800,0900,1800,0900,1800,0900,1200,0900,,,,,35.15467944207223,129.1197989382059

부산광역시 수영구 남천서로20번길 49 (남천동),D,0,2호선 남천역 2번 출구,다온요양병원,051-935-3000,,1700,0900,1700,0900,1700,0900,1700,0900,1700,0900,1300,0900,,,,,35.14601439590582,129.10690578815334

"부산광역시 수영구 수영로 671, 5층~11층 (광안동)",D,0,2호선 수영역 10번 출구,센텀해인요양병원,051-755-8555,,1730,0830,1730,0830,1730,0830,1730,0830,1730,0830,1600,0900,,,,,35.1657547943,129.114469091

"부산광역시 수영구 과정로 49, 2~7층 (망미동)",D,0,3호선 망미역 4번출구,수영효도요양병원,051-760-8000,,1800,0900,1800,0900,1800,0900,1800,0900,1800,0900,,,,,,,35.17573314968397,129.10718531060692

부산광역시 수영구 수영로 456 (남천동),D,0,2호선 금련산역 5번 출구,의료법인강혜의료재단남천사랑의요양병원,051-625-1122,,1800,0900,1800,0900,1800,0900,1800,0900,1800,0900,1500,0900,,,,,35.146437783915424,129.11033099890068

부산광역시 수영구 연수로 404 (광안동),D,0,2호선 수영역 4번출구,의료법인동일의료재단수영나라요양병원,051-758-7777,,1800,0900,1800,0900,1800,0900,1800,0900,1800,0900,1300,0900,,,,,35.16833450579903,129.11329799544916

부산광역시 수영구 광일로43번길 25 (광안동),D,0,2호선 수영역 14번 출구,의료법인백세의료재단백세요양병원,051-753-9595,,1700,0900,1700,0900,1700,0900,1700,0900,1700,0900,1230,0900,,,,,35.161466392342724,129.10924006075658

"인천광역시 남동구 호구포로 214, 대진메디컬프라자 7~10층 (논현동)",D,0,,인천수요양병원,032-437-5002,,1800,1000,1800,1000,1800,1000,1800,1000,1800,1000,,,,,,,37.401987966099284,126.71006875751776

"부산광역시 수영구 장대골로7번길 45, 2~4층 (광안동)",D,0,"2호선 광안역 6번출구/도보로 10M 유림노르웨이 상가 2,3,4층",의료법인전일의료재단한가족요양병원,051-752-6100,,1700,0900,1700,0900,1700,0900,1700,0900,1700,0900,1200,0900,,,,,35.167427777777775,129.106674999999996

"부산광역시 부산진구 새싹로 107, 지하1층~지상6층층 (부암동)",D,0,버스정류장: 삼부로얄아파트,한사랑요양병원,051-817-7575,,1800,0900,1800,0900,1800,0900,1800,0900,1800,0900,,,,,,,35.166113430056065,129.0519260715256

경상남도 창녕군 남지읍 남지중앙로 45,D,0,,경남요양병원,055-526-3355,,1800,0900,1800,0900,1800,0900,1800,0900,1800,0900,,,,,,,35.3911382077,128.4743100829

경상남도 창녕군 남지읍 동포로 15,D,0,,남지요양병원,055-526-0140,,1800,0900,1800,0900,1800,0900,1800,0900,1800,0900,,,,,,,35.390605024593675,128.48124899719454

경상남도 창녕군 부곡면 온천로 486,D,0,,의료법인 동림의료재단 로얄힐스요양병원,055-536-9000,,1800,0900,1800,0900,1800,0900,1800,0900,1800,0900,,,,,,,35.44103373221293,128.57641948990397

경상남도 창녕군 대지면 효정직교길 119,D,0,창녕 인터체인지(IC)옆,의료법인 성실의료재단 창녕요양병원,055-532-1140,,1730,0830,1730,0830,1730,0830,1730,0830,1730,0830,,,,,,,35.54216344462966,128.48064536562225

경상남도 창녕군 영산면 영산도천로 430,D,0,,의료법인창녕성산의료재단 영산요양병원,055-520-6000,,1730,0900,1730,0900,1730,0900,1730,0900,1730,0900,1300,0900,,,,,35.44196557854654,128.51969728469885

경상남도 창녕군 창녕읍 창녕대로 122,D,0,,창녕서울요양병원,055-806-7100,,1700,0900,1700,0900,1700,0900,1700,0900,1700,0900,,,,,,,35.534228646,128.4969238005

"경상남도 창녕군 고암면 상대2길 16, 더케이서드에이지",D,0,,프라임요양병원,055-806-8600,,1400,1300,1400,1300,1400,1300,1400,1300,1400,1300,,,,,,,35.5781332375,128.5126635214

"경기도 하남시 미사강변대로 42, DK골드타워 4~7층 701-706호호 (풍산동)",D,0,,라이프요양병원,031-795-4900,,1800,0900,1800,0900,1800,0900,1800,0900,1800,0900,,,,,,,37.55409638841126,127.18594944107402

부산광역시 금정구 금강로 209 (장전동),D,0,버스정류장: 금강교차로,양지요양병원,051-582-5757,,1800,0900,1800,0900,1800,0900,1800,0900,1800,0900,1300,0900,,,,,35.226994601303765,129.08280488775085

"부산광역시 금정구 구서중앙로15번길 20, 7,9층 (구서동)",D,0,1호선 두실역 1번출구,한빛의료소비자생활협동조합한빛요양병원,051-995-9966,,1800,0900,1800,0900,1800,0900,1800,0900,1800,0900,1800,0900,,,,,35.25387051026376,129.08905827130002

경기도 이천시 백사면 이여로428번길 167,D,0,,우리요양병원,031-638-8123,,1800,0900,1800,0900,1800,0900,1800,0900,1800,0900,,,,,,,37.32512863581586,127.48485825209245

경기도 이천시 장호원읍 샘재로145번길 41 (장호원요양병원),D,0,,의료법인목민의료재단장호원성모요양병원,031-641-3080,,1700,0900,1700,0900,1700,0900,1700,0900,1700,0900,,,,,,,37.11957172569999,127.6289048478

경기도 이천시 호법면 덕평로 224,D,0,,의료법인양지의료재단양지요양병원,031-637-8844,,1800,0900,1800,0900,1800,0900,1800,0900,1800,0900,1800,0900,,,,,37.18751916653556,127.37780600926769

"경기도 이천시 호법면 중부대로 797-26, 이천소망병원",D,0,,이천소망요양병원,031-637-7400,,1700,1000,1700,1000,1700,1000,1700,1000,1700,1000,,,,,,,37.249974999999985,127.42027777777778

경기도 이천시 경충대로 2738-4 (관고동),D,0,,이천효요양병원,031-637-6370,,1730,0900,1730,0900,1730,0900,1730,0900,1730,0900,,,,,,,37.2818371074,127.4329748335

경기도 이천시 신둔면 이장로311번길 197-35,D,0,,한국관광대학 부설 노인전문병원,031-644-9141,,1700,0900,1700,0900,1700,0900,1700,0900,1700,0900,,,,,,,37.28329406510002,127.37913170699998

전라북도 고창군 고창읍 고인돌대로 1765,D,0,고창종합병원 맞은편,전라북도 고창노인요양병원,063-560-6100,,1800,0900,1700,0800,1700,0800,1700,0800,1700,0800,1230,0900,,,,,35.43713969417092,126.69117063421997

경기도 남양주시 수동면 외방로172번길 50,D,0,,경기도노인전문남양주병원,031-590-5000,,1800,0900,1800,0900,1800,0900,1800,0900,1800,0900,1500,0900,,,,,37.73772416233954,127.30790251153131

"경기도 남양주시 평내로29번길 41 (평내동, 메인프라자)",D,0,평내119안전센터 인근,남양주나무요양병원,031-511-5100,,1800,0900,1800,0900,1800,0900,1800,0900,1800,0900,1300,0900,,,,,37.64563904056856,127.23509237250597

경기도 남양주시 사릉로 13 (금곡동),D,0,,남양주정드림노인전문병원,031-511-8324,,1800,0900,1800,0900,1800,0900,1800,0900,1800,0900,1800,0900,,,1800,0900,37.63457319346492,127.20704285660514

경기도 남양주시 화도읍 마석중앙로 46-1,D,0,,마석기독요양병원,031-511-5800,,1800,0900,1800,0900,1800,0900,1800,0900,1800,0900,,,,,,,37.652380954281206,127.30516733231892

경기도 남양주시 수동면 지둔로445번길 33-51 (매그너스요양병원),D,0,,매그너스요양병원,031-595-0600,,1630,0930,1630,0930,1630,0930,1630,0930,1630,0930,1330,0930,,,,,37.72154014220871,127.2977047911925

경기도 남양주시 수동면 비룡로 801-88,D,0,,수동연세요양병원,031-594-8007,,1800,0900,1800,0900,1800,0900,1800,0900,1800,0900,1300,0900,,,,,37.70989753961594,127.31986298110517

경기도 남양주시 수동면 비룡로1782번길 160,D,0,,에덴요양병원,031-590-7575,,1730,0900,1730,0900,1730,0900,1730,0900,1730,0900,1730,0900,1730,0930,1730,0930,37.77065682662635,127.2904232511705

경기도 남양주시 퇴계원면 도제원로 32,D,0,,퇴계원서울요양병원,031-529-8188,,1800,0900,1800,0900,1800,0900,1800,0900,1800,0900,,,,,,,37.6509741326,127.1449973533

"경기도 남양주시 경춘로1308번길 2, 3~7층 (평내동)",D,0,,필립요양병원,18777504,,1800,0900,1800,0900,1800,0900,1800,0900,1800,0900,1300,0900,,,,,37.6500663355,127.2380013386

경기도 남양주시 화도읍 먹갓로27번길 17-18,D,0,,한누리요양병원,031-593-6833,,1730,0900,1730,0900,1730,0900,1730,0900,1730,0900,1200,0900,,,,,37.65568254259171,127.27394329884745

경기도 남양주시 마치로 90 (호평동),D,0,,햇살요양병원,031-559-0095,,1800,0900,1800,0900,1800,0900,1800,0900,1800,0900,1300,0900,,,,,37.65305033319999,127.26183646996792

"경기도 남양주시 늘을2로14번길 5, 7층 일부, 9층 (호평동, 샤르망메디칼프라자)",D,0,,호평요양병원,031-559-8700,,1700,1000,1700,1000,1700,1000,1700,1000,1700,1000,,,,,,,37.65411812803558,127.24456885446058

"경기도 남양주시 호평로46번길 14, 4~5층 (호평동, ZENEW빌딩)",D,0,,힐링웰요양병원,031-595-0055,,1800,0900,1800,0900,1800,0900,1800,0900,1800,0900,1400,0900,,,,,37.6548998654327,127.24459970867537

충청남도 부여군 규암면 반산로 39,D,0,정관장맞은편,부여노인전문병원,041-836-1985,,1800,0900,1800,0900,1800,0900,1800,0900,1800,0900,,,,,,,36.27549937447399,126.8694477413045

충청남도 부여군 초촌면 소호로 71,D,0,예전 소사초등학교 자리,부여효요양병원,041-834-5114,,1700,0900,1700,0900,1700,0900,1700,0900,1700,0900,1100,0900,,,,,36.26549646435971,127.04930604249702

충청남도 부여군 장암면 충절로1713번길 16,D,0,고려개발 입구쪽,의료법인부여의료재단부여다사랑병원,041-835-2080,,1700,0900,1700,0900,1700,0900,1700,0900,1700,0900,,,,,,,36.228856055178426,126.86978378718467

충청남도 부여군 부여읍 삼충로 776,D,0,부여->공주방향,의료법인연화의료재단부여요양병원,041-833-7200,,1800,0900,1800,0900,1800,0900,1800,0900,1800,0900,,,,,,,36.33060373244978,126.98732094305055

충청북도 보은군 수한면 후평바리미길 31,D,0,,보은요양병원,043-544-7114,,1700,0900,1700,0900,1700,0900,1700,0900,1700,0900,1200,0900,,,,,36.47798942776693,127.69964652235439

경상북도 김천시 어모면 신애길 100-10,D,0,,경상북도립김천노인전문요양병원,054-420-7200,,1800,0900,1800,0900,1800,0900,1800,0900,1800,0900,1230,0900,,,,,36.21120491472608,128.05226135128024

경상북도 김천시 감문면 문화로 252,D,0,,김천감문휴요양병원,0544372700,,1800,0900,1800,0900,1800,0900,1800,0900,1800,0900,,,,,,,36.211486241074,128.14162999807047

"경상북도 김천시 모암길 3, (모암동)",D,0,,김천요양병원,054-430-0202,,1800,0900,1800,0900,1800,0900,1800,0900,1800,0900,1300,0900,,,,,36.12107779758937,128.1274428007339

"경기도 시흥시 하중로 285, 경기도립 노인전문 시흥병원 (광석동)",D,0,"시흥등기소 사거리에서 안산방향으로 오시면 좌측에
위치해 있습니다.",경기도립노인전문시흥병원,031-500-7100,,1730,0900,1730,0900,1730,0900,1730,0900,1730,0900,,,,,,,37.385920611535425,126.80701962781964

"경기도 시흥시 평안상가5길 19, 스마일요양병원 본관동 (정왕동)",D,0,,시화베드로요양병원,031-484-2500,,1800,0900,1800,0900,1800,0900,1800,0900,1800,0900,1300,0900,,,,,37.335827907855595,126.74794950826012

"경기도 시흥시 비둘기공원1길 7, 시흥21세기병원 1, 2, 4-8층 (대야동)",D,0,,시흥더봄요양병원,031-317-9990,,1800,0900,1800,0900,1800,0900,1800,0900,1800,0900,1300,0900,,,,,37.44222937836234,126.78934064127958

경기도 시흥시 호현로10번길 7-1 (신천동),D,0,,신천제일요양병원,031-311-0220,,1800,0900,1800,0900,1800,0900,1800,0900,1800,0900,1130,0900,,,,,37.441433891337,126.78437090270145

"경기도 시흥시 승지로60번길 36, 301,303,304,401,501,601호 (능곡동)",D,0,시흥시 능곡동 위치,의료법인능곡의료재단능곡요양병원,031-404-2888,,1800,0900,1800,0900,1800,0900,1800,0900,1800,0900,,,,,,,37.36875311004225,126.81062228241339

"경기도 시흥시 공단1대로 237, 제B동 3층,4층,5층,6층일부,7층 (정왕동)",D,0,,의료법인석경의료재단센트럴요양병원,031-8041-3521,,1930,0900,1930,0900,1930,0900,1930,0900,1930,0900,1300,0900,,,,,37.336843293652045,126.72798171331425

경기도 시흥시 정왕대로 74 (정왕동),D,0,,의료법인소애의료재단한울노인요양병원,031-433-8577,,1630,0900,1630,0900,1630,0900,1630,0900,1630,0900,,,,,,,37.353330514175525,126.72457008854516

경기도 시흥시 호현로40번길 5 (대야동),D,0,,의료법인에스앤케이의료재단시흥에스앤케이요양병원,031-507-8080,,1800,0900,1800,0900,1800,0900,1800,0900,1800,0900,1300,0900,,,,,37.443765806096046,126.78594167185386

경기도 시흥시 군자로 526 (거모동),D,0,,의료법인영명의료재단시흥요양병원,031-508-0208,,1800,0900,1800,0900,1800,0900,1800,0900,1800,0900,1200,0900,1200,0900,1200,0900,37.34311700802976,126.78531335338953

"경기도 시흥시 수인로3325번길 10, 3층 301호, 302호, 306~309호 (신천동, 우명프라자)",D,0,,의료법인자운의료재단강남요양병원,031-311-0700,,1800,0900,1800,0900,1800,0900,1800,0900,1800,0900,1300,0900,,,,,37.43811484447136,126.78847544239035

경기도 시흥시 월곶해안로 97 (월곶동),D,0,월곶 신도시 월곶 중학교월곶 IC 5분거리. 풍림아파트 1단지 앞,의료법인정심의료재단한마음요양병원,031-317-6400,,1800,0900,1800,0900,1800,0900,1800,0900,1800,0900,1500,1000,1500,1000,1500,0900,37.389996783277105,126.73491000589476

경기도 시흥시 군자로 507 (거모동),D,0,,의료법인참사랑의료재단시흥참사랑요양병원,031-492-7119,,1800,0900,1800,0900,1800,0900,1800,0900,1800,0900,1300,0900,,,,,37.34478556655204,126.78524085684603

경기도 시흥시 비둘기공원7길 33 (대야동) 디아망타운,D,0,,하나요양병원,031-404-1073,,1800,0900,1800,0900,1800,0900,1800,0900,1800,0900,1230,0900,,,,,37.44301387529232,126.79274663056394

"경기도 시흥시 비둘기공원6길 13-1, 8층 (대야동, 월드프라자)",D,0,,효성요양병원,031-315-9977,,1800,0900,1800,0900,1800,0900,1800,0900,1800,0900,,,,,,,37.45523994721856,126.80172885527226

충청북도 단양군 별곡6길 10 (단양읍) ,D,1,,단양군립노인요양병원,043-423-8845,043-423-8845,1800,0900,1800,0900,1800,0900,1800,0900,1800,0900,1800,0900,,,,,36.98713596460783,128.3687940487073

경기도 양평군 용문면 우나람길 63,D,0,,생생우리누리요양병원,031-775-1122,,1730,0900,1730,0900,1730,0900,1730,0900,1730,0900,1230,0900,,,,,37.457320301185256,127.58582112542399

서울특별시 영등포구 영중로34길 6 (영등포동8가),D,0,영등포시장역 2번 출구에서 영등포전화국 교차로 방향,뉴서울성모요양병원,02-2679-5118,,1730,0900,1730,0900,1730,0900,1730,0900,1730,0900,1200,0900,,,,,37.5260402685,126.9061573099

"서울특별시 영등포구 영중로 133, 2~5층 (영등포동8가)",D,0,한영교회 옆,닥터김앤박요양병원,02-3667-1211,,1800,0900,1800,0900,1800,0900,1800,0900,1800,0900,1300,0900,,,,,37.52831375885315,126.90535801035719

"서울특별시 영등포구 가마산로 381 (대림동, 한세빌딩)",D,0,성락빌딩앞 교차로 근처,대림요양병원,02-836-7575,,1730,0900,1730,0900,1730,0900,1730,0900,1730,0900,1430,0900,,,,,37.5026161373259,126.89977197040342

"서울특별시 영등포구 양평로 99, 지하2, 6~9층 (양평동4가, 대명빌딩)",D,0,"9호선 선유도역 5번출구 도보 1분, 당산역 12번 출구",대명요양병원,02-2638-5900,,1800,0900,1800,0900,1800,0900,1800,0900,1800,0900,1200,0900,,,,,37.53647622558313,126.8960698352678

서울특별시 영등포구 영신로34길 5 (영등포동4가),D,0,영등포 김안과병원 앞,덕수의료재단덕수요양병원,02-2678-8225,,1730,0900,1730,0900,1730,0900,1730,0900,1730,0900,1200,0900,,,,,37.520061292642374,126.90181647130736

서울특별시 영등포구 경인로77길 6 (문래동2가),D,0,남성멘션 맞은편,로하스참사랑요양병원,02-2634-7500,,1800,0900,1800,0900,1800,0900,1800,0900,1800,0900,1300,0900,,,,,37.512708970679526,126.89334747169137

"서울특별시 영등포구 영중로 122 (영등포동8가, 일이빌딩)",D,0,영등포시장역 2번출구 도보 8분,마리아성모요양병원,02-2069-0000,,1730,0900,1730,0900,1730,0900,1730,0900,1730,0900,1300,0900,,,,,37.52713212674989,126.90596135762635

서울특별시 영등포구 경인로 767 (문래동3가),D,0,,서울센트럴요양병원,02-6959-4114,,1800,0900,1800,0900,1800,0900,1800,0900,1800,0900,1300,0900,,,,,37.5139462189,126.8986573855

서울특별시 영등포구 양평로22사길 9 (양평동5가),D,0,선유도역 2번 출구,서울은빛요양병원,02-2634-7000,,1730,0900,1700,0900,1700,0900,1700,0900,1700,0900,,,,,,,37.540818110586606,126.89501376574428

서울특별시 영등포구 영중로 100 (영등포동7가),D,0,영등포시장역 2번 출구 ,신화요양병원,02-2632-8114,,1730,0900,1730,0900,1730,0900,1730,0900,1730,0900,1300,0900,,,,,37.52510739587673,126.90574332117384

"서울특별시 영등포구 여의대방로 203 (신길동, 일이빌딩)",D,0,대방동 성당 인근,연세베스트요양병원,02-6959-9600,,1800,0900,1800,0900,1800,0900,1800,0900,1800,0900,1300,0900,,,,,37.50536835085348,126.92198972384106

"서울특별시 영등포구 가마산로 368 (대림동, 메디칼빌딩)",D,0,대림3동사거리 인근,초록나무요양병원,02-2135-7578,,1700,0900,1700,0900,1700,0900,1700,0900,1700,0900,1700,0900,,,,,37.5012606304,126.8993078454

경상남도 남해군 화전로 173-1 (남해읍) ,D,0,남해병원 옆,남해군립노인전문병원,055-864-2201,,1800,0900,1700,0900,1700,0900,1700,0900,1700,0900,1300,0900,,,,,34.84680668839791,127.89222663652683

경기도 포천시 소흘읍 광릉수목원로 745,D,0,,인화병원,031-514-9988,,1800,0900,1800,0900,1800,0900,1800,0900,1800,0900,1230,0900,,,,,37.7715311988171,127.15652814986879

경기도 포천시 내촌면 금강로2536번길 112-12,D,0,,포천새맘요양병원,031-1577-0245,,1800,0900,1800,0900,1800,0900,1800,0900,1800,0900,,,,,,,37.79455254016036,127.24874598590546

경기도 포천시 신북면 포천로 1881,D,0,경기도 포천시 신북면 포천로 1881,포천힐링요양병원,031-536-7666,,1730,0900,1730,0900,1730,0900,1730,0900,1730,0900,,,,,,,37.919884321689516,127.1873130294149

경기도 포천시 신북면 청신로 2139,D,0,,한내 가족처럼 요양병원,031-531-2641,,1700,0900,1700,0900,1700,0900,1700,0900,1700,0900,1300,0900,,,,,37.93485455987115,127.22635834126832

"경기도 포천시 화현면 화동로 517, 지하1,지상1~5층층",D,0,,화현요양병원,031-532-0027,,1800,0900,1800,0900,1800,0900,1800,0900,1800,0900,1300,0900,,,,,37.91254435697076,127.30822146063785

"서울특별시 동작구 성대로 43 (상도동, 우리빌딩)",D,0,,서울요양병원,02-3445-7575,,1800,0900,1800,0900,1800,0900,1800,0900,1800,0900,,,,,,,37.4989747387,126.933662539

서울특별시 동작구 여의대방로 134 (대방동),D,0,7호선 보라매역 2번출구 100m,의료법인덕수의료재단보라매요양병원,02-812-7777,,1730,0900,1730,0900,1730,0900,1730,0900,1730,0900,1300,0900,,,,,37.4988842646943,126.92066438703153

서울특별시 동작구 시흥대로 634 (신대방동),D,0,"2호선 구로디지털단지역 6번출구, 2호선 신대방역 3번출구",의료법인에이치엠피의료재단녹십초요양병원,02-848-0100,,1800,0900,1800,0900,1800,0900,1800,0900,1800,0900,1300,0900,,,,,37.4883858468123,126.90662053897009

경기도 가평군 상면 대보간선로 889,D,0,,가평산속요양병원,031-584-8900,,1800,0900,1800,0900,1800,0900,1800,0900,1800,0900,0000,0000,,,,,37.788618664312374,127.40444205381806

경기도 가평군 상면 물골길 262-23,D,0,,가평푸른숲요양병원,1661-9099,,1730,0900,1730,0900,1730,0900,1730,0900,1730,0900,1730,0900,,,,,37.84104198290269,127.30397010840886

경기도 가평군 청평면 북한강로1604번길 64-28,D,0,,해암요양병원,031-584-0545,,1800,0900,1800,0900,1800,0900,1800,0900,1800,0900,1300,0900,,,,,37.731291883299995,127.4095735943

인천광역시 남동구 구월로 135 (간석동),D,0,,라임요양병원,032-434-9993,,1800,0900,1800,0900,1800,0900,1800,0900,1800,0900,1800,0900,,,,,37.45712222515232,126.70546164873826

경상남도 밀양시 내이신촌1길 14 (내이동),D,0,,갤러리의아침요양병원,055-352-2006,,1800,0900,1800,0900,1800,0900,1800,0900,1800,0900,,,,,,,35.5049926656,128.7351008406

경상남도 밀양시 단장면 동화2길 36-59,D,0,단장면사무소 ,의료법인 행복한의료재단 숲속요양병원,055-356-6119,,1800,0900,1800,0900,1800,0900,1800,0900,1800,0900,,,,,,,35.510307889398035,128.88645952328068

경상남도 밀양시 삼랑진읍 천태로 355-99,D,0,삼랑진 댐부근,좋은연인요양병원,055-350-9800,,1800,0900,1700,0900,1700,0900,1700,0900,1700,0900,1300,0900,,,,,35.416987290784085,128.86713313907785

경상남도 밀양시 부북면 춘화로 60,D,0,,희윤요양병원,055)355-0007,,1730,0900,1730,0900,1730,0900,1730,0900,1700,0900,1200,0900,,,,,35.509543876872776,128.74530130885069

"서울특별시 강서구 양천로 35, 1~6층 (방화동)",D,0,,365강서수요양병원,02-2663-0075,,1800,0900,1800,0900,1800,0900,1800,0900,1800,0900,1300,0900,,,,,37.5729710599,126.8076916239

서울특별시 강서구 국회대로 233 (화곡동),D,0,,새미래요양병원,02-2061-5544,,1800,0900,1800,0900,1800,0900,1800,0900,1800,0900,1300,0900,,,,,37.52975098183508,126.86087624972069

"서울특별시 강서구 화곡로61길 109, 천수빌딩 2,3,4,5층 (등촌동)",D,0,서울미디어대학원대학교 옆,새빛요양병원,02-2658-3929,,1730,0900,1730,0900,1730,0900,1730,0900,1730,0900,,,,,,,37.558301991567454,126.84646773910533

서울특별시 강서구 강서로 182 (화곡동),D,0,화곡역 1번 출구,참요양병원,02-2605-2114,,1700,0900,1700,0900,1700,0900,1700,0900,1700,0900,1300,0900,,,,,37.54287506835797,126.83965581163903

전라남도 해남군 마산면 마산로 433-15,D,0,,가나안요양병원,061-532-3751,,1700,0900,1700,0900,1700,0900,1700,0900,1700,0900,,,,,1400,0900,34.61915688589485,126.56679731227449

"충청북도 증평군 증평읍 중앙로 114-0, 3,4,5층",D,0,,의료법인청진의료재단디에스요양병원,043-909-9100,,1800,0900,1800,0900,1800,0900,1800,0900,1800,0900,1300,0900,,,,,36.7774880635,127.5754087404

"대구광역시 수성구 수성로 228, 1~4, 9,10층 (중동)",D,0,,김신요양병원,053-766-5555,,1800,0900,1800,0900,1800,0900,1800,0900,1800,0900,,,,,,,35.845838237317,128.6131211340639

경상남도 사천시 사천읍 옥산로 127,D,0,,의료법인행복한의료재단사천중앙요양병원,055-851-5400,,1730,0900,1730,0900,1730,0900,1730,0900,1730,0900,,,,,,,35.07912813161444,128.0969624387002

강원도 속초시 동해대로 4084 (조양동),D,0,속초시 조양동 케이티앤지 옆,속초정요양병원,033-637-0757,,1800,0900,1800,0900,1800,0900,1800,0900,1800,0900,,,,,,,38.18994398386829,128.58772532743285

"경기도 수원시 장안구 장안로 243, w메디컬빌딩 (정자동)",D,0,,수원행복한요양병원,031-285-2100,,1800,0900,1800,0900,1800,0900,1800,0900,1800,0900,,,,,,,37.303865, 126.992667

경기도 용인시 처인구 백옥대로916번길 48 (남동),D,0,용인시 처인구 남동 306번지 소재로 용인 시외버스 터미널에서 천리 방향으로 약5분 거리에 위치함,(의)유일재단하나애요양병원,031-339-1000,,1800,0900,1800,0900,1800,0900,1800,0900,1800,0900,,,,,,,37.21939166666666,127.21351388888887

"경기도 용인시 처인구 금령로 21 (김량장동, 메디타워)",D,0,중앙파출소맞은편,로하스용인요양병원,031-333-7585,,1730,0900,1730,0900,1730,0900,1730,0900,1730,0900,1300,0900,,,,,37.23504948274619,127.19864097468603

경기도 용인시 처인구 백옥대로1313번길 49 (유방동),D,0,,용인서울요양병원,031-335-5000,,1700,0900,1700,0900,1700,0900,1700,0900,1700,0900,1230,0900,,,,,37.25235539505681,127.20716334496126

경기도 용인시 처인구 금령로 132 (마평동),D,0,용인터미널에서 도보 5분,포브스요양병원,031-338-0911,,2100,0900,2100,0900,2100,0900,2100,0900,2100,0900,,,,,,,37.2349301292114,127.21083031447466

경상북도 청도군 각북면 헐티로 1229 ,D,0,,감꽃요양병원,054-371-7770,,1730,0900,1730,0900,1730,0900,1730,0900,1730,0900,,,,,,,35.71438372428257,128.56631183749374

경상북도 청도군 화양읍 청화로 79-7 ,D,0,,군립청도노인요양병원,054-370-5105,,1700,0830,1700,0830,1700,0830,1700,0830,1700,0830,1200,0830,,,,,35.64855837601338,128.73680960800308

경상북도 청도군 금천면 금천로 4-1,D,0,,의료법인산동의료재단산동요양병원,054-372-3073,,1800,0830,1800,0830,1800,0830,1800,0830,1800,0830,1500,0830,1400,0830,1800,0830,35.692425034444,128.8947853904307

경상북도 청도군 각북면 헐티로 1312,D,0,,의료법인선한의료재단청도자연요양병원,054-372-8888,,1800,0900,1800,0900,1800,0900,1800,0900,1800,0900,,,,,,,35.71604623344183,128.55848109989063

경상북도 청도군 각북면 헐티로 1145-12,D,0,,의료법인정암의료재단윤성요양병원,054-373-7400,,1730,0900,1730,0900,1730,0900,1730,0900,1730,0900,1300,0900,,,,,35.71101449998971,128.57216509615443

경기도 고양시 일산동구 중산로 241 (중산동),D,0,,중산요양병원,031-976-1388,,1600,0900,1600,0900,1600,0900,1600,0900,1600,0900,1500,1100,,,1500,1100,37.6937422988818,126.78032197906728

"경기도 의정부시 평화로 704 (가능동, 대원빌딩)",D,0,"지하철 1호선 가능역과 녹양역 중간 위치
녹양역 2번 출구에서 의정부방면 도보 6~7분 소요
",새하늘병원,031-836-7341,,1700,1000,1700,1000,1700,1000,1700,1000,1700,1000,1200,1000,,,,,37.754670881594095,127.04368831178298

울산광역시 남구 중앙로 187-1 (신정동),D,0,,강남요양병원,052-260-3525,,1700,1000,1700,1000,1700,1000,1700,1000,1700,1000,1300,1000,,,,,35.53773049643712,129.31271292526932

울산광역시 남구 두왕로 335 (신정동),D,0,,구인의료재단법인 오복요양병원,052-266-5400,,1800,0900,1800,0900,1800,0900,1800,0900,1800,0900,,,,,,,35.531351573668914,129.30695316386186

울산광역시 남구 번영로 15 (야음동),D,0,,국민요양병원,052-226-0100,,1800,0900,1800,0900,1800,0900,1800,0900,1800,0900,1300,0900,,,,,35.527087246583214,129.3298417020121

"울산광역시 남구 돋질로 277, 지하1, 1,6~8층 (삼산동)",D,0,,노블레스요양병원,052-712-1000,,1900,0900,1900,0900,1900,0900,1900,0900,1900,0900,1300,0900,,,,,35.54375998333217,129.33445738555085

"울산광역시 남구 봉월로 161, 2-5층 (신정동)",D,0,태화노터리 터미널식당 맞은편,따사랑요양병원,052-261-5567,,1800,0900,1800,0900,1800,0900,1800,0900,1800,0900,1500,0900,,,,,35.5467780851677,129.30712614803968

"울산광역시 남구 북부순환도로 58, 1~7층 (무거동)",D,0,,삼호요양병원,052-277-3001,,1800,0900,1800,0900,1800,0900,1800,0900,1800,0900,,,,,,,35.5522836295,129.2698262059

울산광역시 남구 돋질로 84 (달동),D,0,,새생명요양병원,052-276-9789,,1800,0900,1800,0900,1800,0900,1800,0900,1800,0900,,,,,,,35.538284591651895,129.31501741476606

울산광역시 남구 돋질로 293 (삼산동),D,0,,성모요양병원,052-261-5033,,1800,0900,1800,0900,1800,0900,1800,0900,1800,0900,1300,0900,,,,,35.54454005621225,129.3368601771903

"울산광역시 남구 월평로 3, 1~3,5~10층 (신정동)",D,0,,양지요양병원,052-256-7770,,1800,0900,1800,0900,1800,0900,1800,0900,1800,0900,,,,,,,35.5406902,129.3060953

울산광역시 남구 수암로 8 (신정동),D,0,,울산노인전문병원,052-260-5577,,1800,0900,1800,0900,1800,0900,1800,0900,1800,0900,1300,0900,,,,,35.53175161879556,129.30892136382417

"울산광역시 남구 돋질로 146 (달동, 달동길메리요양병원)",D,0,,의)우아의료재단 달동길메리요양병원,052-996-0030,,1800,0900,1800,0900,1800,0900,1800,0900,1800,0900,1300,0900,,,,,35.5401658981,129.3216828316

"울산광역시 남구 대학로 148, 2~7층 (무거동)",D,0,"신복로터리에서 울산대학교 방향, 부산은행(무거점)건물 4-5, 8층 위치",의료법인 세연의료재단 무거연세요양병원,052-223-8866,,1730,0930,1730,0930,1730,0930,1730,0930,1730,0930,,,,,,,35.54772487708103,129.26269867176276

"울산광역시 남구 수암로128번길 7, 1~3, 6층 (야음동)",D,0,,의료법인득명의료재단씨엘요양병원,052-242-1234,,1800,0900,1800,0900,1800,0900,1800,0900,1800,0900,1300,0900,,,,,35.52706164006629,129.32136147840305

"울산광역시 남구 봉월로 155, 4~6층 (신정동)",D,0,,의료법인청산의료재단효원요양병원,052-950-7560,,1700,0900,1700,0900,1700,0900,1700,0900,1700,0900,,,,,,,35.546326912616124,129.3070502154198

울산광역시 남구 삼산로 11 (신정동),D,0,공업탑로타리->울산역방향 10m 좌측 로타리약국건물.,임요양병원,052-273-7114,,1900,0900,1900,0900,1900,0900,1900,0900,1900,0900,1500,0900,,,1300,0900,35.53296867788155,129.30898268438358

"울산광역시 남구 남중로 132, 2, 4~5층 (삼산동)",D,0,위드여성병원 맞은편,좋은요양병원,052-268-7007,,1800,0900,1800,0900,1800,0900,1800,0900,1800,0900,,,,,,,35.54616464333717,129.3487747254477

울산광역시 남구 돋질로 150 (달동),D,0,,태안요양병원,052-266-9176,,1800,0930,1800,0930,1800,0930,1800,0930,1800,0930,1200,0930,,,,,35.54020265566518,129.32201904656793

"울산광역시 남구 대학로 144, 3~8층 (무거동)",D,0,,효마음요양병원,052-277-8886,,1700,0900,1700,0900,1700,0900,1700,0900,1700,0900,,,,,,,35.547430555555557,129.262502777777769

"경기도 고양시 일산동구 성현로29번길 28-9, 지항1층,1~4층 (성석동)",D,0,,다스람요양병원,18005173,,1800,0900,1800,0900,1800,0900,1800,0900,1800,0900,1300,0900,,,,,37.71199352152379,126.79120134862603

"경기도 고양시 일산동구 숲속마을로 18, 웰빙타운 5~8층,4층 403호 (풍동)",D,0,,동국마음요양병원,031-811-9900,,1800,0900,1800,0900,1800,0900,1800,0900,1800,0900,,,,,,,37.66724720199999,126.80148227399998

경기도 고양시 일산동구 중산로157번길 49 (중산동),D,0,,미소아침요양병원,031-819-7570,,1700,0900,1700,0900,1700,0900,1700,0900,1700,0900,,,,,,,37.6840847049,126.7791990781

경기도 고양시 일산동구 성현로377번길 128-4 (문봉동),D,0,,의료법인두영의료재단 정안요양병원,031-977-8757,,1800,0900,1800,0900,1800,0900,1800,0900,1800,0900,,,,,,,37.70042340803025,126.83317569630665

"경기도 고양시 일산동구 중앙로 1124, 4층 (백석동, 흰돌마을1단지아파트 상가동)",D,0,,이푸른요양병원,031-932-3338,,1800,0900,1800,0900,1800,0900,1800,0900,1800,0900,1300,0900,,,,,37.64821017098699,126.78189388527709

"경기도 고양시 일산동구 위시티로 18, 5~8층 (식사동, 동국타워)",D,0,,일산리더스요양병원,031-962-0050,,1800,0900,1800,0900,1800,0900,1800,0900,1800,0900,,,,,,,37.67456233751388,126.80751588279004

"경기도 고양시 일산동구 고양대로 760, 나동 6~10층 (중산동, 일산복음병원)",D,0,,일산복음요양병원,031-977-6633,,1730,0900,1730,0900,1730,0900,1730,0900,1730,0900,1230,0900,,,,,37.68190011509169,126.78039795686044

"경기도 고양시 일산동구 장백로 86 (백석동,3,5,6층)",D,0,백석역 터널나이트 뒷편에 위치함,일산사랑요양병원,031-901-8119,,1800,0900,1800,0900,1800,0900,1800,0900,1800,0900,1300,0900,,,,,37.6447588068869,126.78447386289601

"경기도 고양시 일산동구 하늘마을1로 14 (중산동, 일산 조은프라자,  3층,4층일부,6층,7층)",D,0,,일산아르고요양병원,031-976-1844,,1800,0900,1800,0900,1800,0900,1800,0900,1800,0900,1500,0900,,,,,37.67511210462312,126.78717398335867

"경기도 고양시 일산동구 고봉로 20-21, 양우로데오랜드 304,305,401,503,506~509호 (장항동)",D,0,,일산자애병원,031-919-9942,,1800,0900,1800,0900,1800,0900,1800,0900,1800,0900,1500,0900,,,,,37.663691666666665,126.765647222222228

"경기도 고양시 일산동구 무궁화로 31-16 (장항동, 남정시티프라자8차 3층, 4층, 6층, 8층)",D,0,,일산참사랑요양병원,031-918-1070,,1700,0900,1700,0900,1700,0900,1700,0900,1700,0900,1300,0900,,,,,37.66349103765608,126.76746851444324

"경기도 고양시 일산동구 무궁화로 346, 지하1~2층,1~3층 (풍동)",D,0,,일산현대요양병원,031-922-7575,,1730,0900,1730,0900,1730,0900,1730,0900,1730,0900,1500,0900,,,,,37.67655748799998,126.79804769520001

"경기도 고양시 일산동구 호수로 646-24 (장항동, 위너스 21-∥ 3,5,6,8층)",D,0,,일산호수요양병원,031-903-8275,,1900,0900,1900,0900,1900,0900,1900,0900,1900,0900,,,,,,,37.659705120042226,126.76799293621727

"경기도 고양시 일산동구 중산로 117, 2,5층 101호 (중산동)",D,0,,제이요양병원,031-977-8101~4,,1800,1000,1800,1000,1800,1000,1800,1000,1800,1000,,,,,,,37.6825457164,126.78106737639999

전라남도 함평군 학교면 학교화산길 16-19,D,0,월산리 신흥마을,함평군공립요양병원,061-322-4119,,1700,0900,1700,0900,1700,0900,1700,0900,1700,0900,,,,,,,35.048697597972286,126.53666596593638

부산광역시 서구 구덕로 164-7 (토성동3가),D,0,"1호선 토성역 7, 9번출구",BH대학효요양병원,051-254-5200,,1800,0900,1800,0900,1800,0900,1800,0900,1800,0900,1300,0900,,,,,35.09882908535315,129.02001072201375

"대구광역시 북구 칠곡중앙대로 215, 지하2층,1층~7층층 (태전동, 장한한방병원)",D,0,,문요양병원,053-326-6800,,1701,1000,1701,1000,1701,1000,1701,1000,1701,1000,,,,,,,35.915366070801234,128.54799869428913

충청북도 충주시 앙성면 용당1길 29,D,0,앙성초등학교 부근,의료법인 현오의료재단 늘푸른요양병원,043-851-8700,,1800,0900,1700,0900,1700,0900,1700,0900,1700,0900,1300,0900,,,,,37.107746143916245,127.7571937572872

충청북도 충주시 앙성면 산전장수2길 55,D,0,,의료법인목민의료재단충주성모요양병원,043-844-2000,,1630,1100,1630,1100,1630,1100,1630,1100,1630,1100,1630,1100,1630,1100,1630,1100,37.10048065578448,127.79030525546045

충청북도 충주시 국원대로 6 (문화동),D,0,"문화사거리, 점심 12~13시",의료법인문화의료재단문화실버요양병원,043-854-8802,,1800,0900,1800,0900,1800,0900,1800,0900,1800,0900,1500,0900,,,1500,0900,36.97313698502002,127.9239965732598

충청북도 충주시 주덕읍 신양로 62,D,0,,의료법인송원의료재단송원요양병원,043-856-3501,,1630,0900,1630,0900,1630,0900,1630,0900,1630,0900,,,,,,,36.9715609428567,127.79412788435118

충청북도 충주시 중심3길 4-2 (문화동),D,0,점심시간 12:30~13:30,의료법인용은의료재단충주요양병원,043-843-9300,,1800,0900,1800,0900,1800,0900,1800,0900,1800,0900,,,,,,,36.973287579810645,127.925483038572

충청북도 충주시 동량면 충원대로 1398,D,0,,충주시노인전문병원,043-855-9393,,1700,0900,1700,0900,1700,0900,1700,0900,1700,0900,,,,,,,37.04830534148589,127.93099751870358

충청북도 충주시 연수상가3길 14 (연수동),D,0,,충주현대요양병원,043-857-8009,,1800,0900,1800,0900,1800,0900,1800,0900,1800,0900,,,,,,,36.988604376577044,127.93069395545788

경상남도 창원시 마산합포구 3.15대로 243,D,0,마산의료원 옆,경희요양병원,055-245-9988,,1800,0900,1730,0900,1730,0900,1730,0900,1730,0900,1230,0900,,,,,35.200134176132515,128.56699830184417

"경상남도 창원시 마산합포구 남성로 167 (동성동, 한마빌딩)",D,0,,광제요양병원,055-240-8200,,1700,0900,1700,0900,1700,0900,1700,0900,1700,0900,,,,,,,35.20549354095945,128.57820015251565

"경상남도 창원시 마산회원구 무학로 619 (회원동, 마산노인병원)",D,0,,마산요양병원,055-242-7582,,1700,0900,1700,0900,1700,0900,1700,0900,1700,0900,1200,0900,,,,,35.22110979929162,128.564186251934

경상남도 창원시 마산합포구 현동로 15 (우산동),D,0,,시립마산요양병원,055-221-2700,,1730,0830,1730,0830,1730,0830,1730,0830,1730,0830,,,,,,,35.154048344869025,128.5518712283955

"경상남도 창원시 마산회원구 봉양로 7 (양덕동, 동방프라자)",D,0,마산수출후문,의료법인굿모닝의료재단굿모닝요양병원,055-259-1000,,1730,0900,1730,0900,1730,0900,1730,0900,1730,0900,1200,0900,,,,,35.2213974964903,128.58793074956088

경상남도 창원시 마산합포구 수산1길 262-2 (오동동),D,0,,의료법인벽암의료재단큰바다요양병원,055-221-3388,,1800,0900,1800,0900,1800,0900,1800,0900,1800,0900,,,,,,,35.2048110906,128.5834570508

"경상남도 창원시 마산회원구 3·15대로 878 (구암동, 효도병원)",D,0,"구암주유소옆, 합성동에서 동마산IC 가기 전",의료법인석영의료재단효도투석요양병원,055-292-7575,,1800,0900,1800,0900,1800,0900,1800,0900,1800,0900,1400,0900,,,,,35.24685953261861,128.592277652182

경상남도 창원시 마산회원구 3·15대로 597 (석전동),D,0,경남은행본점,의료법인승도의료재단메트로요양병원,055-299-3980,,1730,0830,1730,0830,1730,0830,1730,0830,1730,0830,1230,0830,,,,,35.2274375361,128.5736425253

경상남도 창원시 마산합포구 무학로 402 (자산동),D,0,,의료법인영민의료재단소망노인전문병원,055-247-7277,,1700,0900,1700,0900,1700,0900,1700,0900,1700,0900,1200,0900,,,,,35.204919583250955,128.56044485960427

"경상남도 창원시 마산합포구 중앙서1길 25 (대성동2가, 예경노인병원)",D,0,,의료법인예경의료재단예경요양병원,055-249-5500,,1800,0900,1800,0900,1800,0900,1800,0900,1800,0900,1200,0900,,,,,35.1937764517,128.5620799843

"경상남도 창원시 마산회원구 봉양로 160 (봉암동, 정다운요양병원)",D,0,무학소주 회사 옆,의료법인정다운사람들의료재단정다운요양병원,055-255-7777,,1730,0900,1730,0900,1730,0900,1730,0900,1730,0900,1130,0900,,,,,35.217580555555557,128.603738888888898

경상남도 창원시 마산회원구 내서읍 죽암로 89 (신세계요양병원),D,0,,의료법인청록의료재단신세계요양병원,055-232-5600,,1800,0900,1800,0900,1800,0900,1800,0900,1800,0900,,,,,,,35.2599643643,128.50917037240015

"경상남도 창원시 마산합포구 해안대로 35 (해운동, MH우리병원)",D,0,,의료법인합포의료재단마산우리요양병원,055-220-7500,,1730,0830,1730,0830,1730,0830,1730,0830,1730,0830,1230,0830,,,,,35.18090917121002,128.56244842076222

경상남도 창원시 마산합포구 진동면 삼진의거대로 826,D,0,,의료법인혜주의료재단 더편한요양병원,055-606-7722,,1800,0900,1800,0900,1800,0900,1800,0900,1800,0900,1200,0900,,,,,35.1282169443,128.5004033106

"경상남도 창원시 마산회원구 3·15대로 850 (합성동, 마산복음병원)",D,0,,재단법인한국뇌졸중연구장학재단마산복음요양병원,055-290-3000,,1800,0900,1800,0900,1800,0900,1800,0900,1800,0900,1300,0900,,,,,35.24541614750921,128.5895765669012

경상남도 창원시 마산합포구 가포로 652 (덕동동),D,0,,창원요양병원,055-230-7777,,1730,0930,1730,0930,1730,0930,1730,0930,1730,0930,,,,,,,35.142014676598045,128.57898046579984

"경상남도 창원시 마산합포구 현동로 38, 4-10층 (우산동)",D,0,,친절요양병원,055-222-7900,,1800,0900,1800,0900,1800,0900,1800,0900,1800,0900,1300,0900,,,,,35.1518743218,128.5529432491

경상남도 창원시 마산회원구 북성로 469 (두척동),D,0,,큰사랑요양병원,055-600-8000,,1730,0900,1730,0900,1730,0900,1730,0900,1730,0900,1130,0900,,,,,35.23633007824438,128.54689760139124

인천광역시 연수구 원인재로 263 (연수동),D,0,신연수역 3번 출구,경인의료재활센터병원,032-899-4000,,1730,0830,1730,0830,1730,0830,1730,0830,1730,0830,1230,0830,,,,,37.417900771597175,126.69016051057286

"인천광역시 연수구 벚꽃로 114, 브랫슬 7~8층 (연수동)",D,0,,로하스인천요양병원,032-421-1288,,1800,0900,1800,0900,1800,0900,1800,0900,1800,0900,1500,0900,,,,,37.401987966099284,126.71006875751776

"인천광역시 연수구 능허대로 235 (옥련동, 송도효자병원)",D,0,송도 골프장 맞은편,송도효자병원,032-832-9900,,1800,0900,1800,0900,1800,0900,1800,0900,1800,0900,1300,0900,,,,,37.41534403817486,126.65192950656424

경기도 안성시 금광면 삼흥로 453-69,D,0,,안성현대요양병원,031-673-6116,,1700,0900,1700,0900,1700,0900,1700,0900,1700,0900,1300,0900,,,,,37.01842628596092,127.36100542807234

경기도 안성시 금광면 금광오산로 128,D,0,,엔젤요양병원,031--677-1004,,1800,0900,1800,0900,1800,0900,1800,0900,1800,0900,1500,0900,,,,,36.98991388491673,127.31446556250094

경기도 안성시 양성면 미리내성지로 274-29,D,0,,인선요양병원,031-673-0836,,1800,0900,1800,0900,1800,0900,1800,0900,1800,0900,,,,,,,37.1291221526395,127.26339366081697

경기도 안성시 죽산면 녹배길 139,D,0,,파라밀요양병원,031-677-2613,,1800,0900,1800,0900,1800,0900,1800,0900,1800,0900,,,,,,,37.06468891320457,127.38868967367235

"전라북도 전주시 완산구 덕적골1길 69, 전주사랑병원 (평화동1가)",D,0,"전주시 완산구 평화동에 위치 완산여고 후문, 자이안즈 아파트 위에 위치하고 있습니다. ",사랑요양병원,063-282-1600,,1730,0830,1730,0830,1730,0830,1730,0830,1730,0830,1230,0830,,,,,35.79189907674188,127.14134955340655

전라북도 전주시 덕진구 가리내로 118 (덕진동1가),D,0,"서신교 사거리, ",성모요양병원,063-270-5003,,1800,0900,1800,0900,1800,0900,1800,0900,1800,0900,,,,,,,35.835822222222220,127.123472222222219

전라북도 전주시 덕진구 아중로 223-0 (우아동2가),D,0,,아중요양병원,063-714-8888,,1720,0900,1720,0900,1720,0900,1720,0900,1720,0900,1220,0900,,,,,35.8290610874,127.1734657215

전라북도 전주시 완산구 쑥고개옛길 118 (삼천동3가),D,0,김제 금구 가는쪽 쑥고개길에 바로 위치,연수요양병원,063-220-9311,,1700,0900,1700,0900,1700,0900,1700,0900,1700,0900,1430,0900,,,,,35.79365244252495,127.07672559201504

전라북도 전주시 덕진구 전주천서로 337 (진북동),D,0,,예송요양병원,063-250-9100,,1800,0900,1800,0900,1800,0900,1800,0900,1800,0900,,,,,,,35.8223435669,127.1319574314

전라북도 전주시 덕진구 정여립로 978 (만성동),D,0,황방산 뒤쪽(이서방향),우리노인전문병원,063-210-3600,,1800,1000,1800,1000,1800,1000,1800,1000,1800,1000,1200,1000,,,,,35.83674494309771,127.07847251946435

"전라북도 전주시 완산구 우전로 241, 우리들사랑요양병원 (효자동2가)",D,0,,우리들사랑요양병원,063-711-1300,,1800,0900,1800,0900,1800,0900,1800,0900,1800,0900,,,,,,,35.8158950296,127.1013269441

전라북도 전주시 덕진구 안덕원로 291 (인후동1가),D,0,,의료법인 디딤의료재단 우리요양병원,063-714-3838,,1800,0900,1800,0900,1800,0900,1800,0900,1800,0900,,,,,,,35.83776952534301,127.1587682659265

전라북도 전주시 완산구 중인1길 136-20 (중인동),D,0,모악산 밑,의료법인 옥성의료재단 골든카운티 요양병원,063-221-7676,,1700,0900,1700,0900,1700,0900,1700,0900,1700,0900,,,,,,,35.76839588629415,127.09188748754026

"전라북도 전주시 완산구 선너머2길 4, 전주나눔요양병원 (중화산동1가)",D,0,동남삼정아파트 정문 옆,의료법인 효일의료재단 나눔요양병원,063-276-7000,,1800,0900,1800,0900,1800,0900,1800,0900,1800,0900,1300,0900,,,,,35.81253071700697,127.12940710931599

전라북도 전주시 완산구 맏내로 114 (평화동2가),D,0,,의료법인건강나라의료재단 건강나라요양병원,063-225-0880,,1800,0900,1800,0900,1800,0900,1800,0900,1800,0900,1200,0900,,,,,35.79056790480571,127.12934297869957

전라북도 전주시 완산구 충경로 91 (경원동3가),D,0,관통로 민중서관에서 병무청가는 쪽 현대자동차 옆,의료법인계산재단문실버요양병원,063-282-8833,,1800,0900,1800,0900,1800,0900,1800,0900,1800,0900,1300,0900,,,,,35.818150000000003,127.146505555555549

전라북도 전주시 덕진구 진버들7길 33 (우아동2가),D,0,전주고려병원 맞은편 우아성당 옆에 위치,의료법인생명의료재단 늘푸른요양병원,063-247-0301,,1800,0900,1800,0900,1800,0900,1800,0900,1800,0900,1230,0900,,,,,35.838572222222226,127.166316666666660

전라북도 전주시 덕진구 솔내로 148 (송천동1가),D,0,송천동 신일아파트 정문 옆 건물에 위치,전주 정드림요양병원,063-276-7122,,1800,0900,1800,0900,1800,0900,1800,0900,1800,0900,1230,0900,,,,,35.863442840688826,127.12730109133051

전라북도 전주시 완산구 용리로 60 (삼천동1가),D,0,삼천동 완산소방서 바로 옆 ,전주늘사랑요양병원,063-224-0081,,1730,0900,1730,0900,1730,0900,1730,0900,1730,0900,1300,0900,,,,,35.79847991269922,127.11629278342853

전라북도 전주시 완산구 능안자구길 80 (삼천동3가),D,0,박물관 지나서 완산고등학교 옆에 있음,전주시노인복지병원,063-220-9700,,1730,0900,1730,0900,1730,0900,1730,0900,1730,0900,1130,0900,,,,,35.80408260359615,127.08573434242674

전라북도 전주시 덕진구 가리내로 23 (금암동),D,0,시외버스 터미널 앞,중앙요양병원,063-250-6101,,1800,0900,1800,0900,1800,0900,1800,0900,1800,0900,1230,0900,,,,,35.83382850942968,127.13333268947585

전라북도 전주시 덕진구 백제대로 822 (우아동3가),D,0,,포도나무요양병원,063241-6700,,1800,0900,1800,0900,1800,0900,1800,0900,1800,0900,,,,,,,35.8482137818,127.15839057029999

전라북도 전주시 완산구 덕적골3길 55 (평화동1가),D,0,평화주공1단지 102동 뒤,학산요양병원,063-230-2900,,1800,0900,1800,0900,1800,0900,1800,0900,1800,0900,1300,0900,,,,,35.79459790265776,127.143507053229

전라북도 전주시 덕진구 백제대로 587 (금암동),D,0,덕진소방서와 전북대학교 신정문 사이에 위치함.,한국노인요양병원,063-252-3723,,1700,0900,1700,0900,1700,0900,1700,0900,1700,0900,1700,0900,1700,0900,,,35.841450000000002,127.133513888888885

전라북도 전주시 완산구 백제대로 234 (중화산동2가),D,0,알콜질환 진료불가 / 이중본 맞은편,한마음요양병원,063-220-1111,,1730,0900,1730,0900,1730,0900,1730,0900,1730,0900,1200,0900,,,,,35.813885122486774,127.123513893081

전라북도 전주시 덕진구 쪽구름로 87-1 (반월동),D,0,"동산우체국, 동산파출소 맞은편",한빛의료소비자생활협동조합 마음편한요양병원,063-714-25000,,1730,0830,1730,0830,1730,0830,1730,0830,1730,0830,,,,,,,35.87277963598713,127.07542728657054

전라북도 전주시 덕진구 번영로 462 (반월동),D,0,,한빛의료소비자생활협동조합 행복나라요양병원,063-211-2277,,1730,0830,1730,0830,1730,0830,1730,0830,1730,0830,1600,0830,,,,,35.8734816099,127.0580195516

전라북도 전주시 완산구 용머리로 251 (서완산동2가),D,0,용머리고개 바울교회 육교 건너편에 위치,한사랑요양병원,063-231-4800,,1800,0900,1800,0900,1800,0900,1800,0900,1800,0900,1200,0900,,,,,35.80949685789052,127.13689967345655

전라북도 전주시 완산구 장승배기로 46 (삼천동1가),D,0,대왕장미아파트 사거리에 바로위치,한솔요양병원,063-228-1122,,1800,0900,1800,0900,1800,0900,1800,0900,1800,0900,1230,0900,,,,,35.79210558311467,127.11782131389951

전라북도 전주시 완산구 팔달로 202-15 (경원동3가),D,0,,해맑은요양병원,063231-1100,,1730,0900,1730,0900,1730,0900,1730,0900,1730,0900,,,,,,,35.82076527611737,127.14688056338578

전라북도 전주시 덕진구 백제대로 700 (덕진동1가),D,0,,행복한요양병원,063-240-7000,,1800,0900,1800,0900,1800,0900,1800,0900,1800,0900,1300,0900,,,,,35.84416407855793,127.14586232944004

전라북도 전주시 완산구 용머리로 77 (효자동1가),D,0,남전주KT사거리에서 홈플러스 방향,효사랑가족요양병원,063-711-1111,,1720,0900,1720,0900,1720,0900,1720,0900,1720,0900,1220,0900,,,,,35.806676126368664,127.11883831458104

"충청북도 청주시 상당구 상당로 47, 2.3층 (남문로2가)",D,0,,남궁요양병원,043-252-3000,,1800,0900,1800,0900,1800,0900,1800,0900,1800,0900,1300,0900,,,,,36.632637641,127.4903756368

충청북도 청주시 상당구 단재로 132 (영운동),D,0,,소망요양병원,043-255-0126,,1800,0900,1800,0900,1800,0900,1800,0900,1800,0900,1300,0900,,,,,36.617552978303614,127.49813197252193

충청북도 청주시 상당구 목련로 64,D,0,충청북도여성발전센터 맞은편,예사랑병원,043-298-7337,,1800,0900,1800,0900,1800,0900,1800,0900,1800,0900,,,,,,,36.5993077837563,127.51246073296849

전라북도 전주시 완산구 팔달로 272 (서노송동),D,0,중앙시장 앞(전주세이브존 옆) 농협 삼거리에위치함.,효사랑전주요양병원,063-278-8288,,1730,0900,1730,0900,1730,0900,1730,0900,1730,0900,1230,0900,,,,,35.82637264215782,127.14410873745447

전라북도 전주시 덕진구 여암1길 37 (여의동),D,0,호남제일문에서 삼례가는 방향 50m 우측에 위치,효성의료재단 새전주요양병원,063-213-8275,,1740,0900,1740,0900,1740,0900,1740,0900,1740,0900,1220,0900,,,,,35.87006646417344,127.07314378293538

전라남도 곡성군 겸면 곡순로 1756,D,0,,곡성군립노인전문병원,061-360-9000,,1700,0900,1700,0900,1700,0900,1700,0900,1700,0900,,,,,,,35.25281565558841,127.18433250742106

전라북도 전주시 덕진구 기린대로 951 (여의동),D,0,"전주공고 입구 인근,",나은요양병원,063-715-2300,,1700,0900,1700,0900,1700,0900,1700,0900,1700,0900,,,,,,,35.86448842155244,127.08067211695413

전라북도 전주시 완산구 흑석2길 22 (서서학동),D,0,,더숲요양병원,063-230-2000,,1800,0900,1800,0900,1800,0900,1800,0900,1800,0900,1800,0900,,,,,35.79599467871114,127.15006078704152

전라북도 전주시 덕진구 발단길 5 (송천동2가),D,0,송천동 메가월드에서 전미동방면,만인요양병원,063-273-0075,,1730,0900,1730,0900,1730,0900,1730,0900,1730,0900,,,,,,,35.871219644664635,127.11562927774678

전라북도 전주시 덕진구 조경단로 77 (금암동),D,0,사대부고사거리에서 시외버스터미널 방향으로 70M가다보면 오른쪽에 위치,벧엘요양병원,063-255-5321,,1800,0900,1800,0900,1800,0900,1800,0900,1800,0900,1200,0900,,,,,35.841211111111114,127.138572222222223

경기도 안성시 양성면 미리내성지로 386-27,D,0,,대건효도병원,031-671-0044,,1800,0900,1800,0900,1800,0900,1800,0900,1800,0900,,,,,,,37.13774419297176,127.26140653302255

경기도 안성시 남파로 169 (당왕동),D,0,,성요셉병원,031-671-7000,,1800,0830,1800,0830,1800,0830,1800,0830,1800,0830,1400,0830,,,,,37.01665531457324,127.2691647263953

경기도 안성시 인지1길 15 (인지동),D,0,,안성동인요양병원,031-671-9100,,1800,0900,1800,0900,1800,0900,1800,0900,1800,0900,1300,0900,,,,,37.005074882011655,127.26653582548377

경기도 안성시 안성맞춤대로 1079 (연지동),D,0,,안성요양병원,031-675-2316,,1800,0900,1800,0900,1800,0900,1800,0900,1800,0900,1400,0900,,,,,37.00987372133799,127.26999473968806

인천광역시 연수구 옥련로 29 (옥련동),D,0,송도방향으로 옥련터널 나와서 옥련사거리에서 우측으로 30m에 위치합니다,송도베스트요양병원,032-859-8588,,1800,0900,1800,0900,1800,0900,1800,0900,1800,0900,1300,0900,,,,,37.4274932594,126.6426840663

경상북도 안동시 대안로 76 (옥야동),D,0,,아주안제요양병원,054-841-7500,,1800,0900,1800,0900,1800,0900,1800,0900,1800,0900,1230,0900,,,,,36.56489900283601,128.72118431082325

"경기도 양평군 청운면 신론로 406-17, 홍영노인전문병원",D,0,,홍영노인전문병원,031-775-1927,,1800,0900,1800,0900,1800,0900,1800,0900,1800,0900,1500,0900,1500,0900,1500,0900,37.557254777492034,127.78079445658742

전라남도 영광군 영광읍 와룡로 3-1 ,D,0,영광종합병원 근방,영광군공립요양병원,061-353-5050,,1730,0830,1730,0830,1730,0830,1730,0830,1730,0830,1300,0830,,,,,35.28483188109447,126.49996974638836

"인천광역시 남동구 논현로26번길 6, 에이스프라자 2, 4~9층 (논현동)",D,0,,스마일요양병원,032-431-8899,,1800,0900,1800,0900,1800,0900,1800,0900,1800,0900,1300,0900,,,,,37.40295542213553,126.70923828557277

부산광역시 사하구 동매로44번길 4 (하단동),D,0,버스정류장: 하단1동 주민센터,부산노인전문제4병원,051-202-1370,,1800,0900,1800,0900,1800,0900,1800,0900,1800,0900,,,,,,,35.102423836100776,128.96306300498568

경상북도 의성군 의성읍 홍술로 94,D,0,,의성제일요양병원,054-832-7575,,2200,0900,2200,0900,2200,0900,2200,0900,2200,0900,2200,0900,2200,0900,2200,0900,36.3542596345,128.6888992664

"전라남도 장흥군 장흥읍 중앙로 6, 장흥요양병원",D,0,,장흥요양병원,061-862-8881,,1800,0900,1800,0900,1800,0900,1800,0900,1800,0900,,,,,,,34.67681467427584,126.90948179888422

"부산광역시 동래구 충렬대로 437, 안락동 요양병원 (안락동)",D,0,버스정류장: 동래한전,노블레스요양병원,051-532-1005,,1700,0900,1700,0900,1700,0900,1700,0900,1700,0900,1200,0900,,,,,35.193073813574685,129.1074531316609

부산광역시 동래구 아시아드대로 239-1 (온천동),D,0,3호선 미남역 3번 출구,미남동의요양병원,051-507-7714,,1800,0900,1800,0900,1800,0900,1800,0900,1800,0900,,,,,,,35.205453466723874,129.06744800708168

부산광역시 동래구 충렬대로 97 (온천동),D,0,4호선 미남역 12번출구/광혜병원 맞은편,사직요양병원,051-931-7000,,1800,0900,1800,0900,1800,0900,1800,0900,1800,0900,1300,0900,,,,,35.207342963530685,129.07183508794083

부산광역시 동래구 시실로 12 (명륜동),D,0,1호선 온천장역 2번출구,성산현대요양병원,051-555-6533,,1700,0900,1700,0900,1700,0900,1700,0900,1700,0900,1200,0900,,,,,35.2175103537626,129.08556265928289

부산광역시 동래구 충렬대로 120 (온천동),D,0,4호선 동래역 6번 출구,으뜸요양병원,051-500-1500,,1800,0900,1800,0900,1800,0900,1800,0900,1800,0900,,,,,,,35.20597773626158,129.07347595744855

부산광역시 동래구 충렬대로348번길 23 (낙민동),D,0,4호선 충렬사역 2번출구,의)은성의료재단 좋은애인요양병원,051-520-7700,,1800,0900,1800,0900,1800,0900,1800,0900,1800,0900,1300,0900,,,,,35.196833837492775,129.0958323292309

부산광역시 동래구 금강공원로 40 (온천동),D,0,버스정류장: 금강공원 입구,의료법인강혜의료재단온천사랑의요양병원,051-500-9000,,1700,0900,1700,0900,1700,0900,1700,0900,1700,0900,1300,0900,,,,,35.21898565222514,129.0802635419136

부산광역시 동래구 금강로 64  (온천동),D,0,1호선 명륜역 3번출구/버스정류장: 유락삼거리,의료법인 영신의료재단 동래유유요양병원,051-555-7588,,1730,0900,1730,0900,1730,0900,1730,0900,1730,0900,,,,,,,35.21490128998228,129.07754389201344

부산광역시 동래구 온천장로 40 (온천동),D,0,1호선 명륜역 3번 출구,의료법인 온의료재단 신세계요양병원,051-554-8811,,1800,0900,1800,0900,1800,0900,1800,0900,1800,0900,,,,,,,35.21566781408534,129.07971566287742

부산광역시 동래구 금강공원로 32 (온천동),D,0,버스정류장:구)온천극장 맞은편 건물/대두약국 옆,의료법인윤재의료재단금강요양병원,051-555-5850,,1800,0900,1800,0900,1800,0900,1800,0900,1800,0900,1200,0900,,,,,35.2191729808598,129.08109650568488

부산광역시 동래구 금강로 141 (온천동),D,0,1호선 온천장역 1번출구,의료법인윤재의료재단금정요양병원,051-581-5846,,1800,0900,1800,0900,1800,0900,1800,0900,1800,0900,,,,,,,35.221305728265094,129.08053600685733

부산광역시 동래구 충렬대로 258 (낙민동),D,0,4호선 수안역 8번 출구,의료법인은빛의료재단참사랑요양병원,051-553-0050,,1700,0900,1700,0900,1700,0900,1700,0900,1700,0900,,,,,,,35.20073350295417,129.08727895277667

부산광역시 동래구 명륜로 147 (명륜동),D,0,"버스정류장:동래전화국과 우체국 사이/1,4호선 동래역 4번 출구 인근",의료법인장수의료재단동래요양병원,051-557-7011,,1800,0900,1800,0900,1800,0900,1800,0900,1800,0900,1300,0900,,,,,35.20704025194923,129.08182186671632

"부산광역시 동래구 충렬대로 372 (안락동, 안락동요양병원)",D,0,"버스정류장: 안락동 우체국 
인근 지하철역 동해남부선 안락역 3번 출구, 4호선 충렬사역 2번 출구",준요양병원,051-525-7711,,1730,0900,1730,0900,1730,0900,1730,0900,1730,0900,1300,0900,,,,,35.19735616290001,129.09915005080157

서울특별시 서대문구 성산로 335 (연희동),D,0,"2호선 신촌역 하자(마을버스03,04번 한승 후 연희교차로에서 하차)",강북삼성요양병원,02-335-2277,,1730,0900,1730,0900,1730,0900,1730,0900,1730,0900,,,,,,,37.5661174074155,126.9276538044909

서울특별시 서대문구 수색로 131 (북가좌동),D,0,6호선 디지털미디어시티역 4번출구 10분 거리,사랑요양병원,02-304-7573,,1800,0900,1800,0900,1800,0900,1800,0900,1800,0900,1300,0900,,,,,37.574203641634895,126.90567579554246

서울특별시 서대문구 통일로 544 (홍은동),D,0,홍은센트레빌3단지 맞은편,효담요양병원,02-395-8880,,1800,0900,1800,0900,1800,0900,1800,0900,1800,0900,,,,,,,37.5962533257,126.9395550894

"인천광역시 남동구 남동대로 797 (구월동, 지하1층일부,1층일부, 2~6층)",D,0,,가온요양병원,032-212-2001,,1800,0900,1800,0900,1800,0900,1800,0900,1800,0900,1300,0900,,,,,37.4535346445,126.7077361021

"인천광역시 남동구 구월로 305, 4층~8층외 303 7,8층동 (만수동)",D,0,만수동 씨티은행 맞은편 건물 ,고려요양병원,032-462-3065,,1730,0900,1730,0900,1730,0900,1730,0900,1730,0900,1200,0930,,,,,37.45583340463859,126.72470344953518

"인천광역시 남동구 소래역남로16번길 20, 둘리프라자 (논현동)",D,0,,나은요양병원,032-710-6001,,1800,0900,1800,0900,1800,0900,1800,0900,1800,0900,1300,0900,,,,,37.3983756387,126.735768927

"인천광역시 남동구 미래로 45, 2,3,5,7층 (구월동, 벤처빌딩)",D,0,,더행복요양병원,032-431-8585,,1700,0900,1700,0900,1700,0900,1700,0900,1700,0900,1300,0900,,,,,37.45424653690773,126.70415284879593

"인천광역시 남동구 경인로 520, 7~9층 전체호 (간석동, 탑프라자2)",D,0,,라이온요양병원,032-426-7575,,1800,0900,1800,0900,1800,0900,1800,0900,1800,0900,1300,0900,,,,,37.4607770937,126.6970559574

"인천광역시 남동구 남동대로799번길 25 (구월동, 미추홀요양병원)",D,0,인천시청광장 인근,미추홀재활전문병원,032-430-6200,,1800,0900,1800,0900,1800,0900,1800,0900,1800,0900,1300,0900,,,,,37.453711808774955,126.70651028134746

인천광역시 남동구 인주대로 806 (구월동),D,0,,봄날요양병원,032-464-9101,,1700,0900,1700,0900,1700,0900,1700,0900,1700,0900,1230,0900,,,,,37.44838506233038,126.72674248355463

"인천광역시 남동구 논고개로 77, 에코타워 7,8층 (논현동)",D,0,하이마트7층,뿌리요양병원,032-431-7979,,1800,0900,1800,0900,1800,0900,1800,0900,1800,0900,1300,0900,,,,,37.3984368895,126.7262549407

"인천광역시 남동구 논고개로123번길 17, 아이플렉스 11층 (논현동)",D,0,,새인천요양병원,032-719-7874,,1800,0900,1800,0900,1800,0900,1800,0900,1800,0900,,,,,,,37.4016839882,126.7230852889

"인천광역시 남동구 백범로 403, A동 지하1~5층 (간석동)",D,0,간석오거리역 7번 출구 직진방향 50미터,소망요양병원,032-427-1175,,1800,0900,1800,0900,1800,0900,1800,0900,1800,0900,1200,0900,,,,,37.4670286835,126.7064944025

"인천광역시 남동구 인주대로 852 (만수동, 연세빌딩)",D,0,남동구청 옆 보건소 정문 진입로,연세효요양병원,032-468-3388,,1200,0900,1200,0900,1200,0900,1200,0900,1200,0900,1500,0900,,,1500,0900,37.44815922131779,126.73196438497078

"인천광역시 남동구 논고개로123번길 35, 10층,11층 (논현동, 칼리오페)",D,0,,의료법인 정강의료재단 위드미요양병원,032-438-5800,,1800,0900,1800,0900,1800,0900,1800,0900,1800,0900,1300,0900,,,,,37.40141809941913,126.72245066217354

"인천광역시 남동구 앵고개로948번길 4, 3,4,5,6층 전체호 (논현동, 서울프라자)",D,0,,이편안인천요양병원,032-868-9988,,1730,0900,1730,0900,1730,0900,1730,0900,1730,0900,1200,0900,,,,,37.40253587487395,126.7356713068494

"인천광역시 남동구 호구포로 212, 대양프라자빌딩 5,6,7,8층 (논현동)",D,0,,인천아산요양병원,032-713-4100,,1800,0900,1800,0900,1800,0900,1800,0900,1800,0900,1300,0900,,,,,37.4017460856,126.7099025361

"인천광역시 남동구 서창남순환로216번길 46, MS프라자, 3층일부, 4~6층, 7층일부 (서창동)",D,0,,효민요양병원,032-461-7577,,1730,0830,1730,0830,1730,0830,1730,0830,1730,0830,1230,0830,,,,,37.4222462664,126.7494134641

부산광역시 남구 황령대로 355-14 (대연동),D,0,2호선 경성대부경대역 2번출구,그랜드자연요양병원,051-612-0075,,1800,0900,1800,0900,1800,0900,1800,0900,1800,0900,,,,,,,35.146793383881594,129.09779217267055

부산광역시 남구 석포로26번길 17 (감만동),D,0,버스정류장: 동천초등학교,새라새요양병원,051-628-6005,,1730,0900,1730,0900,1730,0900,1730,0900,1730,0900,1200,0900,,,,,35.12234482672502,129.08386373714632

부산광역시 남구 신선로 429 (용당동),D,0,버스정류장: 동명대학교,용당요양병원,051-625-3001,,1800,0900,1800,0900,1800,0900,1800,0900,1800,0900,1400,1000,,,,,35.123549523624774,129.09911787428933

부산광역시 남구 수영로 164 (대연동),D,0,"2호선 못골지하철역 1,3번 출구",의료법인은경의료재단인창대연요양병원,051-774-1004,,1730,0830,1730,0830,1730,0830,1730,0830,1730,0830,,,,,,,35.13447270630001,129.08459407960151

"부산광역시 남구 용호로 132, 용성빌딩3,4층 (용호동)",D,0,"버스정류장: 부산은행 용호동지점/용성빌딩 3,4층",임해누리의료소비자생활협동조합오륙도요양병원,051-647-7007,,1800,0900,1800,0900,1800,0900,1800,0900,1800,0900,,,,,,,35.12053193473065,129.11201765159294

부산광역시 남구 우암양달로75번길 29 (우암동),D,0,버스정류장: 우암초등학교,제니스파크요양병원,051-644-7733,,1700,0900,1700,0900,1700,0900,1700,0900,1700,0900,1300,0900,,,,,35.12658548320651,129.07456440651853

부산광역시 남구 용호로 95 (용호동),D,0,버스정류장: 용호동 이기대공원 입구,효메디요양병원,051-624-6600,,1800,1000,1800,1000,1800,1000,1800,1000,1800,1000,,,,,,,35.12357504737009,129.1127330425005

경상남도 양산시 상북면 양산대로 1870-64,D,0,,경상남도립양산노인전문병원,055-375-7275,,1700,0830,1700,0830,1700,0830,1700,0830,1700,0830,,,,,,,35.42925883307693,129.06959401168427

경상남도 양산시 양산대로 822 (북부동),D,0,,세연요양병원,055-372-3075,,1800,0900,1800,0900,1800,0900,1800,0900,1800,0900,1300,0900,,,,,35.3440985002,129.0346287275

경상남도 양산시 월라2길 45 (덕계동),D,0,,신세계요양병원,055-365-6666,,1700,0900,1700,0900,1700,0900,1700,0900,1700,0900,1200,0900,,,,,35.36512968166771,129.15055682262212

"경상남도 양산시 삼성7길 11-14 (북정동, 1층 일부, 2~9층)",D,0,,양산서울요양병원,055-364-1000,,1700,0900,1700,0900,1700,0900,1700,0900,1700,0900,,,,,,,35.357863999,129.0419129928

경상남도 양산시 장터4길 6-9 (중부동),D,0,,양산중앙요양병원,055-383-7582,,1800,0900,1800,0900,1800,0900,1800,0900,1800,0900,,,,,,,35.341994107,129.0363004289

"경상남도 양산시 삼일로 75 (북부동, 지하1층,1층일부,3-7층)",D,0,,유성요양병원,055-363-1111,,1800,0900,1800,0900,1800,0900,1800,0900,1800,0900,1800,0900,,,,,35.34391227,129.0356270952

경상남도 양산시 북안남6길 6 (북부동),D,0, ,의료법인 인경의료재단 홍익요양병원,055-364-7565,,1800,0900,1800,0900,1800,0900,1800,0900,1800,0900,,,,,,,35.3461076952,129.0383922284

"경상남도 양산시 하북면 신평로 37, 2~6층",D,0,,평심요양병원,055-800-7090,,1730,0900,1730,0900,1730,0900,1730,0900,1730,0900,1230,0900,,,,,35.4916259188,129.0864661162

경상남도 양산시 상북면 대석1길 58,D,0,,현대요양병원,055-375-0600,,1730,0900,1730,0900,1730,0900,1730,0900,1730,0900,1230,0900,,,,,35.395127599,129.0629213464

"경상남도 양산시 상북면 양산대로 1870-64, 4층 (형주요양병원)",D,0,,형주요양병원,055-375-7576,,1700,0800,1700,0800,1700,0800,1700,0800,1700,0800,,,,,,,35.4298380094,129.071191923

경상남도 양산시 웅상대로 955 (평산동),D,0,,혜인요양병원,055-385-7551,,1800,0900,1800,0900,1800,0900,1800,0900,1800,0900,1300,0900,,,,,35.3845761754,129.1550342948

경기도 용인시 수지구 포은대로313번길 2-8 (풍덕천동),D,0,,의료법인광화의료재단러스크병원,031-898-0007,,2000,0830,2000,0830,2000,0830,2000,0830,2000,0830,1800,0830,1800,1000,,,37.31532682600013,127.08676645465455

전라남도 광양시 중마중앙로 134 (중동),D,0,광양시 중마 중앙로 중마소방서 근접지역에 위치(우리은행 맞은편),늘편한요양병원,061-794-1000,,1730,0900,1730,0900,1730,0900,1730,0900,1730,0900,,,,,,,34.9422539446,127.6983193928

전라남도 광양시 광양읍 덕산4길 35-4,D,0,,수요양병원,061-914-1001,,1800,0900,1800,0900,1800,0900,1800,0900,1800,0900,,,,,,,34.96853028914267,127.56221603681806

전라남도 광양시 광양읍 대림오성로  61,D,0,,의료법인21세기의료재단복음요양병원,061-763-7575,,1800,0900,1800,0900,1800,0900,1800,0900,1800,0900,,,,,,,34.96754799348286,127.56952380276594

전라남도 광양시 광양읍 남문3길 7,D,0,,의료법인백운의료재단 칠성요양병원,061-763-1500,,1800,0900,1800,0900,1800,0900,1800,0900,1800,0900,,,,,,,34.97342390186046,127.58416380090736

부산광역시 해운대구 달맞이길117번나길 30 (중동),D,0,버스정류장: 해운대달맞이길,달맞이요양병원,051-744-5275,,1800,0900,1800,0900,1800,0900,1800,0900,1800,0900,1200,0900,,,,,35.15840962950464,129.1811767665647

"부산광역시 해운대구 해운대로 604, 명성빌딩 5~10층 (우동)",D,0,3호선 해운대역 7번 출구,명성요양병원,051-741-5668,,1800,0900,1800,0900,1800,0900,1800,0900,1800,0900,1300,0900,,,,,35.162566666666663,129.157358333333320

부산광역시 해운대구 아랫반송로6번길 37 (반송동),D,0,4호선 영산대역 2번출구,미소요양병원,051-543-9100,,1800,0900,1800,0900,1800,0900,1800,0900,1800,0900,,,,,,,35.22493757272373,129.14645891504415

부산광역시 해운대구 해운대로469번가길 77 (우동),D,0,2호선 시립미술관역2번 출구 100M 우이약국 앞 셔틀버스가능,부산노인전문제3병원,051-780-5555,,1800,0900,1800,0900,1800,0900,1800,0900,1800,0900,,,,,,,35.1683758371976,129.14749318363414

"부산광역시 해운대구 해운대로 802, 10층 (좌동)",D,0,"2호선 장산역 7,9번출구/웅신시네아트 5층",새생명요양병원,051-704-8661,,1800,0900,1800,0900,1800,0900,1800,0900,1800,0900,1500,0900,,,,,35.16915479396809,129.17666756675356

"부산광역시 해운대구 APEC로 17, 2층일부, 3, 5~6층 (우동)",D,0,"2호선 센텀시티역 11번,13번 출구",센텀이루다요양병원,051-608-7000,,1800,0900,1800,0900,1800,0900,1800,0900,1800,0900,1230,0900,,,,,35.165934018,129.132409587

"부산광역시 해운대구 좌동순환로 247, 2층, 6-9층 (좌동)",D,0,버스정류장: 해운대백병원/2호선 장산역 2번출구,우정요양병원,051-702-7994,,1700,0900,1700,0900,1700,0900,1700,0900,1700,0900,1300,0900,,,,,35.17371016551457,129.18111644276252

"부산광역시 해운대구 반송로 832, 지하2층일부, 지상1층-지상4층호 (반송동, 은화요양병원)",D,0,4호선 영산대역 2번 출구,은화요양병원,051-714-5088,,1700,0900,1700,0900,1700,0900,1700,0900,1700,0900,1300,0900,,,,,35.227756236681344,129.14707350586218

부산광역시 해운대구 해운대로61번길 47 (재송동),D,0,,의료법인에벤에셀의료재단아름다운요양병원,051-782-7400,,1800,1000,1800,1000,1800,1000,1800,1000,1800,1000,1300,1000,,,,,35.19387176868114,129.12408088787217

"부산광역시 해운대구 세실로 31, 대승프라임 6층 (좌동)",D,0,2호선 장산역 3번 출구,의료법인한세의료재단천사요양병원,051-702-6000,,1800,0900,1800,0900,1800,0900,1800,0900,1800,0900,,,,,,,35.16783183535189,129.17907732372544

부산광역시 해운대구 달맞이길117번나길 24 (중동),D,0,버스정류장: 달맞이고개,의료법인한세의료재단효은요양병원,051-746-8787,,1800,0900,1800,0900,1800,0900,1800,0900,1800,0900,1300,0900,,,,,35.15869228150237,129.18179173011177

"부산광역시 해운대구 달맞이길117번나길 174 (중동, 아식스신발연구소)",D,0,버스정류장: 청사포 입구,의료법인 해올의료재단 힐마루요양병원,051-715-6000,,1700,0900,1700,0900,1700,0900,1700,0900,1700,0900,1230,0900,,,,,35.16409136920128,129.18521927265186

부산광역시 해운대구 해운대로76번길 12 (재송동),D,0,버스정류장: 센텀삼익아파트 맞은편,의료법인화인의료재단센텀화인요양병원,051-784-7297,,1700,0900,1700,0900,1700,0900,1700,0900,1700,0900,,,,,,,35.19086152939952,129.11937446315076

부산광역시 해운대구 아랫반송로1번길 27-3 (반송동),D,0,4호선 영산대역 2번출구,의료재단로뎀요양병원,051-544-8899,,1800,0900,1800,0900,1800,0900,1800,0900,1800,0900,1500,0900,,,,,35.226785334417315,129.1469424892507

"부산광역시 해운대구 좌동순환로 462, 지하1층-지상7층 (중동, 성심병원)",D,0,버스정류장: 미포문텐로드입구/구 해운대성심병원 자리 ,해운대성심요양병원,051-743-5555,,1730,0930,1730,0930,1730,0930,1730,0930,1730,0930,,,,,,,35.16224212488416,129.17196474680733

"부산광역시 해운대구 양운로 98, 13층 (좌동, 대하프라자)",D,0,2호선 장산역 10번 출구/해운대 문화회관 건너편,해운대시티요양병원,051-702-7503,,1730,0900,1730,0900,1730,0900,1730,0900,1730,0900,1300,0900,,,,,35.17161512594935,129.17484359343885

경상남도 양산시 서창동1길 7 (삼호동),D,0,,새웅상요양병원,055-386-6370,,1800,0900,1800,0900,1800,0900,1800,0900,1800,0900,1300,0900,,,,,35.411209029000055,129.1683443245751

"경기도 고양시 일산서구 일중로 59 (일산동, 일산마샬빌딩 4,5,6,7,8층)",D,0,,로하스일산요양병원,031-976-2200,,1800,0900,1800,0900,1800,0900,1800,0900,1800,0900,1500,0900,,,,,37.68497462091522,126.77525119710295

"경기도 고양시 일산서구 일현로 53, 1,4,5-8층 (탄현동)",D,0,,메디누리요양병원,031-925-7575,,1900,0900,1900,0900,1900,0900,1900,0900,1900,0900,1500,0900,,,,,37.69193553068607,126.7630483405913

"경기도 고양시 일산서구 덕이로 212 (덕이동, 백송프라자 3,4층 일부)",D,0,,무지개요양병원,031-916-1122,,1800,0900,1800,0900,1800,0900,1800,0900,1800,0900,1230,0900,,,,,37.6966926598,126.7393354823

"경기도 고양시 일산서구 중앙로 1564 (대화동, 그린월드빌딩 507호,6층,707호,8층,9층,10층)",D,0,"대화역 6번출구 그린월드건물5,6,7층",일산메디안요양병원,031-913-3119,,1900,0900,1900,0900,1900,0900,1900,0900,1900,0900,1400,0900,,,1400,0900,37.6762130927,126.748276139

"경기도 고양시 일산서구 고봉로 291 (일산동, 에이스스타디움7,8층)",D,0,,일산한울요양병원,031-975-3700,,1800,0900,1800,0900,1800,0900,1800,0900,1800,0900,,,,,,,37.6852378677,126.7772366252

"경기도 고양시 일산서구 원일로 69 (일산동, 씨티플라자 1층, 2층, 5층, 6층)",D,0,,착한요양병원,031-1877-7288,,1700,0900,1700,0900,1700,0900,1700,0900,1700,0900,1200,0900,,,,,37.68676680733491,126.77018482548466

"경기도 고양시 일산서구 주화로 88 (주엽동, 효림빌딩 201호, 205~6호, 3층, 10층)",D,0,,효림요양병원,031-919-0041,,1800,0900,1800,0900,1800,0900,1800,0900,1800,0900,1300,0900,,,,,37.670458224109204,126.75862855438164

"대구광역시 동구 동촌로 207 (방촌동, 강남병원)",D,0,,강남요양병원,053-983-4300,,1800,0900,1800,0900,1800,0900,1800,0900,1800,0900,1300,0900,,,,,35.8830900408,128.6634222509

대구광역시 동구 신암남로 159 (신암동),D,0,,동대구요양병원,053-957-7551,,1800,0900,1800,0900,1800,0900,1800,0900,1800,0900,1300,0900,,,,,35.88365847312529,128.63131287056632

"대구광역시 동구 해동로 119, 지하1,지상1~3층 (입석동)",D,0,,바른요양병원,053-721-7575,,1730,0830,1730,0830,1730,0830,1730,0830,1730,0830,1230,0830,,,,,35.889657180244654,128.64313906919833

대구광역시 동구 안심로41길 50 (서호동),D,0,반야월 대구은행과 구 반야월 기차역 사거리 중간에 위치 ,안심요양병원,053-960-1000,,1730,0900,1730,0900,1730,0900,1730,0900,1730,0900,1200,0930,,,,,35.87037766249166,128.70899841472783

대구광역시 동구 동촌로 146 (검사동),D,0,,열경요양병원,053-980-9812,,1800,0900,1800,0900,1800,0900,1800,0900,1800,0900,1300,0900,,,,,35.88427164246014,128.65642982353302

대구광역시 동구 파계로6길 16 (지묘동),D,0,,이시아요양병원,053-983-7700,,1700,0900,1700,0900,1700,0900,1700,0900,1700,0900,,,,,,,35.939184541990514,128.64065242316636

대구광역시 동구 해동로 101 (지저동),D,0,,한가람병원,053-957-3111,,1730,0900,1730,0900,1730,0900,1730,0900,1730,0900,1400,0900,,,,,35.890377014439956,128.64163456043613

"대구광역시 동구 화랑로 157, 1~6층 (효목동)",D,0,,효경지요양병원,053-746-3232,,1800,0900,1800,0900,1800,0900,1800,0900,1800,0900,,,,,,,35.87577318605503,128.64290647759597

"경기도 안양시 만안구 안양로 115 (안양동, 지상2,3,4,5,6층)",D,0,만안구청 맞은편,메디하임효병원,031-346-7601~5,,1800,0900,1800,0900,1800,0900,1800,0900,1800,0900,1300,0900,,,,,37.38486033173643,126.93264310082293

경기도 안양시 만안구 안양로 325-1 (안양동),D,0,"안양역 하차  지하도 14번출구 에서 약 150미터 거리 좌측에 위치
안양교보생명 50m지점 국민은행 옆",선진병원(요양병원),031-442-6655,,2200,0900,2200,0900,2200,0900,2200,0900,2200,0900,2200,0900,2200,0900,2200,0900,37.400555250617245,126.91924791753902

"경기도 안양시 만안구 안양로 102, 2,3,4,5층 (안양동, 현대센타빌딩)",D,0,,성심힐요양병원,031-441-0153,,1800,0900,1800,0900,1800,0900,1800,0900,1800,0900,1300,0900,,,,,37.38418929859383,126.93411608956175

"경기도 안양시 만안구 병목안로 20, 스페이스타워 5,6,7,9층 (안양동)",D,0,,안양서울대효요양병원,031-688-7114,,1800,0900,1800,0900,1800,0900,1800,0900,1800,0900,1300,0900,,,,,37.39895624850421,126.91837321730651

"경기도 안양시 만안구 안양로 335, 지하1층~지상5층 (안양동)",D,0,,안양요양병원,031-442-7582,,1730,0900,1730,0900,1730,0900,1730,0900,1730,0900,,,,,,,37.4014649074,126.9186867321

경기도 안양시 만안구 명학로33번길 8 (안양동),D,0,,의료법인인산의료재단메트로요양병원,031-467-9000,,1700,0900,1700,0900,1700,0900,1700,0900,1700,0900,1200,0900,,,,,37.37828662699927,126.93563871786803

"서울특별시 노원구 덕릉로 690, 기업은행 2,3,4,5층 (중계동)",D,0,중앙하이츠아파트 앞,노원솔요양병원,02-932-0036,,1730,0900,1730,0900,1730,0900,1730,0900,1730,0900,1230,0900,,,,,37.659293171053555,127.07554868553106

서울특별시 노원구 화랑로 323 (월계동),D,0,석계역1번출구,더조은요양병원,02-941-7800,,1800,0900,1800,0900,1800,0900,1800,0900,1800,0900,1300,0900,,,,,37.6149057321,127.0636540332

"서울특별시 노원구 동일로 1419, 9층~11층 (상계동)",D,0,노원역 8번 출구,선의요양병원,02-3391-3992,,1730,0900,1730,0900,1730,0900,1730,0900,1730,0900,,,,,,,37.6553079075,127.0598445323

"서울특별시 노원구 동일로243길 45 (상계동, 사랑요양병원)",D,0,,의료법인행복나눔의료재단사랑요양병원,02-933-1114,,1800,0900,1800,0900,1800,0900,1800,0900,1800,0900,1300,0900,,,,,37.6784485398,127.052599011

"서울특별시 노원구 동일로 987 (공릉동, 태릉성심종합병원)",D,0,태릉입구역 2번 출구,태능성심요양병원,02-976-0808,,1800,0900,1800,0900,1800,0900,1800,0900,1800,0900,1500,0900,,,,,37.61824853815627,127.07508208941958

서울특별시 노원구 상계로26길 7 (상계동),D,0,,희망요양병원,02-936-9966,,1900,0900,1900,0900,1900,0900,1900,0900,1900,0900,1500,0900,,,,,37.6582389857,127.0708942142

충청남도 계룡시 엄사면 향적산길 48-8,D,0,충남 계룡시 엄사면 향적산길 48-8 로 무상사 가는 길에 있음(계룡산 국사봉 자락에 위치),계룡장수요양병원,042-840-7676,,1800,0900,1800,0900,1800,0900,1800,0900,1800,0900,1800,0900,1800,0900,1800,0900,36.2860721917,127.2172824352

경상북도 칠곡군 동명면 기성10길 24-1 ,D,0,동명면 기성리 대구은행연수원 입구,언더로뎀요양병원,053-325-7100,,1730,0900,1730,0900,1730,0900,1730,0900,1730,0900,1300,0900,,,,,35.996788354443055,128.60510101811

경상북도 칠곡군 동명면 기성3길 41,D,0,,의료법인효천의료재단팔공요양병원,054-975-7900,,1730,0900,1730,0900,1730,0900,1730,0900,1730,0900,1230,0900,,,,,36.00332796276336,128.59856871455196

경상북도 칠곡군 왜관읍 금남5길 58,D,0,,칠곡군립노인요양병원,054-976-7777,,1700,0900,1700,0900,1700,0900,1700,0900,1700,0900,,,,,,,35.92559775281116,128.41237009330973

경기도 안양시 만안구 현충로 18 (안양동),D,0,,의료법인해뜨는요양병원,031-446-0048,,1900,0900,1900,0900,1900,0900,1900,0900,1900,0900,,,,,,,37.3925058871352,126.92885531080685

경상북도 상주시 용마로 190-45 (도남동),D,0,,상주시립요양병원,054-530-5300,,1800,0900,1800,0900,1800,0900,1800,0900,1800,0900,1800,0900,1800,0900,1800,0900,36.43689405860853,128.24312279457754

대전광역시 대덕구 동서대로1777번길 2 (송촌동),D,0,대전 IC 근처 ,대전웰니스요양병원,042-712-8500,,1800,0900,1800,0900,1800,0900,1800,0900,1800,0900,1300,0900,,,,,36.35474156913349,127.44353576562887

경기도 부천시 부흥로373번길 18 (심곡동),D,0,,(재)대성재단 대성제일요양병원,032-610-1330,,1800,0900,1800,0900,1800,0900,1800,0900,1800,0900,1400,0900,,,,,37.492211959163825,126.78385975828247

"경기도 부천시 부천로 44, 지하1층 일부,1층일부,2~4층호 (심곡동)",D,0,"부천역에서 삼성생명빌딩 맞은편 건물 1층,4층",경기요양병원,032-351-2141,,1830,0930,1830,0930,1830,0930,1830,0930,1830,0930,1300,0930,,,,,37.488243237,126.7839559244

경기도 부천시 부일로 504 (심곡동),D,0,,고려수재활요양병원,032-347-2300,,1800,0900,1800,0900,1800,0900,1800,0900,1800,0900,1300,0900,,,,,37.48516930730686,126.78610400504002

"경기도 부천시 삼작로 286, 1,3,4,5층 (도당동)",D,0,,다솜요양병원,032-677-4119,,1700,1000,1700,1000,1700,1000,1700,1000,1700,1000,,,,,,,37.51993261338142,126.79362454032307

"경기도 부천시 소사로 236, 이레빌딩 1층일부,4층일부,5층,6층 (소사본동)",D,0,,더편한소사요양병원,032-349-8090,,1800,0900,1800,0900,1800,0900,1800,0900,1800,0900,1300,0900,,,,,37.4793156607,126.7958934458

"경기도 부천시 소사로 80, 한일프라자 2~6층 (소사본동)",D,0,,로하스부천요양병원,032-345-6888,,1700,0900,1700,0900,1700,0900,1700,0900,1700,0900,,,,,,,37.46599699004925,126.79907212119843

경기도 부천시 평천로 724 (삼정동),D,0,,메이플요양병원,032-715-7611,,1800,0900,1800,0900,1800,0900,1800,0900,1800,0900,,,,,,,37.514896020706594,126.7711336702799

"경기도 부천시 부일로 448, 프리존 빌딩 6,7층 601,607,608,701,707,708호 (심곡동)",D,0,농협사거리 대로변 근처,바오로요양병원,032-663-9290,,1800,0930,1800,0930,1800,0930,1800,0930,1800,0930,1300,0930,,,,,37.485978727926955,126.7800902159398

"경기도 부천시 소사로 742, 세라메디컬센터 지하1층일부,2층,3층일부,4~6층 (원종동)",D,0,원종동 사거리 ,보성요양병원,032-683-0004,,1800,0900,1800,0900,1800,0900,1800,0900,1800,0900,,,,,,,37.522312787049934,126.80513391709444

경기도 부천시 석천로178번길 18 (중동),D,0,이마트중동점 뒷블럭,부천미소요양병원,032-325-7911,,1730,0900,1730,0900,1730,0900,1730,0900,1730,0900,1130,0900,,,,,37.50296294146231,126.76371497465827

"경기도 부천시 부일로 522, 1층~8층 (심곡동, 일죽스포렉스빌딩)",D,0,,부천삼성요양병원,032-721-7577,,1930,0900,1930,0900,1930,0900,1930,0900,1930,0900,,,,,,,37.484902341,126.78795453660001

경기도 부천시 까치로 26 (작동),D,0,휴먼시아3단지 맞은편,부천시립노인전문병원,032-713-7300,,1800,0900,1800,0900,1800,0900,1800,0900,1800,0900,1300,0900,,,,,37.509184302831464,126.80856420485841

경기도 부천시 길주로 321 (중동),D,0,지하철 7호선 신중동역 7번출구 100M,부천요양병원,032-1588-2890,,1700,0900,1700,0900,1700,0900,1700,0900,1700,0900,1200,0900,,,,,37.50323319722999,126.77857016472893

"경기도 부천시 부천로 100, 지하1층,2~8층 (원미동)",D,0,"부천 대성병원맞은편 건물, 부천역과 춘의역 가운데에 위치",부천제일요양병원,032-650-9000,,1730,0900,1730,0900,1730,0900,1730,0900,1730,0900,1230,0900,,,,,37.493042188500006,126.7850502756

경기도 부천시 경인로 17 (송내동),D,0,"송내역 남부 출구에서 50번이나 6-1번 타고 1정거장, 송내 자이아파트 맞은편 건물",엘드림병원,032-612-8575,,1800,0900,1800,0900,1800,0900,1800,0900,1800,0900,1300,0900,,,,,37.48361547597219,126.75682866782287

"경기도 부천시 중동로254번길 24, 1~7층 (중동)",D,0,,의료법인서흥의료재단부천현대요양병원,032-323-2200,,1800,0900,1800,0900,1800,0900,1800,0900,1800,0900,1300,0900,,,,,37.50208976467552,126.77005430070764

"경기도 부천시 소향로 143, 1동 3,4층 (중동)",D,0,,재단법인대성재단대성요양병원,032-321-5190,,1800,0930,1800,0930,1800,0930,1800,0930,1800,0930,,,,,,,37.50222266712001,126.76378417716035

"경기도 부천시 부흥로373번길 78, 601,701호 (심곡동)",D,0,,큰사랑요양병원,032-612-0056,,1800,0900,1800,0900,1800,0900,1800,0900,1800,0900,1800,0900,,,,,37.49498788879999,126.78479139600001

경기도 부천시 성곡로 43 (여월동),D,0,,프라임요양병원,032-682-7582,,1800,0900,1800,0900,1800,0900,1800,0900,1800,0900,1300,0900,,,,,37.51804679989884,126.79936701118798

"경기도 부천시 여월로 70, 두오파크프라자 1층일부,3,4,5층 (여월동)",D,0,성곡초등학교 앞(두오파크프라자 3층),한우리요양병원,032-682-8283,,1800,0900,1800,0900,1800,0900,1800,0900,1800,0900,1300,0900,,,,,37.51138656600987,126.80650906065881

"경기도 부천시 길주로 137, 8층 (상동)",D,0,,효플러스요양병원,032-657-7582,,1800,0900,1800,0900,1800,0900,1800,0900,1800,0900,1300,0900,,,,,37.50600174472609,126.75774183625784

"충청남도 천안시 동남구 영성로 7 (영성동, 가야요양병원)",D,0,볼링장옆,가야요양병원,041-558-1000,,1730,0900,1730,0900,1730,0900,1730,0900,1730,0900,1300,0900,,,,,36.79896948744743,127.15043898070165

충청남도 천안시 동남구 목천읍 충절로 794,D,0,신계초등학교 근처,남경의료재단남경요양병원,041-553-1234,,1800,0900,1800,0900,1800,0900,1800,0900,1800,0900,1800,0900,1800,0900,1800,0900,36.76825751032981,127.19994041893301

"충청남도 천안시 동남구 유량로 180 (유량동, 메디움천안요양병원)",D,0,,메디움천안요양병원,041-413-7100,,1730,0830,1730,0830,1730,0830,1730,0830,1730,0830,1230,0830,,,,,36.8109878198,127.1783180898

충청남도 천안시 동남구 정골2길 91 (구성동),D,0,충남 천안시 동남구 구성동 정골2길 91,선한이웃요양병원,041-564-5555,,1800,0900,1800,0900,1800,0900,1800,0900,1800,0900,1200,0900,,,,,36.79942242220224,127.17747554387981

충청남도 천안시 동남구 병천면 충절로 1782,D,0,,아우내요양병원,041-551-8833,,1800,0900,1800,0900,1800,0900,1800,0900,1800,0900,,,,,,,36.7622849662,127.3028398434

"충청남도 천안시 동남구 대흥로 228 (대흥동, 삼영빌딩)",D,0,천안역 1번 출구 앞,의료법인백석의료재단한사랑요양병원,041-556-7781,,1800,0830,1800,0830,1800,0830,1800,0830,1800,0830,1600,0900,,,,,36.80838001515264,127.14810852531214

충청남도 천안시 동남구 천안대로 215 (삼룡동),D,0,선문대 천안캠퍼스 대전방향,천안로하스요양병원,041-410-3000,,1800,0900,1800,0900,1800,0900,1800,0900,1800,0900,,,,,,,36.7674542882488,127.16510374922576

충청남도 천안시 동남구 구성2길 11 (구성동),D,0,하이마트 건너편,천안세인트요양병원,041-552-0700,,1800,0900,1800,0900,1800,0900,1800,0900,1800,0900,1300,0900,,,,,36.79848322047054,127.15976145695916

충청남도 천안시 동남구 목천읍 삼방로 735 (천안시립노인전문병원),D,0,용연저수지 근처,천안시립노인전문병원,041-521-1114,,1730,0830,1730,0830,1730,0830,1730,0830,1730,0830,1200,0830,,,,,36.825328775185,127.22686772703062

"충청남도 천안시 동남구 삼룡천3길 10 (구성동, 이라의료재단 천안병원)",D,0,천안삼거리초등학교 맞은편,천안요양병원,041-569-5533,,1700,0800,1700,0800,1700,0800,1700,0800,1700,0800,1200,0800,,,,,36.7909841545812,127.16381973142879

"충청남도 천안시 동남구 대흥로 288, 지하12층, 지상6층 (성황동, 화정빌딩)",D,0,,혜강병원,041-555-8275,,2100,0900,1800,0900,2100,0900,1800,0900,1800,0900,1300,0900,,,,,36.81334655420217,127.14956224874392

"충청남도 천안시 동남구 청수로 123-11, 호두나무요양병원 (구성동)",D,0,"충남에 교통요지인 충절오거리 인근에 위치해 있습니다.
구성초등학교 바로 맞은편에 위치해 있습니다.",호두나무요양병원,041-410-2100,,1800,0900,1800,0900,1800,0900,1800,0900,1800,0900,1200,0830,,,,,36.7945663059,127.1576639304

부산광역시 남구 수영로 185-7 (대연동),D,0,2호선 못골역 2번출구,윌리스요양병원,051-638-7575,,1800,0900,1800,0900,1800,0900,1800,0900,1800,0900,1200,0900,,,,,35.135315024205305,129.08654626860647

"경기도 용인시 처인구 중부대로 1539, 1,2,3,4,5층 (마평동)",D,0,,사랑의요양병원,031-321-6262,,1830,0900,1830,0900,1830,0900,1830,0900,1830,0900,,,,,,,37.233454106476714,127.21542763053199

"경기도 성남시 분당구 대왕판교로 155-7 (금곡동, 보바스기념병원)",D,0,,보바스기념병원,18775661,,1700,0900,1700,0900,1700,0900,1700,0900,1700,0900,1200,0900,,,,,37.35622214085007,127.09859729479308

"경기도 성남시 분당구 양현로94번길 17, 지1층~5층 (이매동)",D,0,,분당센트럴요양병원,031-706-9090,,1730,0830,1730,0830,1730,0830,1730,0830,1730,0830,1730,0830,,,,,37.391276585999975,127.1260390431

"경기도 성남시 분당구 판교로 473, 2,3,4,6층 (야탑동, ROOKIE 1129)",D,0,,분당수요양병원,031-703-7500,,1800,0900,1800,0900,1800,0900,1800,0900,1800,0900,1300,0900,,,,,37.40573212714609,127.12645179364547

"경기도 성남시 분당구 양현로375번길 31, 지하1층,1,2,3층 (야탑동)",D,0,,분당연세요양병원,031-703-0888,,1800,0900,1800,0900,1800,0900,1800,0900,1800,0900,1400,0900,,,,,37.41607804229332,127.12088880081471

경기도 성남시 분당구 새나리로 13 (야탑동),D,0,"분당 야탑역에서 자가5분거리,(야탑예비군훈련장입구옆)",성모요양병원,031-707-9100,,1800,0900,1800,0900,1800,0900,1800,0900,1800,0900,1500,0900,,,,,37.40471933464547,127.1570653905078

"경기도 성남시 분당구 불정로386번길 8, 1층일부~4층 (서현동)",D,0,효자촌/분당 등기소입구,카리스요양병원,031-709-1234,,1730,0920,1730,0920,1730,0920,1730,0920,1730,0920,1200,0930,,,,,37.37401471401235,127.13742210044967

전라북도 완주군 상관면 왜목로 700,D,0,,벧엘요양병원,063-231-8811,,1730,0900,1730,0900,1730,0900,1730,0900,1730,0900,,,,,,,35.764542539708486,127.20274904263803

전라북도 완주군 소양면 해월신왕길 65,D,0,전주에서 진안가는 국도(해월리),사회복지법인 성바오로애덕원 성바오로복지병원,063-249-3300,,1700,0900,1700,0900,1700,0900,1700,0900,1700,0900,1300,0900,,,,,35.85967744189273,127.26083652614497

전라북도 완주군 용진면 완주로 806-6,D,0,대영아파트 입구 바로 뒤 3층,실로암병원,063-261-7080,,1800,0900,1800,0900,1800,0900,1800,0900,1800,0900,1230,0900,,,,,35.932822222222221,127.174049999999994

"전라북도 완주군 상관면 북치길 44-54,",D,0,죽림온천에서 남원방향 100M직진 뿌리공예 전시관 인근에 위치,완주군아름다운노인전문병원,063-717-3300,,1800,0900,1800,0900,1800,0900,1800,0900,1800,0900,,,,,,,35.834565774456,127.13497264574435

전라북도 완주군 봉동읍 둔산3로 31-5,D,0,3공단 코아루 아파트 인근,완주요양병원,063-260-8300,,1800,0900,1800,0900,1800,0900,1800,0900,1800,0900,,,,,,,35.95792524300065,127.12387255150801

전라북도 완주군 구이면 항가신기길 8-11,D,0,구이IC에서 순창 구길(구길만가능),은빛사랑요양병원,063-224-9200~2,,1730,0900,1730,0900,1730,0900,1730,0900,1730,0900,1600,0900,,,,,35.716177310706534,127.11631393864972

전라북도 완주군 봉동읍 낙평장기로 43,D,0,"(구)봉동읍사무소부근 명진아파트, 봉동초등학교 인근에 위치함",한길요양병원,063-260-9980,,1800,0900,1800,0900,1800,0900,1800,0900,1800,0900,,,,,,,35.93517605389263,127.16250795123427

"대구광역시 수성구 유니버시아드로 365, 대구광역시시지노인전문병원 (욱수동)",D,0,,대구광역시시지노인전문병원,053-819-2004,,1730,0930,1730,0930,1730,0930,1730,0930,1730,0930,,,,,,,35.82830752135565,128.71010841455862

대구광역시 수성구 동대구로 245 (범어동),D,0,,송효의료재단효산요양병원,053-766-2114,,1800,0900,1800,0900,1800,0900,1800,0900,1800,0900,1600,0900,,,,,35.85225072343207,128.62474147159935

"대구광역시 수성구 희망로 219 (황금동, 수성명가요양병원)",D,0,,수성명가요양병원,053-716-7300,,1800,0900,1800,0900,1800,0900,1800,0900,1800,0900,,,,,,,35.846710802714554,128.6228532273409

"대구광역시 수성구 동대구로 148 (황금동, 수성요양병원)",D,0,,수성요양병원,053-784-2000,,1700,0900,1700,0900,1700,0900,1700,0900,1700,0900,,,,,,,35.84303189119822,128.62489002955792

"대구광역시 수성구 화랑로 26, 2,3,4층 (만촌동, 만촌우방하이츠)",D,0,"mbc네거리에서 동부정류장방향  구,우방사옥3층  ",스위스요양병원,053-767-2200,,1800,0900,1800,0900,1800,0900,1800,0900,1800,0900,1300,0900,,,,,35.8687675458,128.6320172081

"대구광역시 수성구 동대구로 12, 한패밀리병원 (지산동)",D,0,,의료법인정목의료재단한패밀리요양병원,053-763-2000,,1800,0900,1800,0900,1800,0900,1800,0900,1800,0900,,,,,,,35.8312986839574,128.6239945560485

대구광역시 수성구 신천동로 482 (수성동4가),D,0,,참좋은요양병원,053-710-9988,,1700,1000,1700,1000,1700,1000,1700,1000,1700,1000,,,,,,,35.866313630514284,128.61472354639653

"서울특별시 마포구 월드컵북로 165, 지하1층~5층 (성산동, SMC)",D,0,,에스엠씨요양병원,02-374-3111,,1800,0900,1800,0900,1800,0900,1800,0900,1800,0900,1300,0900,,,,,37.5668764042,126.9098459224

"대구광역시 달서구 와룡로5길 20, 3,4층 (본동)",D,0,,남대구요양병원,053-525-8200,,1800,0900,1800,0900,1800,0900,1800,0900,1800,0900,1200,0900,,,,,35.835254869238085,128.5356058692597

"서울특별시 구로구 개봉로19길 3 (개봉동, 강서진료병원)",D,0,개봉역 인근,강서효요양병원,02-2616-7575,,1830,0900,1830,0900,1830,0900,1830,0900,1830,0900,1500,0900,,,,,37.49270235612832,126.85569663502892

"서울특별시 구로구 남부순환로 1291 (가리봉동, 영진오피스)",D,0,2호선 구로디지털단지역6번출구 도보 10분 거리,남부효요양병원,02-863-9900,,1800,0900,1800,0900,1800,0900,1800,0900,1800,0900,1500,0900,,,,,37.47888967619931,126.89432715056293

"서울특별시 구로구 경인로 218, 더세인트빌딩 B1.B중,3~15층 (오류동)",D,0,,더세인트요양병원,02-333-1119,,1800,0900,1800,0900,1800,0900,1800,0900,1800,0900,1300,0900,,,,,37.4962537455,126.8451609514

서울특별시 구로구 중앙로 91 (고척동),D,0,고척LIGA아파트 맞은편,목동현대요양병원,02-3666-1122,,1800,0900,1800,0900,1800,0900,1800,0900,1800,0900,1300,0900,,,,,37.5055531183728,126.86042353547138

"서울특별시 구로구 중앙로 64, 고척프라자 가동 4,5층/나동3,4층 (고척동)",D,0,,오케이요양병원,02-2616-7755,,1730,0900,1730,0900,1730,0900,1730,0900,1730,0900,1300,0900,,,,,37.503800784100406,126.8628334650277

"서울특별시 구로구 고척로21나길 88-41 (개봉동, 미소들병원)",D,0,개봉중학교 뒷편,의료법인 미소들노인전문병원,02-3666-1114,,1800,0900,1800,0900,1800,0900,1800,0900,1800,0900,1230,0900,,,,,37.502897903882904,126.84119799311222

"서울특별시 구로구 공원로6가길 4, 고려 수 타워 (구로동)",D,0,,의료법인고려수의료재단고려수요양병원,02-1577-2588,,1800,0900,1800,0900,1800,0900,1800,0900,1800,0900,1230,0900,,,,,37.501891719568945,126.89159861823754

"서울특별시 구로구 남부순환로 1287, 정성요양병원 2.3.5층 남부순환로 107길 24동 (가리봉동)",D,0,"2호선 구로디지털단지역 1,6번출구/7호선 남구로역 3번출구",의료법인어울림의료재단정성요양병원,02-863-8636,,1800,0900,1800,0900,1800,0900,1800,0900,1800,0900,1400,0900,,,,,37.478943745661645,126.89405418347754

"서울특별시 구로구 새말로 60, 제중요양병원 지하2,동 1~9층 (구로동)",D,0,,재단법인제중의료복지재단제중요양병원,02-837-7111,,1800,0900,1800,0900,1800,0900,1800,0900,1800,0900,1130,0900,,,,,37.5032133611,126.8866567435

"서울특별시 중랑구 봉화산로 194, 신아타운 4,5층 (신내동)",D,0,신내2동 주민센터 앞/신아타운 5층,로하스동서울요양병원,02-577-9696,,1800,0900,1800,0900,1800,0900,1800,0900,1800,0900,1300,0900,,,,,37.606451638711086,127.09470919237165

"서울특별시 중랑구 망우로 403, 5층,6층,7층 (망우동)",D,0,신내 지하차도 교차로 인근,위너스병원,02-433-1195,,1630,0930,1630,0930,1630,0930,1630,0930,1630,0930,1130,0930,,,,,37.59942574791849,127.09689261019695

"서울특별시 중랑구 망우로 316, 이지팰리스 5~7층 503-2,504,505,601~605,701~705호 (상봉동)",D,0,7호선 상봉역 2번출구에서 50m지점,한걸음요양병원,02-493-9700,,1800,0900,1800,0900,1800,0900,1800,0900,1800,0900,1300,0900,,,,,37.59656984873586,127.08732632317007

"제주특별자치도 제주시 동광로 96, 동부빌딩 2층 (이도이동)",D,0,,비제이요양병원,064-800-0177,,1800,0900,1800,0900,1800,0900,1800,0900,1800,0900,,,,,,,33.50521925859778,126.53826067978989

강원도 춘천시 서면 율장길 328,D,0,강촌에서 가평방향 춘천휴게소 지나서 우회전,암스트롱요양병원,033-263-8275,,1800,0900,1800,0900,1800,0900,1800,0900,1800,0900,,,,,,,37.866466666666668,127.583886111111113

강원도 춘천시 중앙로 60-0 (중앙로2가),D,0,,영인요양병원,033-256-5688,,1800,0830,1800,0830,1800,0830,1800,0830,1800,0830,1400,0830,1400,0830,1400,0830,37.879985246783065,127.72688919339411

강원도 춘천시 퇴계공단길 40 (퇴계동),D,0,홈플러스 지나서 농공단지 내부,춘천새윤요양병원,033-264-3100,,1800,0900,1800,0900,1800,0900,1800,0900,1800,0900,1400,0900,,,,,37.84460607737905,127.73581249669102

강원도 춘천시 동면 세실로 252,D,0,춘천시노인복지회관 옆,춘천시노인전문병원,033-240-7500,,1800,0900,1800,0900,1800,0900,1800,0900,1800,0900,,,,,,,37.880308289580526,127.75643782410806

강원도 춘천시 동면 춘천로 527-34,D,0,춘천IC입구,춘천요양병원,033-260-7200,,1720,0900,1720,0900,1720,0900,1720,0900,1720,0900,1220,0900,,,,,37.84668026078437,127.7548476234331

강원도 춘천시 옛경춘로 663 (삼천동),D,0,,춘천호반요양병원,033-251-9911,,1700,0900,1700,0900,1700,0900,1700,0900,1700,0900,,,,,,,37.856621672739585,127.70756753008007

강원도 춘천시 영서로 1925-9 (석사동),D,0,,토마스요양병원,033-253-5000,,1700,0900,1700,0900,1700,0900,1700,0900,1700,0900,,,,,,,37.8466802608,127.7548476234

전라북도 임실군 임실읍 봉황로 71 ,D,0,,임실중앙요양병원,063-644-1101,,1800,0900,1800,0900,1800,0900,1800,0900,1800,0900,1800,0900,1800,0900,1800,0900,35.61000488991213,127.27258790280034

경상남도 김해시 내외중앙로 73 (내동),D,0,"내동 경원사거리 하나은행 맞은편
테라스파크 옆 건물",(의)백천의료재단김해제일요양병원,055-329-3434,,1700,0900,1700,0900,1700,0900,1700,0900,1700,0900,1300,0900,,,,,35.236523920907096,128.86676365543806

경상남도 김해시 금관대로1084번길 15 (흥동),D,0,,(의)수의료재단 서청솔요양병원,055-310-5500,,1700,0900,1700,0900,1700,0900,1700,0900,1700,0900,1700,0900,,,,,35.22399320709922,128.85072615007377

경상남도 김해시 상동면 상동로 194,D,0,,(의)인계의료재단 상동요양병원,055-724-0303,,1800,0900,1800,0900,1800,0900,1800,0900,1800,0900,,,,,,,35.30168877574201,128.89362946484627

경상남도 김해시 김해대로 2479-1 (삼정동),D,0,동김해IC에서 김해시청방면 200M 지점 ,(의)일오의료재단성모요양병원,055-320-2080,,1700,0900,1700,0900,1700,0900,1700,0900,1700,0900,1200,0900,,,,,35.228137677741934,128.89803364358474

"경상남도 김해시 번화1로79번길 4 (대청동, 센터빌딩)",D,0,부영단지아파트 롯데마트 근처,(의)하은의료재단장유제일요양병원,055-311-8600,,1800,0900,1800,0900,1800,0900,1800,0900,1800,0900,1200,0900,,,,,35.19444718187925,128.798934930925

경상남도 김해시 김해대로 1814-39 (삼계동),D,0,"명지세인트빌 아파트 뒤, 조은금강병원",(의)환명의료재단경상남도립김해노인전문병원,055-330-2000,,1800,0900,1800,0900,1800,0900,1800,0900,1800,0900,1300,0900,,,,,35.26162055827808,128.8610044024499

경상남도 김해시 진례면 진례로74번길 47,D,0,,강민의료재단나누리요양병원,055-342-1101,,1800,0900,1730,0900,1730,0900,1730,0900,1730,0900,1300,0900,,,,,35.2393854903,128.7534317264

경상남도 김해시 호계로 416 (부원동),D,0,김해시청근처,녹십자요양병원,055-338-3501,,1700,0900,1700,0900,1700,0900,1700,0900,1700,0900,1300,0900,,,,,35.227571203198146,128.88546334493702

경상남도 김해시 인제로 127 (어방동),D,0,자성에서인제대쪽으로,대민의료생활협동조합 김해요양병원,055-322-8275,,1800,0900,1800,0900,1800,0900,1800,0900,1800,0900,1300,0900,,,,,35.23992354342938,128.9038708207259

"경상남도 김해시 대청로210번길 24, 메트로빌딩 7,8,9층 (대청동)",D,0,,사단법인 한국경로복지회 우리요양병원,055-339-7300,,1800,0900,1800,0900,1800,0900,1800,0900,1800,0900,1200,0900,,,,,35.1938640623,128.7974031316

부산광역시 동구 범일로 124 (범일동),D,0,1호선 범일역 6번 출구/구)보생외과,보생요양병원,051-634-1121,,1800,0900,1800,0900,1800,0900,1800,0900,1800,0900,,,,,,,35.13990277777778,129.05965000000137

"부산광역시 동구 중앙대로 421 (좌천동, 제일나라병원)",D,0,1호선 좌천역 1번 출구,의료법인나라의료재단제일나라요양병원,051-646-0505,,1800,0900,1800,0900,1800,0900,1800,0900,1800,0900,1300,0900,,,,,35.132158900042,129.05184579673298

부산광역시 동구 중앙대로 281 (초량동),D,0,"1호선 초량역7, 9번출구",의료법인은경의료재단인창요양병원,051-466-1004,,1730,0830,1730,0830,1730,0830,1730,0830,1730,0830,,,,,,,35.12179790182286,129.04295604595478

부산광역시 동구 중앙대로 524 (범일동),D,0,"1호선 범일역 1,3번출구",의료법인인당의료재단부산혜민요양병원,051-643-8100,,1800,0900,1800,0900,1800,0900,1800,0900,1800,0900,,,,,,,35.140010048908906,129.05693577947767

"부산광역시 동구 중앙대로 364 (수정동, 청십자병원)",D,0,1호선 부산진역 6번출구/지하1~지상4층,의료법인청십자의료재단 청십자요양병원,051-469-1011,,1800,0900,1800,0900,1800,0900,1800,0900,1800,0900,,,,,,,35.12779830041614,129.04837546635127

충청남도 논산시 강경읍 여강로 1294,D,0,,강경효사랑요양병원,041-745-1500,,1800,0900,1800,0900,1800,0900,1800,0900,1800,0900,1200,0900,,,,,36.150746330507665,127.01279227945794

충청남도 논산시 시민로331번길 5 (취암동),D,0,"논산여중 건너편 건물, 논여중 맞은편",논산사랑요양병원,041-733-0300,,1730,0900,1730,0900,1730,0900,1730,0900,1730,0900,,,,,,,36.19436760991824,127.0900714670681

충청남도 논산시 시민로294번길 11 (취암동),D,0,백제병원 바로 옆 ,논산시립노인전문병원,041-734-9911,,1700,0900,1700,0900,1700,0900,1700,0900,1700,0900,1200,0900,,,,,36.1927788835324,127.09347177311726

충청남도 논산시 생뫼길 20 (강산동),D,0,논산 세무서 맞은편 건물,논산하나요양병원,041-734-6700,,2100,0830,2100,0830,2100,0830,2100,0830,2100,0830,1800,0830,1800,0830,1800,0830,36.186856901204614,127.08984021557964

충청남도 논산시 연산면 한전2길 52,D,0,충남 인터넷 고등학교뒷편,성지하임병원,041-734-9100,,1800,0900,1800,0900,1800,0900,1800,0900,1800,0900,,,,,,,36.20524813440677,127.18530827631922

충청남도 논산시 연무읍 동안로888번길 5,D,0,기산아파트근처(연무여중 건너편),연무요양병원,041-741-5552,,1800,0900,1800,0900,1800,0900,1800,0900,1800,0900,,,,,,,36.13261223269688,127.10279524381852

충청남도 논산시 강경읍 대흥로 45-1,D,0,황산초등학교 후문,의료법인강경의료재단다사랑요양병원,041-745-6771,,1800,0900,1800,0900,1800,0900,1800,0900,1800,0900,,,,,,,36.157440581659735,127.01202435967033

충청남도 논산시 부적면 계백로 1487,D,0,충남 직업 전문 학교 부지,의료법인나성의료재단논산행복한요양병원,041-736-3000,,1730,0830,1730,0830,1730,0830,1730,0830,1730,0830,1300,0830,,,,,36.214078018931,127.13964506224417

충청남도 논산시 상월면 계룡산로237번길 38-60,D,0,주내4거리에서신원사방향 왼쪽에 위치,의료법인명일의료재단대정요양병원,041-730-2800,,1730,0900,1730,0900,,,1730,0900,1730,0900,1730,0830,1230,0830,,,36.30972576193625,127.15925340212341

충청남도 논산시 연산면 한전2길 49-26,D,0,충남인터넷고등학교 뒷편,의료법인예향의료재단예향요양병원,041-736-7584,,1700,0900,1700,0900,1700,0900,1700,0900,1700,0900,1700,0900,1700,0900,1700,0900,36.20350875802811,127.18652290490715

충청남도 논산시 해월로 123 (반월동),D,0,반월초 내려가서 한청리츠빌아파트-> 하늘무지개교회 -> 오른쪽2시방향,한마음요양병원,041-734-6767,,1800,0900,1800,0900,1800,0900,1800,0900,1800,0900,1800,0900,,,,,36.202701138151824,127.08114094938958

충청남도 금산군 남일면 무금로 2145,D,0,황퉁리 다리 근처 ,금산효사랑요양병원,041-751-2111,,1800,0900,1800,0900,1800,0900,1800,0900,1800,0900,,,,,,,36.08274556568722,127.50555479351818

전라남도 목포시 영산로 627 (석현동),D,0,,목포재활요양병원,061-280-6800,,1800,0900,1800,0900,1800,0900,1800,0900,1800,0900,1230,0900,,,,,34.82123975283957,126.42174555908755

전라남도 목포시 백년대로 267 (상동),D,0,기독병원 지나 전자랜드 옆,아름다운요양병원,061-282-8100,,1700,0900,1700,0900,1700,0900,1700,0900,1700,0900,1200,0900,,,,,34.80277961768709,126.41740333218786

전라남도 목포시 영산로844번길 13 (대양동),D,0,,의료법인 새한의료재단 목포성심요양병원,061-283-5400,,1800,0900,1800,0900,1800,0900,1800,0900,1800,0900,1200,0900,,,,,34.83791888393728,126.4239901026856

전라남도 목포시 차범석길35번길 9 (북교동),D,0,( 구) 신안군청사,의료법인 청명의료재단 목포참사랑요양병원,061-240-1695,,1700,0830,1700,0830,1700,0830,1700,0830,1700,0830,,,,,,,34.79315646285142,126.37985043617978

전라남도 목포시 해안로 243-3 (행복동1가),D,0,마리나베리 호텔 근처,의료법인 항운의료재단 목포요양병원,061-276-3355,,1800,0900,1800,0900,1800,0900,1800,0900,1800,0900,1220,0900,,,,,34.78664398681116,126.38802034556813

전라남도 목포시 영산로 143 (호남동),D,0,,의료법인우성의료재단 목포효노인전문병원,061-800-9988,,1800,0900,1800,0900,1800,0900,1800,0900,1800,0900,,,,,,,34.795393965390915,126.38705968777302

전라남도 목포시 양을로 456 (상동),D,0,이화 어린이집 근처 ,효성요양병원,061-800-5500,,1800,0900,1800,0900,1800,0900,1800,0900,1800,0900,,,,,,,34.81386264698635,126.41616023796966

"서울특별시 관악구 신림로64길 11, 지1층,2~11층 (신림동, 성재빌딩)",D,0,"신림역 7,8번 출구",강남수요양병원,02-888-8866,,1800,0900,1800,0900,1800,0900,1800,0900,1800,0900,1300,0900,,,,,37.4851766667623,126.93044554025245

서울특별시 관악구 남부순환로 1704 (봉천동),D,0,2호선 봉천역 3번출구,강남효요양병원,02-885-8080,,1800,0900,1800,0900,1800,0900,1800,0900,1800,0900,1300,0900,,,,,37.483044405762605,126.93939766642717

"서울특별시 관악구 은천로 51 (봉천동, 2,3,4,5,6층)",D,0,서울은천초등학교 인근,은천요양병원,02-882-6900,,1730,0900,1730,0900,1730,0900,1730,0900,1730,0900,1200,0900,,,,,37.48628534229935,126.94119962866276

경상남도 김해시 김해대로2492번길 54-7 (삼정동),D,0,,서종요양병원,055-339-0003,,1730,0900,1730,0900,1730,0900,1730,0900,1730,0900,,,,,,,35.2269496902,128.9045868004

경상남도 김해시 대청로210번길 12-23 (대청동),D,0,,온누리의료생활협동조합온누리요양병원,055-335-6699,,1800,0900,1800,0900,1800,0900,1800,0900,1800,0900,,,,,,,35.192867562753044,128.7967966942581

경상남도 김해시 진영읍 진영로 378,D,0,,의료법인 건생당 의료재단 진영제암요양병원,055-343-5000,,1800,0900,1800,0900,1800,0900,1800,0900,1800,0900,1300,0900,,,,,35.299843097842476,128.75358325604142

"경상남도 김해시 구지로 58, 6~10층 (내동)",D,0,,의료법인경빈의료재단김해센텀요양병원,055-330-9191,,1730,0900,1730,0900,1730,0900,1730,0900,1730,0900,1300,0900,,,,,35.239269321205306,128.86954028727058

경상남도 김해시 분성로 433 (삼정동),D,0,,의료법인 문용의료재단 천사요양병원,055-721-1004,,1100,0930,1100,0930,1100,0930,1100,0930,1100,0930,,,,,,,35.23506414365397,128.893318226038

경상남도 김해시 주촌면 소망길 263,D,0,,의료법인 송파의료재단 가야요양병원,055-337-8888,,1700,0900,1700,0900,1700,0900,1700,0900,1700,0900,,,,,,,35.22506574142875,128.83905500301904

경상남도 김해시 김해대로 2379 (부원동),D,0,김해시청 옆,의료법인 푸른솔의료재단 김해한솔재활요양병원,055-329-3340,,1730,0830,1730,0830,1730,0830,1730,0830,1730,0830,1300,0830,,,1300,0830,35.22725155,128.8869292019

경상남도 김해시 김해대로 2453 (삼정동),D,0,시청근처,의료법인리드의료재단다정한요양병원,055-337-2001,,1800,0900,1800,0900,1800,0900,1800,0900,1800,0900,,,,,,,35.22784589679636,128.89503073048146

"경상남도 김해시 능동로155번길 10-15 (부곡동, 네오피아빌딩)",D,0,,의료법인만전의료재단장유효요양병원,055-314-1250,,1730,0930,1730,0930,1730,0930,1730,0930,1730,0930,,,,,,,35.2035974682,128.8080264428

경상남도 김해시 평전로 83 (외동),D,0,,의료법인백경의료재단김해강남요양병원,055-321-7667,,1800,0900,1800,0900,1800,0900,1800,0900,1800,0900,1400,0900,,,,,35.2383608495,128.8559647825

"경상남도 김해시 가락로 83, 2, 3, 4, 5층 (서상동)",D,0,,의료법인서원탑의료재단서원요양병원,055-330-9300,,1730,0830,1730,0830,1730,0830,1730,0830,1730,0830,,,,,,,35.23406776179837,128.88093182632136

경상남도 김해시 김해대로2529번길 35 (삼정동),D,0,"동김해ic에서 김해시청 방향 30m직진 후 우회전 2차선 도로를 따라직진.
 2블럭 후 촤측에 병원위치.",의료법인수의료재단 청솔요양병원,055-310-1000,,1700,0900,1700,0900,1700,0900,1700,0900,1700,0900,1700,0900,,,,,35.23152689117218,128.90280468075196

"경상남도 김해시 번화1로56번길 19, 2,4~11층 (대청동)",D,0,,의료법인신화성의료재단 장유요양병원,055-313-9367,,1800,0900,1800,0900,1800,0900,1800,0900,1800,0900,1300,0900,,,,,35.1932900041,128.8025547095

경상남도 김해시 가야로 210 (삼계동),D,0,,의료법인오남의료재단조은삼계요양병원,055-332-9222,,1730,0900,1730,0900,1730,0900,1730,0900,1730,0900,1200,0900,,,,,35.2587692247,128.8719833974

"경상남도 김해시 분성로 321, 401호 (서상동, 골든에비뉴)",D,0,,의료법인이화의료재단이화요양병원,055-321-3136,,1700,0900,1700,0900,1700,0900,1700,0900,1700,0900,,,,,,,35.23298006806028,128.88089120489323

경상남도 김해시 진영읍 진영로454번길 102-10,D,0,,의료법인한솔의료재단 한서재활요양병원,055-346-1222,,1800,0900,1800,0900,1800,0900,1800,0900,1800,0900,1230,0900,,,,,35.2922445426581,128.7530038932242

경상남도 김해시 분성로261번길 15 (봉황동),D,0,,이화수로요양병원,055-722-7575,,1800,0900,1800,0900,1800,0900,1800,0900,1800,0900,,,,,,,35.2342099002,128.874327298

경상남도 김해시 금관대로 592 (무계동),D,0,,재단법인그루터기장유은혜요양병원,055-723-3100,,1700,0900,1700,0900,1700,0900,1700,0900,1700,0900,,,,,,,35.201274893805454,128.81484367929275

"경상남도 김해시 진영읍 김해대로 132-1, 청담요양병원",D,0,,청담요양병원,055-720-2222,,1730,0900,1700,0600,1730,0900,1730,0900,1730,0900,1200,0900,,,,,35.29900809494992,128.7102053009921

경상남도 김해시 해반천로168번길 38,D,0,산부할인마트 맞은편(수정일10/04/06),청보요양병원,055-314-0008,,1800,0900,1800,0900,1800,0900,1800,0900,1800,0900,1300,0900,,,,,35.26325231889365,128.87141630066392

경상남도 김해시 내외로77번길 6 (내동),D,0,내외119안전센터 뒷편,한가족요양병원,055-338-0011,,1730,0900,1730,0900,1730,0900,1730,0900,1730,0900,1230,0900,,,,,35.235136189876286,128.86599926395104

"경기도 오산시 수목원로 462, 3,6,7층 (금암동, 무한메디칼)",D,0,,세교요양병원,031-373-3500,,1800,0900,1800,0900,1800,0900,1800,0900,1800,0900,1300,0900,,,,,37.17504404577085,127.0502301531592

"경기도 오산시 수목원로 606, 오산세교CL타워 7,8,9층 (세교동)",D,0,,세마그린요양병원,031-376-8830,,1800,0900,1800,0900,1800,0900,1800,0900,1800,0900,1300,0900,,,,,37.1859066839,127.0422188319

경기도 오산시 가장산업동로 69-27  (궐동),D,0,,오산노인전문병원,031-370-2300,,1700,0900,1700,0900,1700,0900,1700,0900,1700,0900,1300,0900,,,,,37.16503394385863,127.0441077150237

경기도 오산시 청학로 60 (청학동),D,0,,오산메디컬재활요양병원,031-375-0071,,1800,0900,1800,0900,1800,0900,1800,0900,1800,0900,1300,0900,,,,,37.15408916399504,127.06485970208456

"서울특별시 성동구 천호대로 436, 2~7층 (용답동)",D,0,,굿모닝요양병원,02-3394-9878,,1800,0900,1800,0900,1800,0900,1800,0900,1800,0900,1230,0900,,,,,37.5606928433,127.0672070476

서울특별시 성동구 동일로 93 (성수동2가),D,0,건대입구역 6번출구에서 직진 500m (성수사거리),서울효사랑요양병원,02-462-0114,,1800,0900,1800,0900,1800,0900,1800,0900,1800,0900,1300,0900,,,,,37.54115065549729,127.06310246227694

"서울특별시 성동구 자동차시장1길 85, 지하1,지상3~5층 (용답동, JS빌딩)",D,0,장한평역 5번 출구,시온요양병원,02-2247-7272,,1730,0900,1730,0900,1730,0900,1730,0900,1730,0900,1200,0900,,,,,37.56049274732822,127.0673697732167

"경기도 양주시 평화로1479번길 45, 경기웰니스요양병원 (덕계동)",D,0,,경기웰니스요양병원,031-828-1800,,1800,0900,1800,0900,1800,0900,1800,0900,1800,0900,,,,,,,37.8224653308,127.0466358873

경기도 양주시 백석읍 기산로440번길 106,D,0,,돌담요양병원,031-876-1109,,1800,0900,1800,0900,1800,0900,1800,0900,1800,0900,,,,,,,37.7720908701,126.9378458947

"경기도 양주시 고읍남로 36, 골든스퀘어 3~6층 (광사동)",D,0,,서울대효요양병원,031-894-1000,,1800,0900,1800,0900,1800,0900,1800,0900,1800,0900,1230,0900,,,,,37.7936468615,127.0780399088

경기도 양주시 백석읍 기산로471번길 1-13,D,0,,송추요양병원,031-877-0055,,0000,0000,0000,0000,0000,0000,0000,0000,0000,0000,,,,,,,37.776784562532775,126.94070241503144

경기도 양주시 장흥면 호국로 439-22,D,0,,송추효사랑요양병원,031-829-7700,,1800,0900,1800,0900,1800,0900,1800,0900,1800,0900,1400,0900,1400,0900,1400,0900,37.713019308893685,126.96477623387204

경기도 양주시 장흥면 가마골로258번길 100 (송추효요양병원),D,0,,송추효요양병원,031-837-0100,,1800,0900,1800,0900,1800,0900,1800,0900,1800,0900,,,,,,,37.74151634919999,126.9825822269

경기도 양주시 백석읍 기산로440번길 102,D,0,기산저수지 근처,신안요양병원,031-876-0119,,1800,0900,1800,0900,1800,0900,1800,0900,1800,0900,1800,0900,,,,,37.772500332793946,126.93823718938586

경기도 양주시 남면 감악산로514번길 229-34,D,0,,실로암노인전문병원,031-867-3131,,1800,0900,1800,0900,1800,0900,1800,0900,1800,0900,1300,0900,,,,,37.917261309695675,126.96531170951208

경기도 양주시 광적면 부흥로 955-13,D,0,,양주큰길요양병원,031-836-4488,,1800,0900,1800,0900,1800,0900,1800,0900,1800,0900,1300,0900,,,,,37.81020703710364,126.99549843896743

경기도 양주시 백석읍 기산로440번길 110-31,D,0,송추에서 차량 20분거리,연세요양병원,031-876-5417,,2400,0000,2400,0000,2400,0000,2400,0000,2400,0000,2400,0000,2400,0000,2400,0000,37.77103849857249,126.93776051469226

경기도 양주시 회정로109번길 7-20 (덕정동),D,0,,예쓰요양병원,031-864-5500,,1800,0900,1800,0900,1800,0900,1800,0900,1800,0900,,,,,,,37.837993290763535,127.06392704846334

경기도 양주시 장흥면 권율로 512,D,0,,청지기요양병원,031-855-2110,,1800,0900,1800,0900,1800,0900,1800,0900,1800,0900,1400,0900,,,,,37.750368130655985,126.96844638340009

충청북도 청주시 서원구 남이면 남석로 316-26,D,0,,서원요양병원,043-233-6000,,1730,0900,1730,0900,1730,0900,1730,0900,1730,0900,,,,,,,36.58217763193397,127.4297192023684

경기도 화성시 우정읍 쌍봉로 465-4,D,0,,근로복지공단경기요양병원,031-351-3083,,1730,0830,1730,0830,1730,0830,1730,0830,1730,0830,,,,,,,37.11419784481465,126.79678503715996

경기도 화성시 동탄반석로 134 (반송동),D,0,,동탄플러스요양병원,031-8050-8855,,1800,0900,1800,0900,1800,0900,1800,0900,1800,0900,1300,0900,,,,,37.2010628398,127.0713610218

경기도 화성시 마도면 화성로888번길 42,D,0,,사회복지법인상록원상록요양병원,031-355-1872,,1800,0900,1800,0900,1800,0900,1800,0900,1800,0900,1800,0900,,,,,37.201575555238236,126.7832756035626

"경기도 화성시 효행로 1051 (진안동, 메인프라자 7층)",D,0,,삼성우리요양병원,031-891-7575,,1600,0900,1730,0900,1730,0900,1730,0900,1730,0900,1300,0900,,,,,37.214628699108985,127.0419734546246

경기도 화성시 떡전골로 112-13 (진안동),D,0,병점역 5분 거리,새샘병원,031-307-7997,,1730,0930,1730,0930,1730,0930,1730,0930,1730,0930,1500,0930,,,,,37.20875353192676,127.03345183852491

경기도 화성시 팔탄면 버들로 1576,D,0,,연세나은요양병원,031-350-0001,,1800,0900,1800,0900,1800,0900,1800,0900,1800,0900,1300,0900,,,,,37.11487530389434,126.87383232462494

"경기도 화성시 효행로 1063 (진안동, 메디프렌드)",D,0,우성메디프랜드9층,의료법인 아주효성의료재단 효성요양병원,031-232-8636,,1800,0900,1800,0900,1800,0900,1800,0900,1800,0900,1800,1300,1800,1300,1800,1300,37.21497789678434,127.04311379542638

