주소,분류,응급여부,간이약도,이름,Tel,Tel_E,월close,월open,화close,화open,수close,수open,목close,목open,금close,금open,토close,토open,일close,일open,공close,공open,위도,경도
"광주광역시 동구 충장로안길 44, 2~3층 (황금동)",C,0,,강남더뷰티-투엠성형외과의원,062-227-3777,,1900,1000,1900,1000,1900,1000,1900,1000,1900,1000,,,,,,,35.14653425587558,126.91736199245705
인천광역시 중구 우현로 34  (답동),C,0,신포시장 건너편 현대 자동차 2층,김원택성형외과의원,032-761-6111,,1730,1000,1730,1000,1730,1000,1730,1000,1730,1000,1330,1000,,,,,37.47035112714341,126.62805648063903
"인천광역시 중구 개항로 60-1, 2층 (경동)",C,0,"경동파출소 근처, 경동프라자 건물",정원진성형외과의원,032-763-5505,,1800,1100,1800,1100,1800,1100,1800,1100,1800,1100,1300,1100,,,,,37.47206965057716,126.62919011295366
경상남도 창원시 성산구 원이대로682번길 14  (상남동),C,0,한마음병원 공용주차장 부근,S성형외과의원,055-289-0300,,1900,1000,1900,1000,1900,1000,1900,1000,1900,1000,1700,1000,,,,,35.22208269512236,128.6866021694216
경상남도 창원시 의창구 원이대로 587,C,0,정우상가,성민성형외과의원,055-261-3200,,1800,0930,1800,0930,1800,0930,1800,0930,1800,0930,1200,0930,,,,,35.228410784441245,128.67948406614155
경상남도 창원시 성산구 마디미동로 31 6층 (상남동),C,0,,셀럽성형외과의원,055-284-8333,,1900,1000,2100,1000,1900,1000,1900,1000,2100,1000,1600,1000,,,,,35.2206519227,128.6853781131
경상남도 창원시 성산구 상남로 118,C,0,정우상가부근,아인성형외과의원,055-286-6565,,1900,1000,2000,1000,1900,1000,1900,1000,2000,1000,1500,1000,,,,,35.22346497495129,128.68311631601526
"경상남도 창원시 성산구 마디미로22번길 12, 4층 (상남동, 노블레스상가)",C,0,,다니엘성형외과의원,055-284-0912,,1900,1000,2100,1430,1900,1000,1900,1000,2100,1000,1400,1000,,,,,35.22321964565164,128.68348948547035
경상남도 창원시 성산구 상남로 132 (상남동),C,0,우리은행 창원지점 옆,레드성형외과의원,055-287-4825,,1900,1000,2100,1000,1900,1000,1300,1000,2100,1000,1600,1000,,,,,35.22447133659593,128.68395026267646
"경상남도 창원시 성산구 마디미서로 54, (상남동.미래메디컬 10층 리얼성형외과)",C,0,,리얼성형외과의원,055-289-8626,,1900,1000,1900,1000,1900,1000,1900,1000,1900,1000,1600,1000,,,,,35.22086185429734,128.68091045477837
"경상남도 창원시 의창구 용지로169번길 11-14, 4층 404,405,406,407호 (용호동)",C,0,,미가성형외과의원,055-285-3300,,1900,1000,1900,1000,1900,1000,1900,1000,1900,1000,1600,1000,,,,,35.230084873,128.6805251795
경상남도 창원시 성산구 중앙대로 114  (상남동),C,0,하나은행 5층,미성형외과의원,055-246-0333,,1900,1000,1900,1000,1900,1000,1900,1000,2100,1000,1530,1000,,,,,35.224084725606,128.68105996430705
서울특별시 강남구 강남대로132길 4-6,C,0,논현역 7번출구 ,조수영성형외과의원,02-512-1864,,1900,1000,1900,1000,1900,1000,1900,1000,1900,1000,1500,1000,,,,,37.51185936023192,127.02164553325149
충청남도 서산시 안견로 194,C,0,터미널 타워6층,에뉴한서성형외과의원,041-666-0800,,1800,0930,1800,0930,1300,0930,1800,0930,1800,0930,1300,0930,,,,,36.781204202953745,126.45909547169047
"경기도 동두천시 지행로 59, 5층 501호 (지행동, M클리닉센터)",C,0,,제니성형외과의원,031-859-4000,,1900,1000,1900,1000,1900,1000,1900,1000,2100,1000,1500,1000,,,,,37.8926896329,127.0537833558
"서울특별시 강남구 논현로 530 (역삼동, 지하1층~5층)",C,0,,제이준성형외과의원,02-563-0530,,1900,1000,1900,1000,1900,1000,1900,1000,1900,1000,1700,1000,,,,,37.503824519773026,127.03586480942098
"서울특별시 강남구 도산대로 121, B3~B2,9~11층 (신사동)",C,0,,그랜드성형외과의원,1588-5153,,1900,0930,1900,0930,1900,0930,1900,0930,1900,0930,1700,0930,,,,,37.51740790565695,127.02172729930953
"서울특별시 강남구 압구정로30길 51, 5층 (신사동, I.S.A 빌딩)",C,0,압구정역 3번출구 ,세인성형외과의원,02-542-4009,,1830,0930,1830,0930,1830,0930,1830,0930,1830,0930,1600,0930,,,,,37.523923928466935,127.02938198586409
서울특별시 강남구 압구정로 152 7층 705호 (신사동),C,0,압구정역 5번 출구 극동스포츠 B동,홍승업성형외과의원,02-730-7320,,1900,1000,1900,1000,1900,1000,1900,1000,1900,1000,1600,1000,,,,,37.52556651362698,127.02604663740514
"서울특별시 강남구 압구정로 166, 1,2,3,4층 (신사동)",C,0,압구정역 5번 출구,알루라성형외과의원,02-541-5900,,1800,0900,1800,0900,1800,0900,1800,0900,1800,0900,1400,0900,,,,,37.5265788301,127.0278434895
"경기도 파주시 미래로 371, 씨티타워 401호 (동패동)",C,0,,파주미래성형외과의원,031-957-7474,,1900,1000,1900,1000,1900,1000,1900,1000,1900,1000,1600,1000,,,,,37.71108643161779,126.74586281336724
"경기도 용인시 기흥구 중부대로 343-1 (신갈동, 동원빌딩)",C,0,동원빌딩 4층,필성형외과의원,031-282-0770,,1900,1000,1900,1000,1900,1000,1900,1000,1900,1000,1500,1000,,,,,37.27173470537796,127.10505681590746
"서울특별시 강남구 논현로175길 6, 로얄빌딩 2층 (신사동)",C,0,,케이김종규성형외과의원,02-515-8887,,1900,0930,1900,0930,1900,0930,1900,0930,2100,0930,1600,0930,,,,,37.526366174360646,127.02792486360674
"경기도 용인시 기흥구 죽전로 2, 304,305호 (보정동, 현타워)",C,0,,SB성형외과의원,031-889-9513,,1900,1000,1900,1000,1900,1000,1900,1000,1900,1000,1500,1000,,,,,37.320213915097945,127.10899275626555
인천광역시 계양구 오조산공원로 22 (용종동),C,0,계양구홈플러스 옆건물,허승호성형외과의원,032-555-5518,,1800,1000,1800,1000,1800,1000,1800,1000,1800,1000,1500,1000,,,,,37.53963906490005,126.7372672104384
"경기도 용인시 기흥구 이현로29번길 18-6 (보정동, 에이원성형외과)",C,0,,에이원성형외과의원,031-272-8101,,1900,1000,1900,1000,1900,1000,1900,1000,1900,1000,1900,1000,,,,,37.30710066988031,127.09819500231984
부산광역시 수영구 수영로 384 (남천동),C,0,2호선 남천역 3번출구,유성종성형외과의원,051-622-5577,,1800,0900,1800,0900,1800,0900,1800,0900,1800,0900,1300,0900,,,,,35.140791666666665,129.10685833333494
"서울특별시 강남구 논현로 837, 원방빌딩, 2층일부 (신사동)",C,0,,연세퍼스트성형외과의원,02-516-0013,,1900,1000,1900,1000,1900,1000,1900,1000,2100,1000,1600,1000,,,,,37.52324310682081,127.0279427981705
부산광역시 수영구 연수로 423 (수영동),C,0," 2,3호선 수영역 2번출구/ 부산은행 맞은편 3층",강순옥성형외과의원,051-759-6572,,1830,0930,1830,0930,1830,0930,1830,0930,1830,0930,1300,0930,,,,,35.16784166666667,129.11505000000164
"부산광역시 중구 광복로 73 (광복동2가, 비비안광복점)",C,0,"버스정류장: 롯데백화점 광복점 신관9층/1호선 남포역 7,3번출구",쉬즈성형외과의원,051-710-0788,,2000,1030,2000,1030,2000,1030,2000,1030,2000,1030,1800,1030,,,,,35.098835176384085,129.0329441846255
"경기도 이천시 이섭대천로 1242, 4층 (창전동)",C,0,,청담모델성형외과의원,031-638-3690,,1900,1000,1900,1000,1900,1000,1900,1000,2100,1000,1600,1000,,,,,37.281221936315156,127.44721071311711
"경기도 이천시 이섭대천로 1233, 4층 (창전동)",C,0,,가나정성한성형외과의원,031-637-4507,,1830,1000,1830,1000,1830,1000,1830,1000,1830,1000,1400,1000,,,,,37.28036285496317,127.44659675023911
"경기도 시흥시 경기과기대로 219, 9층 901~904(일부), 920호 (정왕동)",C,0,,조은손성형외과의원,031-499-8119,,1730,0900,1730,0900,1730,0900,1730,0900,1730,0900,1400,0900,,,,,37.33454287813381,126.73256945733667
경상북도 김천시 자산로 200  (성내동),C,0,,김천미성형외과의원,054-430-8263,,1930,1000,1930,1000,1930,1000,1930,1000,1930,1000,1300,0930,,,,,36.12812162929592,128.11842438438532
"경기도 남양주시 늘을2로14번길 5, 503, 504호 (호평동, 샤르망메디칼프라자)",C,0,,유앤성형외과의원,031-595-0400,,1800,1000,2100,1000,1800,1000,1800,1000,1800,1000,,,,,,,37.65411789140968,127.24456542964205
경기도 시흥시 중심상가2길 12-2,C,0,이마트 후문 앞 피자헛 건물 5층,김준범성형외과의원,031-488-9100,,1830,1000,1830,1000,1830,1000,1830,1000,1830,1000,1500,1000,,,,,37.34557667348941,126.73651620015613
서울특별시 강남구 압구정로30길 12,C,0,압구정역 근처/,김인중성형외과의원,02-3445-5599,,1900,1000,1900,1000,1900,1000,1900,1000,1900,1000,1600,1000,,,,,37.52670266676974,127.02908435874811
"서울특별시 강남구 논현로 843, 2,6층 (신사동, EGI빌딩)",C,0,압구정역 4번출구에서 직진,아이웰성형외과의원,02-542-2017,,1900,1000,1900,1000,1900,1000,1900,1000,1900,1000,1700,1000,,,,,37.5243947699,127.0279739044
서울특별시 영등포구 영중로 51-1,C,0,영등포역 5번출구 건너편으로 직진하여 오렌지팩토리 건물,박윤규성형외과의원,02-2631-7575,,1800,1000,1800,1000,1800,1000,1800,1000,1800,1000,1600,1000,,,,,37.520953838828625,126.90463179686881
"서울특별시 영등포구 영중로 60, 8층 (영등포동5가, 유니온빌딩)",C,0,영등포역 5번출구 동서빌딩 3층,비즈성형외과의원,02-2672-1318,,1900,1000,1900,1000,1900,1000,1900,1000,1900,1000,1500,1000,,,,,37.52144815690966,126.90533250811734
서울특별시 영등포구 영중로 37 (영등포동4가),C,0,,김종철성형외과의원,02-2677-7331,,1900,1000,1900,1000,1900,1000,1900,1000,1900,1000,1500,1000,,,,,37.51947981522461,126.90471307889234
"서울특별시 강남구 삼성로145길 6 (청담동, 2층 3층일부)",C,0,청담역 8번출구 근처/,씨디유청담유성형외과의원,02-540-2415,,1900,1000,2000,1000,1900,1000,1900,1000,2000,1000,1600,1000,,,,,37.522348580037296,127.04770185064599
"서울특별시 동작구 사당로 308, 3층 (사당동)",C,0,7호선 이수역 8번출구,이수엠디성형외과의원,02-594-8111,,1800,1000,1800,1000,1800,1000,1800,1000,1800,1000,1500,1000,,,,,37.48490738146172,126.98157914593254
"서울특별시 동작구 보라매로5가길 24 (신대방동, 보라매나산스위트 201,212호)",C,0,보라매공원 인근,김헌곤성형외과의원,02-842-3333,,1900,1000,1900,1000,1900,1000,1900,1000,1900,1000,1700,1000,,,,,37.4907012449,126.9239453568
서울특별시 동작구 시흥대로 676 (신대방동),C,0,"강남성심병원 인근 혜석빌딩 2,3층",한현언성형외과의원,02-841-6046,,1900,1000,1900,1000,1900,1000,1900,1000,1900,1000,1500,1000,1500,1000,1500,1000,37.4916999284367,126.90915838585786
"서울특별시 강서구 강서로 43, 302, 303호 (화곡동, 도양라비앙타워)",C,0,,미르성형외과의원,02-2607-3607,,1900,1000,1900,1000,1900,1000,1900,1000,1900,1000,1600,1000,,,,,37.53162172132882,126.84654054779494
"서울특별시 강서구 강서로 27, 화곡심포니타워 6층 602, 603, 604호 (화곡동)",C,0,,미성형외과의원,02-2695-0075,,1900,1000,1900,1000,1900,1000,1900,1000,1900,1000,1600,1000,,,,,37.53036479044009,126.84720835881723
"서울특별시 강남구 논현로 868, 구정빌딩 4층 402호 (신사동)",C,0,,테일러성형외과의원,02-543-7020,,1900,1000,1900,1000,1900,1000,1900,1000,1900,1000,1600,1000,,,,,37.526084831,127.0288840925
경상남도 밀양시  밀양대로  1853-12 (삼문동),C,0,,밀양제이스성형외과의원,055-353-0182,,1800,0900,1800,0900,1800,0900,1800,0900,1800,0900,1300,0900,,,,,35.489284695284866,128.74575521671008
서울특별시 강서구 화곡로 173 (화곡동) ,C,0,,김정철성형외과의원,02-2607-0880,,1830,1000,1830,1000,1830,1000,1830,1000,1830,1000,1300,1000,,,,,37.54204763413295,126.84075290459155
"대구광역시 중구 중앙대로 366, 11층 1101호 (덕산동)",C,0,,강남퍼스트성형외과의원,053-254-0600,,1900,1000,1900,1000,1900,1000,1900,1000,1900,1000,1600,1000,,,,,35.8661154915,128.5938347504
서울특별시 강남구 논현로 830  (신사동),C,0,압구정역 3번출구 국민은행 맞은편,가인성형외과의원,02-518-1800,,1900,0930,1900,0930,1900,0930,1900,0930,2100,0930,1600,0930,,,,,37.52261785890161,127.02853433476493
"서울특별시 강남구 압구정로28길 22-5, 4층 (신사동)",C,0,,에스원성형외과의원,02-546-8859,,1900,1000,1900,1000,1900,1000,1900,1000,1900,1000,1500,1000,,,,,37.52501484435693,127.02718224437637
"서울특별시 강남구 논현로 857, 4층 (신사동, 계룡빌딩)",C,0,,권장덕케이성형외과의원,02-3444-1311,,1800,1030,1800,1030,1800,1030,1800,1030,1800,1030,1500,1030,,,,,37.5253461982,127.0281009629
울산광역시 남구 삼산로 282,C,0,,신세계성형외과의원,052-269-7070,,1830,0930,1900,0930,1830,0930,1900,0930,1830,0930,1600,0930,,,,,35.53839904345251,129.33823285038156
"울산광역시 남구 삼산로 115, 4층 (달동)",C,0,,양경철성형외과의원,052-227-2323,,1830,1000,1830,1000,1830,1000,1830,1000,1830,1000,1500,1000,,,,,35.5357596211,129.3200962565
"서울특별시 강남구 논현로 825, 지하1층,1~3층 (신사동)",C,0,,우아성형외과의원,1600-5319,,1900,1000,1900,1000,1900,1000,1900,1000,2030,1000,1700,1000,,,,,37.5221639274,127.0278056494
"울산광역시 남구 삼산로 254, 16층 (달동, S타워)",C,0,,울산BB성형외과의원,052-257-5432,,1900,1000,1900,1000,1900,1000,1900,1000,1900,1000,1700,1000,,,,,35.5385209112,129.3350054036
"서울특별시 강남구 테헤란로 139-1, 3층 (역삼동, 한중앙타워)",C,0,,에이펙스성형외과의원,02-3453-7907,,1900,1000,1900,1000,1900,1000,1900,1000,1900,1000,1600,1000,,,,,37.500440757413976,127.03446991866818
"서울특별시 강남구 강남대로 596 (논현동, 극동빌딩 9층, 10층일부)",C,0,신사역 3번 출구,라레드성형외과의원,1599-0093,,1830,0930,1830,0930,1830,0930,1830,0930,2030,0930,1530,0930,,,,,37.5150222932,127.0203511623
"서울특별시 강남구 강남대로 408, YBM강남센터 1201호 (역삼동)",C,0,강남역 12번 출구,그리다성형외과의원,02-558-0090,,1900,0900,1900,0900,1900,0900,1900,0900,1900,0900,1600,0900,,,,,37.4992172081,127.0275392968
"울산광역시 남구 삼산로 266, 굿모닝클리닉 12층 (삼산동)",C,0,,김주헌성형외과의원,052-700-9009,,1830,1000,1830,1000,1830,1000,1830,1000,1830,1000,1300,1000,,,,,35.538791696900006,129.3362832315032
"울산광역시 남구 삼산로 270, 8층 (삼산동, 삼산동 Kim s빌딩)",C,0,킴스 빌딩 8층,눈의꽃성형외과의원,052-258-3111,,1900,1000,1900,1000,1900,1000,1900,1000,1900,1000,1600,1000,,,,,35.5388666025,129.3366955015
"서울특별시 강남구 도산대로 111 (신사동, S-TOWER 7~8층)",C,0,,티오피성형외과의원,02-545-8700,,1800,1000,1800,1000,1800,1000,1800,1000,1800,1000,1600,1000,,,,,37.51696119400697,127.02069103447019
"서울특별시 강남구 논현로 842 , 9층 (신사동)",C,0,압구정역 3번출구 근처/,연세이앤비성형외과의원,02-514-2252,,1900,1000,1900,1000,1900,1000,1900,1000,1900,1000,1600,1000,,,,,37.5240377916,127.0287294521
"서울특별시 강남구 논현로 868, 2층 (신사동, 구정빌딩 2층일부)",C,0,압구정역 3번 출구 뒷쪽,케이성형외과의원,02-547-8808,,1900,1000,1900,1000,1900,1000,1900,1000,2100,1000,1700,1000,,,,,37.52608483101179,127.02888409250943
"서울특별시 강남구 압구정로 410, 3층 (청담동)",C,0,압구정로데오역 3번 출구,아름다운사람성형외과의원,02-6486-1070,,1900,1000,1900,1000,1900,1000,1900,1000,1900,1000,1600,1000,,,,,37.527212683799995,127.0416320929
"서울특별시 강남구 도산대로 452, JS빌딩 3층 (청담동)",C,0,,청담청초성형외과의원,02-545-0482,,1900,1000,1900,1000,1900,1000,1900,1000,1900,1000,1600,1000,,,,,37.523628781912485,127.04573428605963
"서울특별시 강남구 논현로161길 10, 4층 (신사동)",C,0,,조은성형외과의원,02-3448-0098,,1800,1000,1800,1000,1800,1000,1800,1000,1800,1000,1500,1000,,,,,37.523602011,127.0274487073
"광주광역시 서구 상무중앙로 42, 602호 (치평동)",C,0,,톱스타성형외과의원,062-365-7575,,1900,1000,1900,1000,1900,1000,1900,1000,1900,1000,1600,1000,,,,,35.1507098668558,126.84889252983825
경기도 고양시 일산동구 정발산로 43-20,C,0,,센트럴성형외과의원,031-901-5575,,1900,1000,1900,1000,2100,1000,1900,1000,1900,1000,1700,1000,,,,,37.65849022876334,126.77332317708581
경기도 고양시 일산동구 중앙로1275번길 60-30,C,0,,아름다운성형외과,031-901-3375,,1900,1000,1900,1000,1900,1000,1900,1000,1900,1000,,,,,,,37.66036297601954,126.76897912426134
울산광역시 남구 삼산로 269 (삼산동),C,0,,이강길성형외과의원,052-256-1600,,1800,0930,1800,0930,1800,0930,1800,0930,1800,0930,1500,0930,,,,,35.53947517358971,129.3365367904272
"울산광역시 남구 돋질로302번길 27, 3층 (삼산동)",C,0,,이레성형외과의원,052-275-5777,,1900,1000,1900,1000,1900,1000,1900,1000,1900,1000,1500,1000,,,,,35.5416960890912,129.33761549249345
"경기도 고양시 일산동구 정발산로 31-21, 맥클린21 5층 (장항동)",C,0,,예쁨주의쁨성형외과의원,031-915-3225,,2100,1000,2100,1000,2100,1000,2100,1000,2100,1000,1700,1000,,,,,37.65776846214087,126.77138485513882
"경기도 고양시 일산동구 중앙로1261번길 55, 5(일부)층 (장항동)",C,0,,오킴스오성형외과의원,031-906-8222,,1900,1030,1900,1030,1900,1030,1900,1030,1900,1030,1600,1030,,,,,37.66462952893625,126.75457192316442
"경기도 고양시 일산동구 중앙로1261번길 55, 5(일부)층 (장항동)",C,0,,오킴스케이성형외과의원,031-906-3222,,1900,0930,1900,0930,1900,0930,1900,0930,1900,0930,1600,0930,,,,,37.6575836342,126.7708550469
"경기도 고양시 일산동구 중앙로 1322 (정발산동, 아이스페이스 215호)",C,0,,이성형외과의원,031-906-0033,,1800,1000,1800,1000,1800,1000,1800,1000,1800,1000,1330,1000,,,,,37.6637029108,126.7707637016
"서울특별시 강남구 도산대로13길 9, 3,4층 (신사동)",C,0,,더플러스성형외과의원,02-6933-7587,,1900,1000,1900,1000,1900,1000,1900,1000,1900,1000,1700,1000,,,,,37.518568151,127.0230307509
광주광역시 동구 중앙로 164,C,0,NC웨이브(구 밀리오레) 건너편 3층,최광림성형외과의원,062-226-8575,,1800,0930,1800,0930,1800,0930,1800,0930,1800,0930,1300,0930,,,,,35.14847747149944,126.91370978469834
"서울특별시 강남구 도산대로 111 (신사동, S-TOWER 9층, 10층, 13층, 14층)",C,0,신사역 8번 출구,디아이성형외과의원,02-511-1581,,1900,1000,1900,1000,1900,1000,1900,1000,1900,1000,1700,1000,,,,,37.516961194,127.0206910345
"서울특별시 강남구 논현로 824, 동양빌딩 4층 (신사동)",C,0,,김형진뉴라인성형외과의원,02-544-5222,,1900,1000,1900,1000,1900,1000,1900,1000,2100,1000,1600,1000,,,,,37.5219907589,127.0285431458
"서울특별시 강남구 논현로 843, EGI빌딩 4,5,8층 (신사동)",C,0,압구정역 4번 출구 도보 3분,모제림성형외과의원,02-518-6040,,1900,1000,1900,1000,1900,1000,1900,1000,1900,1000,1700,1000,,,,,37.5243947699,127.0279739044
"울산광역시 남구 삼산로 254, 15층 (달동)",C,0,현대백화점 사거리 대각선 BYC건물 옆,BB성형외과의원,052-1544-5432,,1900,1000,1900,1000,1900,1000,1900,1000,1900,1000,1700,1000,,,,,35.538520911159914,129.33500540356494
"울산광역시 남구 삼산로 273, 6층 (삼산동)",C,0,현대백화점 옆,강남LK성형외과의원,052-267-2110,,1900,1000,1900,1000,1900,1000,1900,1000,1900,1000,1600,0900,,,,,35.53951003016111,129.33678472810945
대구광역시 수성구 동대구로 397,C,0,,웰스성형외과의원,053-794-7922,,1830,0900,1830,0900,1830,0900,,,1830,0900,1700,0900,,,,,35.86576444250171,128.62631897797291
"경기도 성남시 분당구 성남대로 165, 317호 (금곡동,천사의도시1차)",C,0,,이지연성형외과의원,031-782-4448,,1800,1000,1800,1000,1800,1000,1800,1000,1800,1000,1300,1000,,,,,37.35075524002421,127.10827400955571
"대구광역시 수성구 동대구로 179, 3~4층 (황금동)",C,0,,윤용현성형외과의원,053-766-2454,,1830,0930,1830,0930,1830,0930,1830,0930,1830,0930,1400,0930,,,,,35.847237033422445,128.5902083644616
"경기도 성남시 분당구 성남대로 345, 805,806호 (정자동, 정자역프라자)",C,0,,지니성형외과의원,031-757-8252,,1900,1000,1900,1000,1900,1000,1900,1000,1900,1000,1500,1000,,,,,37.366941828,127.1077011878
경기도 성남시 분당구 성남대로 345 (정자동) 4층,C,0,,엠에스(MS)성형외과의원,031-8022-8800,,1900,1000,1900,1000,1900,1000,1900,1000,2000,1000,1600,1000,,,,,37.36729141897345,127.10769719214841
"경기도 성남시 분당구 서현로210번길 20, 404호 (서현동, 코코프라자)",C,0,,헤라성형외과의원,031-708-8252,,1800,1000,1800,1000,1800,1000,1800,1000,1800,1000,1600,1000,,,,,37.38577564104425,127.12399580950807
충청북도 청주시 상당구 상당로 49 (남문로2가),C,0,롯데영플라자 옆,이원제성형외과의원,043-222-0002,,1900,1000,1900,1000,1900,1000,1900,1000,1900,1000,1500,1000,,,,,36.63304804702297,127.4904945368485
충청북도 청주시 상당구 상당로 51,C,0,롯데영플라자 옆,이재경성형외과의원,043-225-5757,,1900,1000,1900,1000,1900,1000,1900,1000,1900,1000,1600,1000,,,,,36.632944126644084,127.49031672007938
"충청북도 청주시 상당구 상당로 52, (문화동)",C,0,롯데영플라자 맞은편,정효경성형외과의원,043-222-6556,,1830,0930,1830,0930,1830,0930,1830,0930,1830,0930,1600,0930,,,,,36.63285835122478,127.49104343164174
"서울특별시 강남구 강남대로 590, 12층 (논현동, 미혜빌딩)",C,0,,뷰티라인성형외과의원,02-544-0600,,1800,1000,1800,1000,1800,1000,1800,1000,2100,1000,1600,1000,,,,,37.51453574252553,127.02040079927336
충청북도 충주시 봉계1길 62 (칠금동),C,0,탑빌딩 3층,김도현의강남성형외과의원,043-854-0005,,2000,0900,2000,0900,2000,0900,2000,0900,2000,0900,1400,0900,,,,,36.981847459202704,127.9162084684831
서울특별시 강남구 논현로 841  (신사동),C,0,압구정역 4번 출구 인근,첫눈성형외과의원,02-515-8880,,1900,1000,1900,1000,1900,1000,1900,1000,2100,1000,1600,1000,,,,,37.52406321711114,127.0279059050638
"서울특별시 강남구 도산대로 108, 14,15층 (논현동)",C,0,,청담여신성형외과의원,18002662,,1900,1000,2000,1000,1900,1000,2000,1000,1900,1000,1600,0930,,,,,37.5161935453,127.020654626
"서울특별시 강남구 논현로 857, 2,3,5층 (신사동, 계룡빌딩)",C,0,"압구정역 4번 출구 앞,  계룡빌딩 2층 3층 5층",브라운성형외과의원,02-518-2400,,1900,1000,1900,1000,1900,1000,1900,1000,2100,1000,1700,1000,,,,,37.52545950582733,127.02816078396722
"서울특별시 강남구 압구정로12길 24, 4,5,6층 (신사동)",C,0,,더라인성형외과의원,18990252,,1900,1000,1900,1000,1900,1000,1900,1000,1900,1000,1600,1000,,,,,37.5223524697,127.0224798721
서울특별시 강남구 논현로 838,C,0,압구정역 근처/,압구정필성형외과의원,02-542-1213,,1800,1000,1800,1000,1800,1000,1800,1000,1800,1000,1600,1000,,,,,37.5232825874577,127.02866227972697
"경기도 안산시 단원구 광덕동로 91, 206,207호 (고잔동, 씨티프라자)",C,0,시티프라자 2층,비에이성형외과의원,031-485-7575,,1830,1000,1830,1000,1830,1000,1830,1000,1830,1000,1600,1000,,,,,37.3126520228,126.8325834
"서울특별시 강남구 도산대로 114, 4층 (논현동, 수일빌딩)",C,0,신사역 1번 출구,천남주성형외과의원,02-518-1141,,1900,1000,1900,1000,1900,1000,1900,1000,1900,1000,1600,1000,,,,,37.5164493309,127.0212157441
경상남도 창원시 마산회원구 3.15대로 744,C,0,마산시네마 밑,김보현성형외과의원,055-299-6000,,1800,1000,1800,1000,1800,1000,1800,1000,1800,1000,1200,1030,,,,,35.23830549464981,128.5828994099732
경상남도 창원시 마산회원구 3.15대로 645,C,0,경남은행 본점 앞,세인성형외과의원,055-295-0111,,1830,0930,1830,0930,1830,0930,1830,0930,1830,0930,1600,0930,,,,,35.23101819796945,128.5764005197865
"전라북도 전주시 완산구 충경로 64, (경원동1가)",C,0,민중서관옆 건물 2층,조경호성형외과의원,063-284-4728,,1830,0900,1830,0900,1830,0900,1830,0900,1830,0900,1630,1000,,,,,35.81826950823579,127.14627180116515
인천광역시 연수구 앵고개로 262,C,0,동춘동 하나마트 앞,장효죽성형외과의원,032-814-1004,,1800,1000,1800,1000,,,1800,1000,2000,1000,,,,,,,37.40756104456121,126.67262631931987
"전라북도 전주시 완산구 당산로 104, 3층 (서신동)",C,0,이마트 옆 삼거리 신호등 건너편3층,오명록성형외과의원,063-277-1013,,1730,0900,1730,0900,1730,0900,1730,0900,1730,0900,1500,0900,,,,,35.83203844890925,127.11985678763969
"충청북도 청주시 상당구 상당로81번길 36, 5층 (북문로1가)",C,0,"CGV 맞은 편, 점심시간  13시~14시",서울퍼스트성형외과의원,043-223-3736,,1900,1000,1900,1000,1900,1000,1900,1000,1900,1000,1600,1000,,,,,36.635721248,127.4881947075
"전라북도 전주시 완산구 온고을로 18, 701호 (서신동, 전북프뢰벨)",C,0,,메이크유성형외과의원,063-272-3636,,1800,1000,1800,1000,1800,1000,1800,1000,1800,1000,1600,1000,,,,,35.8341723664,127.1210375949
충청북도 청주시 상당구 상당로 47 (남문로2가),C,0,구 남궁병원 부근 / 영프라자 옆,와인피부과성형외과의원,043-223-6000,,2100,1000,1900,1000,1900,1000,1900,1000,2100,1000,1400,1000,,,,,36.6325037297663,127.49047494068078
전라북도 전주시 완산구 팔달로 200,C,0,외환은행 맞은편,박운교성형외과의원,063-282-2001,,1830,1100,1830,1100,1830,1100,1830,1100,1830,1100,1400,1100,,,,,35.82019349260887,127.14659351388852
전라북도 전주시 완산구 홍산남로 29-7 (효자동2가),C,0,객사 맞은편,김경환성형외과의원,063-232-8877,,1830,0930,1830,0930,1830,0930,1830,0930,1830,0930,1300,0930,,,,,35.817823462903874,127.14486741449922
"전라북도 전주시 완산구 당산로 120, (서신동)",C,0,부킹나이트 건너편,김수홍성형외과의원,063-227-8773,,1800,0930,1800,0930,1800,0930,1800,0930,1800,0930,1300,0930,,,,,35.825041666666664,127.121947222222218
전라북도 전주시 덕진구 백제대로 624 (금암동),C,0,,이노플러스성형외과의원,063-259-9000,,2100,0900,2100,0900,2100,0900,2100,0900,2100,0900,1800,0900,1800,1000,1800,1000,35.8418148527,127.1379314411
"전라북도 전주시 완산구 충경로 38 (중앙동2가, 서석빌딩)",C,0,구 전주백화점 맞은편,이명철성형외과의원,063-285-8188,,1800,0900,1800,0900,1800,0900,1800,0900,1800,0900,,,,,,,35.81733115046549,127.14340080467215
"전라북도 전주시 완산구 홍산로 260, M-SQUARE 4층 405호 (효자동3가)",C,0,,이영수성형외과의원,063-282-0119,,1800,0900,1800,0900,1800,0900,1800,0900,1800,0900,1230,0900,,,,,35.81747493549363,127.14374962604327
"전라북도 전주시 완산구 충경로 10, (다가동3가)",C,0,민예방2층,임기영성형외과의원,063-283-2453,,1800,1000,1800,1000,1800,1000,1800,1000,1800,1000,1200,1000,,,,,35.81657730194464,127.1406840093446
전라북도 전주시 완산구 효자로 174 ,C,0,,송정훈성형외과의원,063-222-3775,,1830,0930,1830,0930,1830,0930,1830,0930,1830,0930,1330,0930,,,,,35.8187403705,127.1044156676
"전라북도 전주시 완산구 홍산로 250, 8층 (효자동3가)",C,0,,스카이성형외과의원,063-286-1122,,1830,0930,1830,0930,1830,0930,1830,0930,1830,0930,1300,0930,,,,,35.8160384106089,127.10644814335353
"전라북도 전주시 완산구 온고을로 20 (서신동,502~ 505호)",C,0,롯데백화점 옆,아이앤유성형외과의원,063-272-7501,,1900,1000,1900,1000,1900,1000,1900,1000,1900,1000,1600,1000,,,,,35.834155286064814,127.12075585896129
"부산광역시 동래구 중앙대로 1523, SKHUBSKY 2층일부층 (온천동)",C,0,"1호선 온천장역 3,5번 출구",삼삼서울성형외과의원,051-556-3306,,1830,1000,1830,1000,1830,1000,1830,1000,1830,1000,1430,1000,,,,,35.2212910211,129.0855783477
"서울특별시 강남구 도산대로 410,  13, 14층 (청담동)",C,0,,삼성라인성형외과의원,02-6954-0017,,1900,1000,1900,1000,1900,1000,1900,1000,1900,1000,1700,1000,,,,,37.50793335932951,127.03501172713058
"충청북도 청주시 상당구 상당로81번길 4, 3층 (북문로1가)",C,0,충북도청 앞,메모리성형외과의원,043-221-0255,,1900,1000,2100,1000,1900,1000,2100,1000,1900,1000,1600,1000,,,,,36.635763721735024,127.49014051394886
"제주특별자치도 제주시 동광로 122, 301호 (일도이동)",C,0,,좌방은성형외과의원,064-755-2575,,1700,1000,1700,1000,1700,1000,1200,1000,1700,1000,1200,1000,,,,,33.49947941326067,126.52966938101032
"서울특별시 서대문구 신촌로 109, 502호 (창천동, 르메이에르타운)",C,0,르메이에르 5차 스포츠센터 5층,연세자연미성형외과의원,02-365-4553,,1830,0930,1830,0930,2000,0930,1830,0930,2000,0930,1600,0930,,,,,37.5558302028,126.9377996069
서울특별시 서대문구 이화여대길 7 (대현동),C,0,,허은성형외과의원,02-313-6767,,1800,1030,1800,1030,1800,1030,1800,1030,1800,1030,1500,1030,,,,,37.557239654982226,126.94570719866303
부산광역시 남구 수영로 300  (대연동),C,0,"2호선 경성대, 부경대역 5번출구",정우창성형외과의원,051-624-6611,,1900,1000,1900,1000,1900,1000,1900,1000,1900,1000,1700,1000,,,,,35.1366607814788,129.09925240443965
"서울특별시 광진구 능동로 95, 3층 (자양동)",C,0,건대입구역 5번 출구,곽승일성형외과의원,02-466-0202,,1630,1000,1630,1000,1400,1000,1630,1000,1630,1000,,,,,,,37.5395284848,127.070148032
"서울특별시 강남구 압구정로28길 28, 3,4층 (신사동, 청빌딩)",C,0,"압구정역 4번출구 청빌딩 3,4층",이룸성형외과의원,02-545-0601,,1800,0900,1800,0900,1800,0900,1800,0900,1800,0900,1500,0900,,,,,37.52477329927482,127.02751248758577
서울특별시 강남구 논현로 837  (신사동),C,0,,팝성형외과의원,02-545-0025,,1900,1000,1900,1000,1900,1000,1900,1000,1900,1000,1700,1000,,,,,37.5233387983,127.0279599352
"서울특별시 강남구 언주로 825, 9,10층 (신사동)",C,0,"포도빌딩 9,10층",안성진성형외과의원,02-3477-6969,,1900,0900,1900,0900,1900,0900,1900,0900,1900,0900,1700,0900,,,,,37.5238313135,127.0327611686
"서울특별시 광진구 천호대로 556, 5층 (능동)",C,0,7호선 군자역 5번출구 옆건물/동성빌딩 2층,오케이성형외과의원,02-3446-7588,,2030,1030,1930,1030,1930,1030,1930,1030,2030,1030,1530,0930,,,,,37.5567350987,127.0797025712
인천광역시 남동구 성말로 10,C,0,구월동 다이아나나이트 맞은편,다듬성형외과의원,032-432-2777,,1900,1000,1900,1000,1900,1000,1900,1000,2100,1000,1600,1000,,,,,37.44519550264116,126.70154029478587
"인천광역시 남동구 남동대로 899, 홍익빌딩 5층 (간석동)",C,0,인천사랑병원 맞은편 국민은행 건물 2층,이젠성형외과의원,032-863-3993,,1900,1000,1900,1000,1900,1000,1900,1000,2100,1000,1600,1000,,,,,37.4621677807867,126.67998752564225
"인천광역시 남동구 예술로 138 (구월동, 이토타워401호,402호)",C,0,롯데백화점 옆 이토타워4층,2010성형외과의원,032-816-2010,,1800,1000,,,1800,1000,,,1800,1000,1600,1000,,,,,37.446241249675815,126.70100658216248
"인천광역시 남동구 인하로 501, (구월동)",C,0,신세계백화점 건너편 우리은행 옆 건물,미래로성형외과의원,032-439-7533,,1900,1000,1900,1000,1900,1000,2100,1000,1900,1000,,,,,,,37.44352726308882,126.70238249268873
인천광역시 남동구 인하로 523,C,0,LG전자 미추홀빌딩5층,미추홀성형외과의원,032-424-6296,,1900,1000,1900,1000,1900,1000,1900,1000,1900,1000,1530,1000,,,,,37.44328282956847,126.70481597380407
"인천광역시 남동구 예술로140번길 33, 화성빌딩 3층 (구월동)",C,0,,세란플러스성형외과의원,032-421-3990,,,,,,,,,,,,,,,,,,37.44665260811989,126.70263227282547
"인천광역시 남동구 논고개로123번길 17, 508~511,513호 (논현동, 아이플렉스)",C,0,논현동 아이플렉스 5층,수앤수성형외과의원,032-439-9119,,1800,0900,1800,0900,1800,0900,1800,0900,1800,0900,1300,0900,,,,,37.40168629791686,126.72308665182138
인천광역시 남동구 인하로489번길 10 (구월동) ,C,0,"뉴코아아울렛 옆 건물, 기업은행 뒷 건물 6층.",스타일성형외과의원,032-468-7575,,1900,0930,2100,0930,1900,0930,1900,0930,2100,0930,1500,0930,,,,,37.444021854546115,126.70128210555231
서울특별시 강남구 강남대로 616 (신사동),C,0,"신사역 6,7번출구",스템케이성형외과의원,02-514-7753,,1900,1000,1900,1000,1900,1000,1900,1000,2100,1000,1600,1000,,,,,37.51685683038387,127.01979965904021
"인천광역시 남동구 인하로507번길 4, 3층 일부호 (구월동, 벽성빌딩)",C,0,신세계백화점건너편 벽성빌딩3층,엘리트성형외과의원,032-424-1221,,1900,1000,1900,1000,1900,1000,1900,1000,1900,1000,1600,1000,,,,,37.44350967423586,126.70327077493446
인천광역시 남동구 인하로 497-5 12층,C,0,뉴코아아울렛 옆옆 건물,오르성형외과의원,032-432-9388,,1900,1000,1900,1000,2100,1300,1900,1000,2100,1000,1600,1000,,,,,37.44359736923527,126.70159568491363
인천광역시 남동구 성말로 10 (구월동),C,0,"성형외과 피부과 같이 붙어있음
피부과 : 433-5760~1",인천세란성형외과의원,032-433-2170,,1900,1000,1900,1000,1900,1000,1900,1000,2100,1000,1600,1000,,,,,37.44519378564636,126.70152606096495
"인천광역시 남동구 인하로 497-8 (구월동, 오아시스빌딩 5층 일부)",C,0,신세계백화점 맞은편,인천신세계성형외과의원,032-427-7707,,1900,1000,1900,1000,1900,1000,1900,1000,1900,1000,1600,1000,,,,,37.44356973446133,126.70207041243776
"인천광역시 남동구 인하로 497-5, 11층 (구월동, 푸른세상안과빌딩)",C,0,,타미성형외과의원,032-441-2325,,1900,1000,1900,1000,1900,1000,1900,1000,2100,1000,1600,1000,,,,,37.44359736923527,126.70159568491363
"인천광역시 남동구 인하로507번길 9, 7층 일부호 (구월동, 하나빌딩)",C,0,,청담이지성형외과의원,032-422-0123,,1900,1000,1900,1000,1900,1000,1900,1000,1900,1000,1600,1000,,,,,37.44389566608839,126.70269290617004
"경기도 김포시 김포한강4로 117, 703호 (장기동, 홍우프라자)",C,0,사우사거리 하나은행 건물 6층,서연성형외과의원,031-996-0075,,1800,1000,1800,1000,1800,1000,1800,1000,1800,1000,1300,1000,,,,,37.64417380771457,126.66797226126172
"서울특별시 강남구 압구정로 124, 지하1, 1~4층 (신사동)",C,0,,더아이언성형외과의원,1566-4766,,1900,1000,1900,1000,1900,1000,1900,1000,1900,1000,1700,1000,,,,,37.52376889699917,127.02220879593466
경기도 김포시 김포대로 847  (사우동),C,0,김포시청사거리 신한은행4층,제이엠성형외과의원,031-984-7744,,1800,0930,1800,0930,1800,0930,1800,0930,1800,0930,1400,0930,,,,,37.61968265834697,126.71961619895023
"부산광역시 해운대구 센텀2로 33, 센텀뷰라움 3층 301.302.303호 (우동)",C,0,2호선 센텀시티역 11번 출구/센텀타워메디칼센터 303호,노블레스홍인식성형외과의원,051-758-6636,,1800,0900,1800,0900,1800,0900,1800,0900,1800,0900,1500,0900,,,,,35.16731594784456,129.1319875118745
"부산광역시 해운대구 센텀2로 15, 601호 (우동, 센텀브라이언)",C,0,"2호선 센텀시티역 7,9번 출구/센텀브라이언빌딩 601호",더아름다운성형외과의원,051-747-7774,,1900,1000,1900,1000,1900,1000,2100,1000,1900,1000,1600,1000,,,,,35.167697473532,129.132363459516
"부산광역시 해운대구 센텀2로 20, 센텀타워메디컬 3층 303호 (우동)",C,0,"2호선 장산역 11,13번 출구",리움성형외과의원,1833-4050,,1900,1000,1900,1000,1900,1000,1900,1000,1900,1000,1400,1000,,,,,35.1687929787,129.1757404751
"부산광역시 해운대구 구남로29번길 32, 3층 (중동, 해운대빌딩)",C,0,2호선 해운대역 1번출구/리베라호텔 맞은편,마린성형외과의원,051-747-9555,,1800,1000,1800,1000,1800,1000,1800,1000,1800,1000,1300,1000,,,,,35.162372222222224,129.16207222222414
"전라남도 광양시 공영로 59, 3층 (중동)",C,0,,더힐성형외과의원,061-793-5678,,1830,0930,1830,0930,1230,0930,1830,0930,1830,0930,1300,0930,,,,,34.9361141126,127.6957542521
"서울특별시 강남구 테헤란로 105, 3층 (역삼동)",C,0,강남역 12번 출구,비엔성형외과의원,02-552-9100,,1900,0930,1900,0930,1900,0930,1900,0930,2100,0930,1600,0930,,,,,37.498636725,127.0285297307
부산광역시 해운대구 센텀2로 10,C,0,2호선 센텀시티역 11번출구,VS성형외과의원,051-746-0999,,1900,1000,1900,1000,1900,1000,1900,1000,1900,1000,1500,1000,,,,,35.16780300874372,129.1315524753258
"서울특별시 강남구 논현로 842, 4층 (신사동, 압구정빌딩)",C,0,"압구정역 3번 출구
",탑페이스성형외과의원,02-514-0035,,1900,1000,1900,1000,1900,1000,1900,1000,1900,1000,1700,1000,,,,,37.52403779158667,127.02872945208587
"경상남도 양산시 양산역1길 24, 401호 (중부동, 영동프라자)",C,0,이마트 부근,벨성형외과의원,055-367-5030,,1800,1100,1800,1100,1800,1100,1800,1100,1800,1100,1300,1100,,,,,35.33697376630182,129.027675731596
경기도 고양시 일산서구 중앙로 1406,C,0,,자이언성형외과의원,031-919-5955,,1900,1000,1900,1000,1900,1000,1900,1000,1900,1000,1500,1000,,,,,37.669380543633494,126.76387767112136
부산광역시 해운대구 좌동순환로 506 ,C,0,"2호선 중동역 3,5번출구",시카고성형외과의원,051-747-7333,,1900,0930,1900,0930,1900,0930,1900,0930,1900,0930,1500,0900,,,,,35.1661720607,129.1687307501
"부산광역시 해운대구 센텀남대로 50, 8층 802호 (우동, 센텀임페리얼타워)",C,0,2호선 센텀시티역 11번 출구/센텀임페리얼타워빌딩 8층,신세계성형외과의원,051-743-6446,,1900,1000,1900,1000,1900,1000,1900,1000,2100,1000,1600,1000,,,,,35.168203078077504,129.13133630513096
"부산광역시 해운대구 해운대로 365, 6층 (우동)",C,0,2호선 벡스코역 8번 출구,유케이성형외과의원,051-710-8250,,2000,1000,2000,1000,2000,1000,2000,1000,2000,1000,1600,1000,,,,,35.17042300863897,129.1374478187273
"부산광역시 해운대구 세실로 75, 502호 (좌동, 일진빌딩)",C,0,2호선 장산역 4번출구,유피성형외과의원,051-701-2100,,1900,1000,1900,1000,1900,1000,1900,1000,1900,1000,1600,1000,,,,,35.1712904793,129.1767684082
경기도 고양시 일산서구 중앙로 1547,C,0,,순정성형외과의원,031-913-0075,,1900,1000,1900,1000,1900,1000,1900,1000,1900,1000,1400,1000,,,,,37.67467396458785,126.7496553930653
"인천광역시 연수구 송도과학로16번길 33-2, 송도 트리플스트리트 B4동 401~402호 (송도동)",C,0,,닥터킴성형외과의원,032-715-6352,,1900,1000,1900,1000,1900,1400,1900,1000,1900,1000,1400,1000,,,,,37.38044345565231,126.66023221868141
"경기도 고양시 일산서구 중앙로 1437, 703호 (주엽동, 화성프라자)",C,0,,이안성형외과의원,031-916-7744,,1830,0930,1830,0930,1830,0930,1830,0930,1830,0930,1400,0900,,,,,37.67005062073647,126.76049310280017
"부산광역시 해운대구 좌동순환로 505, 1005호~1007호 (중동)",C,0,2호선 중동역 7번출구,서울미성형외과의원,051-746-9965,,1900,1000,1900,1000,1900,1000,1900,1000,1900,1000,,,,,,,35.1656692568,129.1682257679
부산광역시 해운대구 센텀2로 19,C,0,2호선 해운대역 1번출구/장산빌딩 4층,스펀지성형외과의원,051-742-6999,,1900,1000,1900,1000,1900,1000,1900,1000,1900,1000,1700,1000,,,,,35.167420972776725,129.13257407394025
"부산광역시 해운대구 구남로 27, 4층 (중동, 해운대오피스)",C,0,2호선 해운대역 3번출구/해운대오피스텔 4층,태성형외과의원,051-746-7004,,1900,1000,1900,1000,1900,1000,1900,1000,1900,1000,,,,,,,35.1617560200524,129.16089264983637
부산광역시 해운대구 마린시티2로 33,C,0,해운대 두산위브더제니스 건물 ,토브성형외과의원,051-744-1031,,1900,0930,1900,0930,,,1900,0930,1900,0930,1400,0930,,,,,35.15663185765323,129.14506908519866
"서울특별시 노원구 동일로 1402 (상계동, 기업빌딩)",C,0,,리안성형외과의원,02-932-9753,,1900,1000,1900,1000,1900,1000,1900,1000,2100,1000,1600,1000,,,,,37.65375035293866,127.06112609153761
"서울특별시 노원구 동일로 1413, 4층 (상계동, 남성빌딩)",C,0,"7호선 노원역 7,8번 출구 사이 남성빌딩",안호범성형외과의원,02-932-2222,,1900,0900,1900,0900,1900,0900,1900,0900,1900,0900,1600,0900,,,,,37.6546735310371,127.06001176326325
서울특별시 노원구 노해로 482  (상계동),C,0,,서울성형외과의원,02-3392-2222,,1800,1000,1800,1000,1800,1000,1800,1000,1800,1000,1400,1000,,,,,37.6542726157,127.0617158001
"서울특별시 노원구 동일로 1392, 5층 (상계동,노원한일빌딩)",C,0,7호선 노원역5번출구,CL성형외과의원,02-933-6522,,1830,0930,1200,0930,1830,0930,1830,0930,1830,0930,1600,0930,,,,,37.653008333333332,127.061238888888894
서울특별시 노원구 노해로 490,C,0,,공봉택성형외과의원,02-932-6767,,1830,1000,1830,1000,1830,1000,1830,1000,1830,1000,1530,1000,,,,,37.654503891674324,127.06241664265332
서울특별시 노원구 동일로 1417 ,C,0,,김순진성형외과의원,02-937-0255,,1900,1000,1900,1000,1900,1000,1900,1000,1900,1000,1530,0930,,,,,37.655069979258194,127.05998033062788
서울특별시 노원구 노해로 480 (상계동) ,C,0,,노원연세성형외과의원,02-945-8800,,1900,1100,1900,1100,1900,1100,1900,1100,1900,1100,1700,1100,,,,,37.65417906027362,127.06143468157536
"경기도 안양시 만안구 안양로 303, 7층 (안양동, 메쎄포스빌)",C,0,,터치유성형외과의원,031-466-7582,,1900,1000,2100,1000,1900,1000,1900,1000,2100,1000,1600,1000,,,,,37.398796950276704,126.92079461070803
"경기도 안양시 만안구 만안로 241, 5,6층 (안양동, 대성빌딩)",C,0,안양역 근처,한나이브성형외과의원,031-441-2288,,1900,1000,2100,1000,2100,1000,1900,1000,2100,1000,1500,1000,,,,,37.4015316618,126.9214695373
"서울특별시 노원구 노해로 492, 3층 301호,302호 (상계동, 프린스빌딩)",C,0,노원역 5번 출구 인근,윤앤정와이앤제이성형외과의원,02-933-7788,,1900,1100,1900,1100,1900,1100,1900,1100,1900,1100,1600,1100,,,,,37.6544559094,127.0626769346
"서울특별시 노원구 노해로 494, 3층 (상계동, 고려빌딩)",C,0,노원역 5번 출구,이지성형외과의원,02-952-5225,,1900,1000,1900,1000,1900,1000,1900,1000,1900,1000,1600,1000,,,,,37.65453860889287,127.06303510654952
"대구광역시 동구 동내로 88, 1층 104호 (동내동, 커뮤니케이션센터)",C,0,,이희영바로일성형외과의원,053-964-8512,,1800,0900,1800,0900,1800,0900,1800,0900,1800,0900,,,,,,,35.8786402326,128.7361283873
"대구광역시 동구 팔공로49길 16, 3층 (봉무동, 이시아폴리스라이프스타일센터)",C,0,,호야성형외과의원,053-426-1313,,1900,0900,1900,0900,1900,0900,1900,0900,1900,0900,1700,0900,,,,,35.92154817681133,128.6373553304672
"서울특별시 강남구 테헤란로 101, 5층 (역삼동, 이즈타워 5층)",C,0,"강남역 11,12번 출구",서울리스타성형외과의원,02-558-8008,,1900,1000,1900,1000,1900,1000,2000,1000,1900,1000,1700,1000,,,,,37.4986224205,127.0280638046
"경기도 부천시 상동로 87,  503호 (상동)",C,0,"상동홈플러스 주변, 기업은행 건물 5층.",럭스성형외과의원,032-323-8877,,1900,0930,1900,0930,1900,0930,1900,0930,1900,0930,1700,0930,,,,,37.505203344281426,126.7525226001315
"경기도 부천시 길주로 276, 무광오피스텔 201호 (중동)",C,0,,리나성형외과의원,032-322-2577,,1900,1000,2000,1000,1900,1000,1900,1000,2000,1000,1500,1000,,,,,37.50295924896025,126.77285294830722
"충청남도 천안시 동남구 만남로 40, (신부동)",C,0,신세계백화점 맞은편 광산빌딩 4층 ,성모성형외과의원,041-568-3535,,1800,1000,1800,1000,1800,1000,1800,1000,1800,1000,1500,1000,,,,,36.818563888888889,127.156547222222216
"충청남도 천안시 동남구 만남로 43, 2층 (신부동, 신세계백화점충청점,천안종합버스터미널)",C,0,신세계맞은편 베스킨라빈스 건물 6층 ,세인성형외과의원,041-561-2525,,1800,0900,1800,0900,1800,0900,1800,0900,1800,0900,1300,0900,,,,,36.81849800479357,127.15630080944501
"충청남도 천안시 동남구 만남로 30, 3층 (신부동)",C,0,신세계맞은편 스위스안경점 3층,압구정라인성형외과의원,041-553-8090,,1730,0930,1730,0930,1730,0930,1730,0930,1930,0930,1330,0930,,,,,36.81855683793897,127.15539983326785
"충청남도 천안시 동남구 만남로 48, 3층 (신부동)",C,0,신세계백화점 맞은 편 버거킹 건물 3층 ,압구정케이엠성형외과신부점의원,041)557-7501,,1900,1000,1900,1000,1900,1000,1900,1000,1900,1000,1500,1000,,,,,36.818608311,127.1573859587
경기도 부천시 길주로 191,C,0,석천사거리 하나은행 옆 건물 4층.,새한성형외과의원,032-329-6675,,1900,1000,2000,1000,1900,1000,1900,1000,2000,1000,1500,1000,,,,,37.50510607327958,126.76389265488922
"경기도 부천시 부일로 224-14, 4층 (상동)",C,0,송내북부역 투나 맞은편 건물 4층.,서연성형외과의원,032-327-2002,,1900,1100,1900,1100,1900,1100,1900,1100,1900,1100,1600,1100,,,,,37.488070578889285,126.75460310794935
"경기도 부천시 신흥로 226 5층(중동,빈센트타워)",C,0,"중동홈플러스 옆,빈센트타워 2층",부천더성형외과의원,032-322-5512,,2000,1000,2000,1000,2000,1000,2000,1000,2000,1000,1600,0930,,,,,37.50378780329139,126.77643781488132
"경기도 부천시 길주로 111, 302호 (상동, 센타프라자)",C,0,세이브존 옆 아웃백건물,고충우성형외과의원,032-325-5566,,1900,1100,1900,1100,1900,1100,1900,1100,1900,1100,1500,1100,,,,,37.50633271693882,126.7548826390414
"경기도 부천시 길주로 183, 영라이프빌딩 702호 (중동)",C,0,중동 현대백화점 건너편.,김수환성형외과의원,032-324-9888,,1900,1000,1900,1000,1900,1000,1900,1000,1900,1000,1400,1000,,,,,37.50528602041856,126.76296121080878
"충청남도 천안시 동남구 만남로 52, 5층 (신부동, 문타워빌딩)",C,0,신세계백화점 근처 문타워 5층 ,박병일성형외과의원,041-554-6161,,1830,0930,1830,0930,1830,0930,1830,0930,1830,0930,1630,0930,,,,,36.818661111111112,127.157813888888896
"경기도 부천시 길주로 189, 303호 (중동, 우신빌딩)",C,0,"중동이마트건너편, 하나은행3층",닥터윤성형외과의원,032-321-9022,,1900,1030,1900,1030,1900,1030,1900,1030,2030,1030,1500,1030,,,,,37.50518634851821,126.76357675416676
"경기도 부천시 상일로 100 3층 (상동, 송내부건프라자)",C,0,,최병욱성형외과의원,032-323-0083,,1830,0900,1830,0900,1830,0900,1830,0900,1830,0900,1400,0900,,,,,37.4913005385071,126.75323562658163
"경기도 부천시 상동로 81, 302~304호, 센타프라자 (상동)",C,0,,캐스팅성형외과의원,032-321-2572,,1900,1000,1900,1000,1900,1000,1900,1000,1900,1000,1600,1000,,,,,37.5046047905,126.7523820541
경기도 성남시 분당구 황새울로342번길 9 ,C,0,,YES성형외과의원,031-709-2306,,1900,0930,1900,0930,1900,0930,1900,0930,1900,0930,1600,0930,,,,,37.386064215964105,127.12343319886682
"경기도 성남시 분당구 서현로 204, 302호 (서현동, 엘지분당에클라트2차)",C,0,"경기도 성남시 분당구 서현로 204, 302호 (서현동, 엘지분당에클라트2차)",네이처성형외과의원,031-708-5117,,1900,1000,1900,1000,1900,1000,1900,1000,1900,1000,1600,0930,,,,,37.38712195094053,127.12521003195559
전라북도 완주군 이서면 기지로 47,C,0,,클로엔성형외과의원,063-222-0526,,1900,0900,2030,0900,1900,0900,1900,0900,2030,0900,1300,0900,,,,,35.83866106462674,127.05728137903031
대구광역시 수성구 달구벌대로 2401 (범어동),C,0,,고운성형외과의원,053-745-9393,,1800,0930,1800,0930,1800,0930,1800,0930,1800,0930,1500,0930,,,,,35.85988132045468,128.62422401069654
"대구광역시 수성구 달구벌대로 2327, 2층 (수성동4가)",C,0,,김덕영성형외과의원,053-759-0888,,1800,0900,1800,0900,1800,0900,1800,0900,1800,0900,1200,0900,,,,,35.8600007345,128.6171320549
"충청남도 천안시 동남구 대흥로 333, 2층 (신부동,천호빌딩)",C,0,신세계백화점 근처 문타워 건너편 2층 ,이상순성형외과의원,041-561-1135,,1800,0900,1800,0900,1800,0900,1800,0900,1800,0900,1300,0900,,,,,36.81871099715583,127.15875803693048
"충청남도 천안시 동남구 만남로 44 (신부동, 남경빌딩)",C,0,신세계 맞은 편 아트안경 4층 ,황일면성형외과의원,041-568-7500,,1800,1000,1800,1000,1800,1000,1800,1000,1800,1000,1600,1000,,,,,36.818633902756055,127.15709910763502
경기도 성남시 분당구 성남대로 385,C,0,분당클리닉5층,로즈앤성형외과의원,031-709-6333,,1900,1000,1900,1000,1900,1000,1900,1000,1900,1000,1600,1000,,,,,37.37056799815278,127.10748854503399
"경기도 성남시 분당구 분당내곡로 151, 1104일부,1105호 (삼평동)",C,0,,리앤업성형외과의원,031-701-0970,,1900,1000,2100,1100,1900,1000,2100,1100,1900,1000,1600,1000,,,,,37.39736671389999,127.1125196082
"경기도 부천시 신흥로 228, 2층 (중동, 메디타워)",C,0,중동홈플러스 맞은편,양연모성형외과의원,032-325-3536,,1800,1000,1800,1000,1300,1000,1800,1000,1800,1000,1400,1000,,,,,37.50410947647008,126.77644931672091
"경기도 성남시 분당구 서현로 204, 407,408호 (서현동, 엘지에클라트2)",C,0,분당선 서현역 5번출구로 나와 300m 정도에 위치한 분당 엘지 에클라트 2차 건물 4층,리프트업성형외과의원,031-603-6003,,1700,1000,1700,1000,1700,1000,1700,1000,1700,1000,,,,,,,37.38711834685565,127.12521002596215
"경기도 부천시 상동로 87 (상동, 401,402,502호)",C,0,세이브존 대각선 방향 롯데리아 4층,예쁜세상성형외과의원,032-324-2255,,1900,1000,1900,1000,1900,1000,1900,1000,1900,1000,1700,1000,,,,,37.505341934283706,126.75242392274805
"서울특별시 서초구 강남대로65길 1, 6층 (서초동, 효봉빌딩)",C,0,강남역10번출구 효봉빌딩 6층,강남삼성성형외과의원,02-3477-4700,,1900,0930,1900,0930,1900,0930,1900,0930,2100,0930,1700,0900,,,,,37.50051140347925,127.02596105082773
"서울특별시 서초구 강남대로 421, 7층 (서초동, 삼영빌딩)",C,0,,강남서연성형외과의원,02-555-5550,,1900,1000,1900,1000,1900,1000,1900,1000,1900,1000,1700,1000,,,,,37.50008969453413,127.02616444586505
"서울특별시 서초구 강남대로 399, 2,4,5층 (서초동)",C,0,강남역10번출구,나무성형외과의원,02-533-3313,,1900,1000,2100,1000,1900,1000,1900,1000,2100,1000,1600,1000,,,,,37.49820643617295,127.02684834804921
"서울특별시 서초구 강남대로 557, 3층 (잠원동, 성한빌딩)",C,0,논현역 6번 출구,노상훈성형외과의원,02-6951-3639,,1900,1000,1900,1000,1900,1000,1900,1000,1900,1000,1600,1000,,,,,37.5115407633,127.020639771
"서울특별시 서초구 강남대로 563, 페이토플라지 3층 (잠원동)",C,0,,다시봄성형외과의원,02-512-3322,,1900,1000,1900,1000,1900,1000,1900,1000,1900,1000,1600,1000,,,,,37.51194444942125,127.0204317640955
"서울특별시 서초구 서초대로73길 42, 강남역리가스퀘어 3층 307~311호 (서초동)",C,0,,더새로이보셀르성형외과의원,02-569-8575,,1900,1000,1900,1000,1900,1000,1900,1000,1900,1000,1500,1000,,,,,37.501225331200004,127.0244413282
"서울특별시 서초구 강남대로 439, 유화빌딩 12층 1302호 (서초동)",C,0,,더웨이성형외과의원,02-534-8700,,1900,1000,2000,1000,1900,1000,1900,1000,2000,1000,1700,1000,,,,,37.5015422897,127.0253687854
"서울특별시 서초구 강남대로 429, 동일빌딩 5층 502호 (서초동)",C,0,,드레스성형외과의원,02-595-6666,,1900,1000,1900,1000,1900,1000,1900,1000,2100,1000,1600,1000,,,,,37.5007925657,127.02577113509999
"서울특별시 서초구 서초대로77길 3, 14(일부)층 (서초동, 아라타워)",C,0,강남역 9번출구,라라성형외과의원,02-532-8078,,1900,1000,1900,1000,1900,1000,1900,1000,1900,1000,1700,1000,,,,,37.498060553,127.026502998
서울특별시 서초구 강남대로 455 강남태영데시앙루브 3층 304호,C,0,신논현역 6번출구 강남태영데시앙루브 304호,라벨라성형외과의원,02-595-9234,,2000,1000,1900,1000,1900,1000,1900,1000,2100,1000,1600,1000,,,,,37.502857932,127.0245459068
"서울특별시 서초구 강남대로 429, 6층 (서초동, 동일빌딩)",C,0,,라이안성형외과의원,02-535-3888,,1900,1000,1900,1000,1900,1000,1900,1000,1900,1000,1600,1000,,,,,37.5007925657,127.0257711351
"서울특별시 서초구 강남대로 435, 주류성빌딩 7층 (서초동)",C,0,,라이크성형외과의원,02-533-1212,,1900,1000,1900,1000,1900,1000,1900,1000,2100,1000,1700,1000,,,,,37.5015422897,127.0253687854
"서울특별시 서초구 강남대로 439, 유화빌딩 5층 (서초동)",C,0,,루브르성형외과의원,02-535-1719,,1900,0900,1900,0900,1900,0900,1900,0900,1900,0900,1700,1000,,,,,37.50154228971678,127.02536878544136
"서울특별시 서초구 강남대로 449, 4~10층 (서초동, 영신빌딩)",C,0,영신빌딩 6-10층,리엔장성형외과의원,02-591-3625,,2000,1000,2000,1000,2000,1000,2000,1000,2000,1000,1800,1000,,,,,37.50241813007195,127.02507503928224
"서울특별시 서초구 강남대로 463, 3,9~13층 (서초동, 리젠타워)",C,0,신논현역 6번 출구,리젠성형외과의원,02-548-8766,,1900,1000,2000,1000,1900,1000,1900,1000,1900,1000,1700,1000,,,,,37.50344901227182,127.02444657684123
"대전광역시 서구 계룡로 550, 3층 (괴정동)",C,0,,부라보성형외과의원,042-528-9000,,1830,0930,1830,0930,1830,0930,,,1930,0930,1400,0930,,,,,36.3424501774,127.3847638559
"서울특별시 서초구 강남대로 435, 주류성빌딩 지하1, 4층 표기:3층호 (서초동)",C,0,,마블성형외과의원,02-596-7500,,1900,1000,1900,1000,1900,1000,1900,1000,1900,1000,1600,1000,,,,,37.501178241429166,127.02556317947338
대전광역시 서구 청사로 121 (월평동),C,0,선사유적지 옆,선사성형외과의원,042-486-1654,,1830,0930,1830,0930,1400,0930,1830,1400,1830,0930,1400,0930,,,,,36.36006862389561,127.37726526912721
"대전광역시 서구 계룡로 593, 3층 (탄방동, 한빛빌딩)",C,0,이미지안경원 3층,성모성형외과의원,042-533-0533,,1830,0930,1830,0930,1830,0930,1830,0930,1830,0930,1300,0930,,,,,36.34165141856844,127.38958429222967
"서울특별시 서초구 서초대로 302, 1401호 (서초동, 인앤인빌딩)",C,0,교대 5번출구 앞,씨앤씨성형외과의원,02-518-7575,,,,1800,1000,1800,1000,1800,1000,1800,1000,1700,1000,,,,,37.49373224964134,127.01471117063431
"서울특별시 서초구 강남대로 429, 동일빌딩 6층 (서초동)",C,0,강남역 10번 출구 카카오프렌즈 건물,시선성형외과의원,02-595-7780,,1900,1000,1900,1000,1900,1000,1900,1000,1900,1000,1700,1000,,,,,37.500870032374316,127.02568668236052
"서울특별시 서초구 강남대로 423, 한승빌딩 9층 901호 (서초동)",C,0,,시크성형외과의원,02-536-7577,,1900,1000,1900,1000,1900,1000,1900,1000,1900,1000,1600,1000,,,,,37.500309616631846,127.02581620513911
"서울특별시 서초구 서초대로77길 3, 4층 (서초동, 아라타워)",C,0,강남역 9번 출구,신데렐라성형외과의원,02-516-0032,,1900,1000,1900,1000,1900,1000,1900,1000,1900,1000,1600,1000,,,,,37.498060553,127.026502998
"서울특별시 서초구 강남대로 435, 8층-사용9층 (서초동, 주류성빌딩)",C,0,,에스엠성형외과의원,02-537-3707,,1900,1000,1900,1000,1900,1000,1900,1000,2100,1000,1600,1000,,,,,37.5011782414,127.0255631795
서울특별시 서초구 강남대로 509,C,0,동일빌딩 4층,에이치성형외과의원,02-3447-0100,,1900,1000,2100,1400,1900,1000,1900,1000,2100,1400,1600,1000,,,,,37.50764974955057,127.02251301290003
"서울특별시 서초구 서초대로73길 9, 타임빌딩 7층 (서초동)",C,0,,에프엔에스성형외과의원,02-599-2070,,1800,1000,1800,1000,1800,1000,1800,1000,1800,1000,,,,,,,37.49830951004297,127.02522746380944
"서울특별시 서초구 서초대로 302, 13층 (서초동, 교대역인앤인오피스)",C,0,교대역 5번 출구,예쁜미인성형외과의원,02-539-1600,,1900,1030,1900,1030,1900,1030,1900,1030,1900,1030,1600,1030,,,,,37.4937197593,127.0146958964
"서울특별시 서초구 강남대로 463, 리젠메디컬타워 9층 (서초동)",C,0,,오아시스성형외과의원,1661-9838,,1900,1000,1900,1000,1900,1000,1900,1000,2000,1000,1600,1000,,,,,37.50344901227182,127.02444657684123
서울특별시 서초구 강남대로 605,C,0,,작은얼굴성형외과의원,02-549-4700,,1900,1000,1900,1000,1900,1000,1900,1000,1900,1000,1400,1000,,,,,37.51583133999379,127.01923503939446
"서울특별시 서초구 사평대로 373, 4층 (반포동, 삼흥빌딩)",C,0,신논현역 1번 출구,옳은손성형외과의원,02-3446-9900,,1900,1000,1900,1000,1900,1000,1900,1000,1900,1000,1600,1000,,,,,37.5045987999,127.0239357553
"서울특별시 서초구 강남대로 535 (반포동, 프린스빌딩 3층)",C,0,,와우성형외과의원,02-541-1990,,1900,1000,1900,1000,1900,1000,1900,1000,1900,1000,1500,1000,,,,,37.50960883830462,127.02159836192315
서울특별시 서초구 신반포로 337 (잠원동),C,0,,원앤원성형외과의원,02-549-5445,,1830,0930,2100,0930,1830,0930,,,2100,0930,1500,0930,,,,,37.51103263618676,127.0204134185459
"서울특별시 서초구 강남대로 419, 파고다 12~18층 (서초동)",C,0,강남역 10번 출구,원진성형외과의원,02-3477-3300,,1900,0930,1900,0930,1900,0930,1900,0930,2000,0930,1700,0930,,,,,37.49980136257377,127.02620958098694
"서울특별시 서초구 강남대로 437, 7층 (서초동, 대원빌딩)",C,0,,윌성형외과의원,02-532-8874,,1900,0930,1900,0930,1900,0930,1900,0930,1900,0930,1700,0930,,,,,37.5013620574,127.0255134818
"서울특별시 서초구 강남대로 405, 3층(서초동,통영빌딩)",C,0,강남역 10번 출구,유캔비성형외과의원,1588-2338,,1900,0900,1900,0900,1900,0900,1900,0900,1900,0900,1700,0900,,,,,37.498828167894985,127.02666161275837
"서울특별시 서초구 서래로 12, 우덕빌딩 4,5층 (반포동)",C,0,서울프랑스학교 인근,이을성형외과의원,02-596-0102,,1900,1000,2100,1000,1900,1000,2100,1000,1900,1000,1600,1000,,,,,37.495965971,126.998344457
서울특별시 서초구 강남대로 455,C,0,태영데시앙루브 303호,이진호성형외과의원,02-552-4999,,1800,0930,1800,0930,1800,0930,1800,0930,1800,0930,1300,0930,,,,,37.502960524306346,127.02481427686809
강원도 춘천시 금강로 57,C,0,명동입구 던킨도너츠건물 3층,이대광성형외과의원,033-255-9682,,1900,1030,1900,1030,1900,1030,1900,1030,1900,1030,1400,1030,,,,,37.88013164667339,127.72838803058748
강원도 춘천시 시청길10번길 4-2  (조양동),C,0,시청 앞,조세흠성형외과의원,033-242-2447,,1900,1030,1900,1030,1900,1030,1900,1030,1900,1030,1600,1030,,,,,37.88028533267334,127.72859413862236
"서울특별시 강남구 강남대로 492, 한맥빌딩 12층,13층 일부층 (논현동)",C,0,,에프5성형외과의원,02-518-4500,,1900,1000,1900,1000,1900,1000,1900,1000,2100,1000,1600,1000,,,,,37.5062061573,127.0241127029
"서울특별시 강남구 테헤란로 125, 동찬빌딩 B1~2,4~12층 (역삼동)",C,0,,디에이성형외과의원,02-515-4600,,1900,0930,1900,0930,1900,0930,2100,0930,1900,0930,1700,0930,,,,,37.49960540529676,127.03167849762427
서울특별시 강남구 도산대로 326 3층,C,0,학동사거리 인근,유봄성형외과의원,02-545-3700,,1900,0900,1900,0900,1900,0900,1900,0900,2100,0900,1700,0900,,,,,37.52235218109552,127.03774699883274
서울특별시 관악구 남부순환로 1820,C,0,서울대입구역,제운성형외과의원,02-874-7900,,1830,0930,1830,0930,1830,0930,1830,0930,1830,0930,1400,0930,,,,,37.480975303430384,126.95212341534179
"서울특별시 관악구 관악로 164, 3층 (봉천동, 대우디오슈페리움1단지)",C,0,서울대입구역 2번 출구,고운얼굴성형외과의원,02-884-3838,,2000,1000,1900,1000,1900,1000,1900,1000,2000,1000,1600,1000,,,,,37.479738442,126.9528769771
"서울특별시 강남구 도산대로 108 (논현동) 렉스타워 4, 5층",C,0,"신사역 1,2번출구 스타벅스 건물",비온성형외과의원,02-541-9559,,1900,1000,1900,1000,2100,1000,1900,1000,1900,1000,1600,1000,,,,,37.51619354533294,127.02065462602883
서울특별시 강남구 강남대로 590 ,C,0,신사역 3번출구 렉스관광호텔 옆,김한성성형외과의원,02-3442-2302,,1900,1000,1900,1000,1900,1000,1900,1000,1900,1000,1700,1000,,,,,37.51453574252553,127.02040079927336
"전라남도 목포시 백년대로 325, 2층 (상동)",C,0,미르치과옆,유달성형외과의원,061-279-5565,,1730,0900,1730,0900,1730,0900,1730,0900,1730,0900,,,,,,,34.80536041237163,126.42286244131981
"전라남도 목포시 백년대로 320, 2층 (상동)",C,0,,청담유성형외과의원,061-802-0303,,1800,0930,1800,0930,1800,0930,1800,0930,1800,0930,1230,0930,,,,,34.80452973581316,126.42261249761624
"경상남도 김해시 내외중앙로 35, 아카데미 빌딩 201,202호 (외동)",C,0,,강남닥터우성형외과의원,055-338-7585,,1900,1000,1900,1000,2100,1000,1900,1000,2100,1000,1700,1000,,,,,35.2331987529,128.8660487524
"경상남도 김해시 분성로 228, 나비빌딩 601호 (외동)",C,0,,노블레스강영석성형외과의원,055-904-3062,,1900,1000,1900,1000,1900,1000,1900,1400,1900,1000,1700,1000,,,,,35.23120106851653,128.87145951482825
"경기도 오산시 오산로 209, 6층 (오산동)",C,0,,강남성형외과의원,031-377-7575,,1900,0930,1900,0930,1900,0930,1900,0930,1900,0930,1400,0930,,,,,37.14540467921226,127.06820205624558
"경기도 오산시 대원로 6, 3층 (원동)",C,0,,청담아이필성형외과의원,031-8055-7712,,1900,1000,1900,1000,1900,1000,1900,1000,2030,1000,1600,1000,,,,,37.1461070392,127.0690086203
서울특별시 성동구 왕십리로 309,C,0,KB국민은행 인근,최성호성형외과의원,02-2297-0056,,1900,1000,1900,1000,1900,1000,1900,1000,1900,1000,1400,1000,,,,,37.561360578861745,127.03472450041846
"서울특별시 성동구 행당로 6, 203호 (금호동1가)",C,0,5호선 신금호역 2번출구 신한은행 맞은편,퀸즈파크성형외과의원,02-2296-5735,,1800,1000,1800,1000,,,2100,1000,1800,1000,1300,0900,,,,,37.554475247223344,127.02074667055113
"대구광역시 동구 국채보상로 787, 2층 (신천동)",C,0,,바로본성형외과의원,053-422-7800,,1830,1000,1830,1000,1830,1000,1830,1000,1830,1000,1500,1000,,,,
"서울특별시 강남구 학동로 226, 지하1층일부 1층 (논현동)",C,0,학동역 1번 출구,나비성형외과의원,02-567-5400,,1900,1000,1900,1000,,,1900,1000,1900,1000,1500,1000,,,,,37.5146155548,127.0338203893
인천광역시 부평구 부평대로 24 (부평동),C,0,/ 문화의거리입구쪽,가나성형외과의원,032-505-4408,,1900,1000,1900,1000,1900,1000,1900,1000,1900,1000,1700,1000,,,,,37.49355522369153,126.72330734810825
인천광역시 부평구 부평대로20번길 2 (부평동),C,0,부평소방서 옆건물,가얼손기학성형외과의원,032-526-2882,,1830,1000,1830,1000,1830,1000,1830,1000,2030,1000,1600,1000,,,,,37.49301095488854,126.72327767342355
인천광역시 부평구 광장로 16  (부평동),C,0,부평역사 내 위치,부평메트로성형외과의원,032-507-1003,,1900,1000,1900,1000,1900,1000,1900,1000,1900,1000,1500,1000,,,,,37.48957848168922,126.72351609862878
"인천광역시 부평구 경원대로1377번길 5, 3층 301호 (부평동, 문화오피스텔)",C,0,"부평 북부역, 북인천 우체국 인근",비엘클리피부과.성형외과의원,032-264-6001,,2100,0930,1930,1000,,,1930,1000,2100,0930,1700,1000,,,,,37.4916417832,126.7218941432
"인천광역시 부평구 광장로4번길 11, 3층 301호 (부평동, 중보빌딩)",C,0,,디오성형외과의원,032-511-0350,,1900,1000,1900,1000,1900,1000,1900,1000,2000,1000,1600,1000,,,,,37.490629743840685,126.72218736774894
인천광역시 부평구 부평대로 5 (부평동),C,0,부평역 남광장 기업은행 건물,라벨성형외과의원,032-518-7533,,1900,1000,1900,1000,1900,1000,1900,1000,2100,1000,1600,1000,,,,,37.49193590648524,126.7228293311485
인천광역시 부평구 부평대로 25 (부평동),C,0,부평롯데백화점입구,류병훈성형외과의원,032-526-2133,,1830,1000,1830,1000,1830,1000,1830,1000,1830,1000,1400,1000,,,,,37.49375182007679,126.72261457413847
"경기도 화성시 동탄중심상가2길 2, 701,702,703호 (반송동, 아인슈타인타워)",C,0,,아트라인성형외과의원,031-8003-8280,,1900,1000,1900,1000,1900,1000,1900,1000,1900,1000,1600,1000,,,,,37.205780555555556,127.072141666666667
"경기도 화성시 동탄반석로 134, 8층 (반송동, 에이치원메디컬빌딩)",C,0,,아티뉴성형외과의원,031-831-3666,,1700,0900,1700,0900,1700,0900,1700,0900,1700,0900,,,,,,,37.201062839778174,127.07136102184422
부산광역시 북구 만덕대로 15 (덕천동),C,0,"2,3호선 덕천역 12번출구",아이리스성형외과의원,051-343-2022,,1800,1000,1800,1000,1800,1000,1800,1000,1800,1000,1400,1000,,,,,35.21072220470711,129.00669857496075
"부산광역시 북구 만덕대로 20, 5층 (덕천동, 백송빌딩)",C,0,"2,3호선 덕천역 9번출구/뉴코아 맞은편 알파문구점 건물 5층",전종완성형외과의원,051-338-0660,,1830,0930,1830,0930,1830,0930,1830,0930,1830,0930,1400,0930,,,,,35.21033611111111,129.00728333333447
"인천광역시 부평구 열우물로 50, 2층 (십정동)",C,0,,청담뷰성형외과의원,032-435-7707,,1900,1000,1900,1000,1900,1000,1900,1000,1900,1000,1400,1000,,,,,37.4725900944079,126.70090165599215
인천광역시 부평구 부평문화로 55  (부평동),C,0,현대백화점 입구 문화의거리 금강제화 맞은편 건물 7층.,세인트성형외과의원,032-516-5077,,1900,1030,1900,1030,1900,1030,1900,1030,1900,1030,1600,1100,,,,,37.49442637877138,126.72221354317276
"인천광역시 부평구 부평대로 6, 2층 (부평동)",C,0,부평역맞은편 부평소방서옆건물 2층,박치영성형외과의원,032-525-9392,,1800,1000,1800,1000,1800,1000,1800,1000,1800,1000,1300,1000,,,,,37.4921215007,126.7235930485
"인천광역시 부평구 체육관로 38, 세원빌딩 7층 701호 (삼산동)",C,0,,베스트원성형외과의원,032-503-1666,,1900,1000,1900,1000,1900,1000,1900,1000,1900,1000,1500,1000,,,,,37.508255776558286,126.73580284591871
충청남도 천안시 서북구 충무로 175 (쌍용동),C,0,쌍용동 이마트 건너편,압구정KM성형외과의원,041-572-7185,,1900,1000,1900,1000,1900,1000,1900,1000,1900,1000,1500,0900,,,,,36.79480540719531,127.12647575300151
충청남도 천안시 서북구 충무로 215,C,0,진솔빌딩 5층/ 이마트 옆 충무병원 이부자리 건물오층 ,김영순성형외과의원,041-571-1100,,1830,0930,1830,0930,1830,0930,1830,0930,1830,0930,1300,0930,,,,,36.797178788886875,127.12950160466698
"경상북도 안동시 대안로 177, 3층 (운흥동)",C,0,,하원호성형외과의원,054-901-0776,,0901,0900,0901,0900,0901,0900,0901,0900,0901,0900,,,,,,,36.56427414286112,128.73222385789626
충청남도 천안시 서북구 동서대로 135,C,0,성정동 롯데마트 옆 모델하우스 옆 수협 2층,메인성형외과의원,041-622-2828,,1830,1030,1830,1030,1830,1030,1830,1030,1830,1030,1600,1000,,,,,36.82614479874699,127.13837349887649
"충청남도 천안시 서북구 두정로 188, 3층 (두정동)",C,0,,몽벨리아성형외과의원,041-566-4458,,1900,1000,1900,1000,1900,1000,1900,1000,1900,1000,1500,1000,1500,1000,1500,1000,36.833469565188466,127.13783501575722
"충청남도 천안시 서북구 봉명로 35, 3층 (쌍용동)",C,0,미라빌딩3층 / 광혜당약국 건물 3층 ,손사랑성형외과의원,041-415-1119,,1900,1000,1900,1000,1900,1000,1900,1000,1900,1000,1300,1000,,,,,36.80783387898807,127.13242399903095
충청남도 홍성군 홍성읍 내포로 20,C,0,우리은행 옆건물 3층 ,청담유성형외과의원,041-633-3700,,1800,0930,1800,0930,1800,0930,1800,0930,1800,0930,1200,0930,,,,,36.60013173453084,126.66562948190881
"부산광역시 부산진구 서면로68번길 1, 4,5,6층 (부전동)",C,0,"1,2호선 서면역 7번 출구/롯데백화점 동문 아이온시티 옆 건물/노블레스타워4-6층",노블레스성형외과의원,051-806-1101,,1900,0900,1900,0900,1900,0900,1900,0900,2100,0900,1700,0900,,,1700,0900,35.15694120606252,129.05804348292258
"경상북도 구미시 구미중앙로 128, (원평동)",C,0,,아이비성형외과의원,054-452-6680,,1830,1000,1830,1000,1830,1000,,,1830,1000,1600,1000,,,,,36.126661111111112,128.336186111111118
"서울특별시 강남구 봉은사로 108, 5층 (역삼동)",C,0,,메이트성형외과의원,02-508-8800,,1900,1000,1900,1000,1900,1000,1900,1000,1900,1000,1700,1000,,,,,37.50453358040346,127.02559146662152
"서울특별시 은평구 연서로 246, 7층 (불광동)",C,0,,아름다운성형외과의원,02-355-4888,,1900,0930,1900,0930,1900,0930,1900,0930,1900,0930,1600,0930,,,,,37.61906005023267,126.92255525936002
"서울특별시 은평구 은평로 121, 12층 (응암동)",C,0,,엔유성형외과의원,02-359-0120,,1800,1000,1800,1000,1800,1000,1800,1000,1800,1000,,,,,,,37.6004446486,126.9210933403
"서울특별시 서초구 강남대로 605, 14층 (잠원동, 휴먼타워)",C,0,신사역 4번 출구,휴먼성형외과의원,02-515-3003,,1900,1000,1900,1000,1900,1000,1900,1000,2100,1000,1600,1000,,,,,37.5157505032,127.0191614073
"서울특별시 서초구 강남대로 359, 314호 (서초동,대우도씨예빛2차)",C,0,"대우도씨에빛2  314,315호",조각성형외과의원,02-587-2727,,1330,1000,1330,1000,1330,1000,1330,1000,1330,1000,,,,,,,37.49478399775868,127.02859613463616
"서울특별시 서초구 강남대로69길 8, 4층 (서초동, KI타워)",C,0,,조앤신성형외과의원,02-3447-7576,,1900,1000,1900,1000,1900,1000,1900,1000,2100,1000,1700,1000,,,,,37.501845179,127.0246541439
"서울특별시 서초구 서초대로77길 24, 13층 (서초동, 강남 지웰타워2)",C,0,강남역 10번 출구,지디에스성형외과의원,02-573-7515,,1900,1000,1900,1000,1900,1000,1900,1000,1900,1000,1600,1000,,,,,37.500021256,127.0259925257
"서울특별시 서초구 강남대로 557, 성한빌딩 10층 (잠원동)",C,0,,카라멜성형외과의원,02-543-6010,,1900,1000,1900,1000,1900,1000,1900,1000,1900,1000,1600,1000,,,,,37.5115407633,127.020639771
"서울특별시 서초구 강남대로 423, 5층 (서초동, 한승빌딩)",C,0,2호선 강남역 10번출구 200M 도보 한승빌딩 5층,코디성형외과의원,02-536-1005,,1900,1000,1900,1000,1900,1000,2100,1000,1900,1000,1600,1000,,,,,37.50025194235407,127.02586142128216
"서울특별시 서초구 강남대로 483, 301호 (반포동,청호빌딩)",C,0,신논현역 2번출구 청호빌딩 301호,클레이성형외과의원,02-516-1368,,1900,1030,1900,1030,1900,1030,1900,1030,1900,1030,1500,1030,,,,,37.5053268696,127.0236509817
"서울특별시 서초구 강남대로 405, 통영빌딩 15층 1501호 (서초동)",C,0,,키다리성형외과의원,02-541-6500,,1900,1030,1900,1030,1900,1030,1900,1030,1900,1030,1600,1030,,,,,37.4987741072,127.0266932376
서울특별시 서초구 사평대로 371,C,0,,티엔성형외과의원,02-541-0707,,1900,1000,1900,1000,1900,1000,1900,1000,1900,1000,1600,1000,,,,,37.50456093341252,127.02358429411669
"서울특별시 서초구 강남대로 477, 1~2층 (반포동)",C,0,신논현역 2번 출구,페이지성형외과의원,02-549-7782,,2000,1100,2000,1100,2000,1100,2000,1100,2000,1100,1800,1100,,,,,37.5048511234,127.0237277375
"서울특별시 서초구 강남대로 441, 서산빌딩 15층 (서초동)",C,0,,프리티성형외과의원,02-532-7700,,1900,1000,1900,1000,1900,1000,1900,1000,1900,1000,1700,1000,,,,,37.50173692636147,127.025278377503
"서울특별시 서초구 강남대로 605, 세양21세기 휴먼TOWER 4,7층 (잠원동)",C,0,신사역 4번 출구,플라덴성형외과의원,02-900-5555,,1900,1000,1900,1000,1900,1000,2100,1000,1900,1000,1700,1000,,,,,37.5157505032,127.0191614073
"서울특별시 은평구 통일로 857, 5호 (갈현동)",C,0,,로제성형외과의원,02-359-1255,,1900,1000,1900,1000,1900,1000,1900,1000,1900,1000,1600,1000,,,,,37.61961722098482,126.92038894889373
"서울특별시 강남구 선릉로 840, 로데오빌딩 3층 (청담동)",C,0,,재시아성형외과의원,02-3442-1991,,1900,1000,1900,1000,1900,1000,1900,1000,1900,1000,1700,1000,,,,,37.52653707032996,127.04611165195531
경기도 안양시 동안구 시민대로 175,C,0,"동안프라자 4층, 범계역 롯데백화점 건너편 프레베네 건물",아이스크림성형외과의원,031-384-1230,,1830,1000,1830,1000,1830,1000,1830,1000,2100,1400,1400,0900,,,,,37.391273835601645,126.95057426897512
"경기도 안양시 동안구 평촌대로223번길 55, 403`404호 (호계동, 대명빌딩)",C,0,,압구정디에스성형외과의원,031-476-0350,,1900,1000,1900,1000,1900,1000,1900,1000,2000,1000,1600,1000,,,,,37.3902386745,126.9527568928
"세종특별자치시 한누리대로 169, 303호 (나성동, 세종행복타워)",C,0,나성동,강남 더 뷰티 성형외과의원,044-864-8008,,1900,1000,1900,1000,1900,1000,1900,1000,1900,1000,1600,1000,,,,,36.4802362709,127.2618118994
"세종특별자치시 한누리대로 273, 502~503호 (나성동, 새롬시티타워)",C,0,나성동,강남엘성형외과의원,044-863-1412,,2000,1000,1900,1000,1900,1000,1900,1000,2000,1000,1500,1000,,,,,36.4885276832,127.2564829302
"세종특별자치시 한누리대로 245, 401호 (나성동, 에스알파크원)",C,0,나성동,더블유성형외과의원,044-863-6673,,1800,1000,1800,1000,1800,1000,1800,1000,1800,1000,1500,1000,,,,,36.4860703508,127.257680087
강원도 강릉시 경강로 2097  (임당동),C,0,,서울성형외과의원,033-645-0570,,1730,1000,1730,1000,1730,1000,1730,1000,1730,1000,1130,0930,,,,,37.75494718896902,128.89615994749474
강원도 강릉시 경강로 2109,C,0,임당동 문선빌딩4층,이해욱성형외과의원,033-648-4353,,1800,1000,1800,1000,1800,1000,1800,1000,1800,1000,1230,1000,,,,,37.75572473905569,128.8973280091582
"경기도 안양시 동안구 평촌대로223번길 65 (호계동, 범계빌딩 5층)",C,0,,곽앤지성형외과의원,031-385-3114,,1900,1000,1900,1000,1900,1000,1900,1000,1900,1000,1600,1000,,,,,37.39004020129691,126.95216531465874
"강원도 강릉시 경강로 2110, 7층 (임당동, 동아빌딩)",C,0,임당동 동아빌딩7층,최정준성형외과의원,033-643-7033,,1800,0930,1800,0930,1300,0930,1800,0930,1800,0930,1300,0930,,,,,37.755302741646744,128.8976035502616
경기도 안양시 동안구 동안로 120,C,0,,서울성형외과의원,031-388-4222,,1900,1000,1900,1000,1900,1000,1900,1000,1900,1000,1400,1000,,,,,37.38975002759847,126.95225107567033
경기도 안양시 동안구 시민대로 187,C,0,,서정룡성형외과의원,031-386-0515,,1830,0930,1830,0930,1830,0930,1830,0930,1830,0930,1600,0930,,,,,37.39167791808605,126.95157677654107
"경기도 안양시 동안구 평촌대로223번길 59, 502호 (호계동)",C,0,,스페셜성형외과의원,031-385-4450,,1900,1000,1900,1000,1900,1000,1900,1000,1900,1000,1600,1000,,,,,37.39016289997456,126.95253560851726
"경기도 안양시 동안구 동안로 120, 평촌스포츠센타 606,607호 (호계동)",C,0,,연세이원성형외과의원,031-476-0021,,1830,1000,1830,1000,1830,1000,1830,1000,2030,1000,1530,1000,,,,,37.3895609005,126.9522469039
대전광역시 서구 계룡로 633,C,0,국민은행 옆 건물 8층,김재덕성형외과의원,042-472-0001,,1800,0930,1800,0930,1800,0930,,,1800,0930,1600,0930,,,,,36.339032467672794,127.3928641622161
"대전광역시 서구 대덕대로 179, 12층 (둔산동, 엠제이피부과굿모닝어학원빌딩)",C,0,미래여성병원 옆,김재룡성형외과의원,042-477-0011,,1830,1000,1830,1000,1830,1000,1830,1000,1830,1000,1530,1000,,,,,36.3494072998256,127.37683060317046
"대전광역시 서구 대덕대로 202, 경구빌딩 5층 (둔산동)",C,0,,더디자인성형외과의원,042-471-9980,,1900,1000,1900,1000,1900,1000,1900,1000,1900,1000,1530,0930,,,,,36.3508363145,127.378619957
"대전광역시 서구 대덕대로 187, 1,2,3,4층 (둔산동)",C,0,갤러리아 백화점에서 경성큰마을 4거리방향,닥터스미성형외과의원,042-471-1116,,1830,0900,1830,0900,1830,0900,1830,0900,1830,0900,1600,0900,,,,,36.3500588129,127.377127847
"대전광역시 서구 대덕대로 183, 10층 (둔산동)",C,0,,디에스성형외과의원,042-484-1675,,1600,1000,1600,1000,1600,1000,1600,1000,1600,1000,1600,1000,,,,,36.349687970293886,127.37698791931875
"대전광역시 서구 계룡로553번길 72 , 5층(탄방동)",C,0,탄방동 고용센터 옆,리얼진성형외과의원,042-477-8080,,1900,0930,1900,0930,1900,0930,,,1900,0930,1700,0930,,,,,36.3461428429746,127.38543258372954
대전광역시 서구 계룡로 607,C,0,롯데백화점 맞은편,미래성형외과의원,042-524-4720,,1800,1000,1800,1000,1800,1000,1800,1000,1800,1000,1530,1000,,,,,36.34080930645704,127.39073883668254
대전광역시 서구 대덕대로 198,C,0,올리브영 건물 6층,미엘성형외과의원,042-489-0099,,1900,0930,1900,0930,1900,0930,1900,0930,1900,0930,1500,0900,,,,,36.3505635645243,127.3783681766379
"서울특별시 강남구 강남대로 590, 5층 (논현동)",C,0,,물방울성형외과의원,02-511-7333,,1900,1000,1900,1000,1900,1000,1900,1000,1900,1000,1600,1000,,,,,37.5145357425,127.0204007993
"서울특별시 강남구 도산대로 104 (논현동, 2,3,4층)",C,0,3호선 신사역 2번출구 5M 직진 후 바로 우측건물,에스프로포즈성형외과의원,02-548-8836,,1900,1000,1900,1000,1900,1000,1900,1000,1900,1000,1600,1000,,,,,37.5160782711,127.0203424
"서울특별시 강남구 도산대로 318, SB TOWER 5층 (논현동)",C,0,,청담뉴라인성형외과의원,02-546-0101,,1900,1000,1900,1000,1900,1000,1900,1000,1900,1000,1700,1000,,,,,37.52186238480001,127.0366381506
대전광역시 서구 둔산로 34 (둔산동) ,C,0,씨엔씨타워,갤러리성형외과,042-489-3377,,1900,0930,1900,0930,1900,0930,1900,0930,1900,0930,1700,0930,,,,,36.35138409817634,127.37752192827875
대구광역시 중구 달구벌대로 2126 (봉산동),C,0,,자연미인성형외과의원,053-428-3222,,1900,1000,1900,1000,1900,1000,1900,1000,1900,1000,1700,1000,,,,,35.86467714327005,128.59601565526708
"대전광역시 동구 동서대로1695번길 4, 8층 (용전동, 에이치타워)",C,0,복합터미널점 선샤인호텔 맞은편 코너건물,닥터스미성형외과의원,042-334-1116,,1830,0900,1830,0900,1830,0900,1830,0900,1830,0900,1600,0900,,,,,36.34992666022318,127.43806453195677
"경기도 성남시 중원구 산성대로 250-1, 4층 (중앙동)",C,0,"신흥역 종합상가 13번 출구, 신흥사거리",서울씨에스성형외과의원,031-745-0029,,1900,1000,1900,1000,1900,1000,1900,1000,1900,1000,1600,1000,,,,,37.4396209596695,127.145447382565
"충청남도 아산시 충무로 4, 3층 (온천동)",C,0,우리은행 맞은편 돼지약국3층,박종필성형외과의원,041-547-3375,,1830,0930,1830,0930,1830,0930,1830,0930,1830,0930,1300,0900,,,,,36.78161895391416,127.00444966209284
서울특별시 강남구 압구정로28길 42,C,0,,압구정비제이성형외과의원,02-518-8700,,1900,1000,1900,1000,1900,1000,1900,1000,2100,1000,1600,1000,,,,,37.52379822816801,127.027454295591
서울특별시 강남구 학동로 342  (논현동),C,0,,아이라인성형외과의원,02-540-8666,,1900,1000,1900,1000,1900,1400,1900,1000,1900,1000,1600,1000,,,,,37.51675051104845,127.04085709882409
경기도 광주시 통미로 34  (경안동),C,0,,김응구성형외과의원,031-766-6553,,1800,1030,1800,1030,1800,1030,1800,1030,1800,1030,,,,,,,37.414751538,127.2565033155
"강원도 원주시 서원대로 184, 4층 (단계동)",C,0,고속버스터미널 맞은편 4층,우리들성형외과의원,033-731-9551,,1900,1000,1900,1000,1900,1000,1900,1000,1900,1000,1500,1000,,,,,37.34376596941448,127.93170111476236
"강원도 원주시 남원로534번길 6 (단구동, 이룸빌딩)",C,0,GS슈퍼 옆,청담심스성형외과의원,033-763-6688,,1800,0900,1800,0900,1800,0900,1800,0900,1800,0900,1500,0900,,,,,37.33128349618689,127.94744954286975
"강원도 원주시 서원대로 396, 3층 301호 (단구동)",C,0,롯데시네마 3층,최동익성형외과의원,033-744-3737,,1830,0930,1830,0930,1830,0930,1830,0930,1830,0930,1500,0930,,,,,37.330927777777781,127.948794444444445
강원도 원주시 남원로 622,C,0,대성현대아파트 인근,최해천성형외과의원,033-765-7575,,1800,1000,1800,1000,1800,1000,1800,1000,1800,1000,1200,1000,,,,,37.33858815488345,127.95201872398877
"서울특별시 송파구 백제고분로7길 14, 2,4층 (잠실동, 태원빌딩)",C,0,,라미체성형외과의원,02-425-7070,,1900,1000,1900,1000,1900,1000,2100,1000,1900,1000,1600,1000,,,,,37.51027537,127.0804765495
"강원도 원주시 서원대로 156, 5층 (단계동)",C,0,,박현민성형외과의원,033-742-7773,,1900,1000,1900,1000,1900,1000,1900,1000,2000,1000,1700,1000,,,,,37.3440978196,127.9289155276
강원도 원주시 감영길 11,C,0,강원감영 뒤,백태준성형외과의원,033-735-7575,,1800,1000,1800,1000,1800,1000,1800,1000,1800,1000,1500,1000,,,,,37.34740061921725,127.95012549264746
서울특별시 강남구 논현로 839 (신사동) ,C,0,"규명빌딩 2, 5층일부층, 압구정역 4번 직진, 도보 100m 거리 우측",워너비성형외과의원,02-541-8855,,1900,1000,1900,1000,1900,1000,1900,1000,1900,1000,1700,1000,,,,,37.52365235147157,127.02794195212829
"서울특별시 강남구 도산대로 423, 2,3층 (청담동)",C,0,,더클래스앤미자인성형외과의원,1599-3008,,1830,0930,1830,0930,1830,0930,1830,0930,1830,0930,1600,0930,,,,,37.5239436495,127.0421913799
"서울특별시 강남구 테헤란로 105, 4,14층 (역삼동)",C,0,강남역 12번 출구,에이탑성형외과의원,02-555-0410,,1900,1000,1900,1000,1900,1000,2100,1300,1900,1000,1700,1000,,,,,37.498636725,127.0285297307
"서울특별시 강남구 논현로 841, 401호 (신사동)",C,0,401호,한미성형외과의원,02-516-8001,,1830,1000,1830,1000,1830,1000,1830,1000,1830,1000,1400,1030,,,,,37.52405037209502,127.0280607328791
"서울특별시 강남구 강남대로 470, 808타워 7층 (역삼동)",C,0,,클래시성형외과의원,02-545-2115,,1900,1000,1900,1000,1900,1000,1900,1000,1900,1000,1700,1000,,,,,37.50434628668871,127.02505306490275
"서울특별시 송파구 올림픽로 100 (잠실동, 3층)",C,0,,지인성형외과의원,02-425-1888,,1900,1000,1900,1000,1900,1000,1900,1000,1900,1000,1600,1000,,,,,37.5114170101962,127.0816902803217
대구광역시 중구 동성로 17 (동성로2가),C,0,,브이성형외과의원,053-431-0311,,1900,0900,2030,0900,1900,0900,1900,0900,2030,0900,1700,0900,,,,,35.86860480301681,128.5945673355763
"서울특별시 강남구 봉은사로 331, SH타워 5층 (논현동)",C,0,선정릉역 1번 출구,하트성형외과의원,02-555-5252,,1900,1100,1900,1100,1900,1100,,,1900,1100,1700,1100,,,,,37.5102805523,127.0429708999
"전라북도 익산시 무왕로11길 18-1, (영등동)",C,0,롯데마트와 홈플러스사이,조성배성형외과의원,063-834-3003,,1830,0900,1830,0900,1830,0900,1830,0900,1830,0900,1230,0900,,,,,35.95872434992154,126.97305641313573
전라북도 익산시 무왕로 1030  (영등동),C,0,홈플러스 맞은편,유병표성형외과의원,063-836-6800,,1830,0900,1830,0900,1830,0900,1830,0900,1830,0900,1300,0900,,,,,35.95803069729983,126.97114367352526
전라북도 익산시 중앙로1길 12 (중앙동1가),C,0,제일은행건물 3층,이정재성형외과의원,063-856-7800,,1830,0900,1830,0900,1830,0900,1300,0900,1830,0900,1300,0900,,,,,35.94040139288584,126.94871747342995
"경기도 평택시 비전5로 7, 중앙프라자 4층 (비전동)",C,0,,청담비전성형외과의원,031-651-3010,,2100,1000,2100,1000,2100,1000,2100,1000,2100,1000,1700,1000,,,,,37.0000104118,127.1122369616
"서울특별시 성북구 도봉로 33, (길음동)",C,0,,이민녕성형외과의원,02-980-6633,,1800,0900,1800,0900,1800,0900,1800,0900,1800,0900,1600,0900,,,,,37.61217288551843,127.0299412398442
"서울특별시 성북구 보문로 165, 2층,3층,4층 (삼선동5가)",C,0,성북구청 맞은편,임태균성형외과의원,02-929-3331,,1830,1000,1830,1000,1830,1000,1830,1000,1830,1000,,,,,,,37.58896603893813,127.01627711602276
"서울특별시 성북구 동소문로 125, 골든타워 3층 (동선동4가)",C,0,,준성형외과의원,02-929-7357,,1830,1000,1830,1000,1830,1000,1830,1000,1830,1000,1500,1000,,,,,37.5941554733,127.0182167566
"서울특별시 강남구 삼성로 715, 5층 (청담동, 재동빌딩)",C,0,,엘성형외과의원,02-545-5200,,1900,1100,1900,1100,1900,1100,1900,1100,1900,1100,1400,1100,,,,,37.51965928704298,127.04940597725428
서울특별시 성북구 아리랑로 9 (동소문동6가),C,0,성신여대입구역 5번출구,메이저성형외과의원,02-922-7575,,2100,1000,1930,1000,1930,1000,1930,1000,2100,1000,1630,1000,,,,,37.59374222897869,127.0159833975997
"서울특별시 양천구 목동로 203, 5층 (신정동, 로데오빌딩)",C,0,,트로이성형외과의원,18008630,,1900,1000,1900,1000,1900,1000,1900,1000,1900,1000,1600,1000,,,,,37.526705408,126.863805181
"부산광역시 부산진구 황령대로 12, 지하1, 지상2~3층 (범천동)",B,0,"1호선 범내골역 6출구 앞 100m 방향 
",케이성형외과병원,0516381004,,1800,0900,1800,0900,1800,0900,1800,0900,1800,0900,1500,0900,,,,,35.14750359549201,129.06122689101528
서울특별시 양천구 중앙로 277 (신정동),C,0,신정네거리역 2번출구 ,김동주성형외과의원,02-2608-1484,,1830,1000,1830,1000,1830,1000,1830,1000,1830,1000,1600,1000,,,,,37.52092865365394,126.8522094763917
"서울특별시 강남구 강남대로 596, 극동빌딩 5층 (논현동)",C,0,,리앤리성형외과의원,02-540-2022,,1900,1000,1900,1000,1900,1000,1900,1000,2100,1000,1700,1000,,,,,37.51502229316781,127.02035116231144
"서울특별시 용산구 한강대로 69, 업무동 7층 701-7호 (한강로2가, 용산푸르지오써밋)",C,0,,모차르트성형외과의원,02-797-7707,,1900,1000,2100,1000,1900,1000,1900,1000,2100,1000,1600,1000,,,,,37.5270418114,126.964893365
"서울특별시 강남구 논현로 843, EGI빌딩 3층 (신사동)",C,0,,라이트성형외과의원,02-543-0300,,1900,1000,1900,1000,1900,1000,1900,1000,1900,1000,1600,1000,,,,,37.5243947699,127.0279739044
"광주광역시 북구 동문대로 152, 6층 (두암동, 동강빌딩)",C,0,,샤인성형외과의원,062-261-3050,,1800,0900,1800,0900,1800,0900,1800,0900,1800,0900,,,,,,,35.175994444444441,126.928011111111104
"충청북도 청주시 흥덕구 대농로 47, 4층 (복대동)",C,0,,티포인트성형외과의원,043-231-9008,,1900,1000,1900,1000,1900,1000,1900,1000,1900,1000,1500,1000,,,,,36.64233769236793,127.42761540358215
"서울특별시 강남구 강남대로 390, 401호 (역삼동, 미진프라자)",C,0,강남역 1번 출구,신현태성형외과의원,02-3469-1235,,1800,0930,1800,0930,1800,0930,1800,0930,1800,0930,1300,0930,,,,,37.4978402234,127.0285791857
경기도 수원시 영통구 봉영로 1606,C,0,,명성형외과의원,031-273-9200,,1830,1000,1830,1000,1830,1000,1830,1000,1830,1000,1300,1000,,,,,37.254057645187316,127.07452360286308
"경기도 수원시 영통구 중부대로 288, 3층 (매탄동, 홍신빌딩)",C,0,,미드림성형외과의원,031-214-5114,,1830,1000,1830,1000,1300,1000,1830,1000,1830,1000,1400,1000,,,,,37.273436111111110,127.046947222222215
"광주광역시 광산구 임방울대로 348, 402호 (수완동)",C,0,,하얀성형외과의원,062-716-8582,,1900,1400,1900,0930,1900,0930,1900,0930,1900,0930,1330,0930,,,,,35.1910775791,126.8243830633
경기도 수원시 팔달구 권광로 191,C,0,,압구정집성형외과의원,031-239-7766,,1900,1000,1900,1000,1900,1000,1900,1000,1900,1000,1600,1000,,,,,37.26463260453245,127.03261863119504
"서울특별시 강남구 도산대로 110 (논현동, 2층 전체)",C,0,신사역 1번출구,리본성형외과의원,02-3443-2266,,1900,1000,2100,1000,1900,1000,1900,1000,2100,1000,1600,1000,,,,,37.516279977,127.0210211398
"서울특별시 강남구 논현로 841 , 509호 510호 (신사동)",C,0,"압구정역 4번 출구 도보 4분, JB미소빌딩 5층",엘르성형외과의원,02-3446-7377,,1900,1000,1900,1000,1900,1000,1900,1000,1900,1000,1600,1000,,,,,37.5240632171,127.0279059051
"서울특별시 강남구 봉은사로 215, KTS빌딩 2층 3층일부층 (논현동)",C,0,언주역 4번 출구,에버성형외과의원,02-3448-0088,,1900,1000,1900,1000,1900,1000,1900,1000,1900,1000,1500,1000,,,,,37.5080881673,127.0355637363
"서울특별시 강남구 봉은사로 108, 6층 (역삼동)",C,0,신논현역 4번출구,넥스트성형외과의원,02-2052-1011,,1900,1000,1900,1000,1900,1000,1900,1000,2000,1000,1600,1000,,,,,37.5045335804,127.0255914666
"서울특별시 강남구 강남대로 476 (논현동, 7층)",C,0,신논현역 3번 출구,바탕성형외과의원,02-517-5953,,1900,1000,1900,1000,1900,1000,1900,1000,1900,1000,1700,1000,,,,,37.5049085694,127.0247908677
"서울특별시 강남구 강남대로 402, 시계탑빌딩 7층 (역삼동)",C,0,,비유성형외과의원,02-565-5010,,1900,1000,1900,1000,1900,1000,1900,1000,1900,1000,1600,1000,,,,,37.4987774492,127.02782864
"서울특별시 강남구 도산대로 406, 청담퍼스트타워 3층 (청담동)",C,0,,비포성형외과의원,02-3446-7200,,1900,1000,1900,1000,1900,1000,1900,1000,1900,1000,1600,1000,,,,,37.5229747697,127.0404803952
서울특별시 강남구 압구정로30길 53,C,0,성지빌딩 4-5층/압구정역 3번출구,하나성형외과의원,02-541-7225,,1800,1000,1800,1000,1800,1000,1800,1000,1800,1000,1300,1000,,,,,37.523787019771056,127.02920093558434
"서울특별시 강남구 압구정로 168 (신사동, 지하1층일부, 1층, 2층)",C,0,,제림성형외과의원,02-515-8787,,1900,0930,1900,0930,1900,0930,1900,0930,1900,0930,1600,0930,,,,,37.526625649002966,127.02798378782412
"서울특별시 강남구 도산대로 107, 2층, 3층, 4층 / 도산대로1길 7, 2층, 3층, 4층 (신사동)",C,0,,비아이오성형외과의원,02-535-9000,,1800,0930,1800,0930,1800,0930,1800,0930,1800,0930,1500,0930,,,,,37.5167810941,127.0201073117
"서울특별시 강남구 학동로6길 42, 3층 4층 5층일부 (논현동)",C,0,,어제오늘와이앤티성형외과의원,02-543-0015,,1900,1000,1900,1000,1900,1000,1900,1000,1900,1000,1700,1000,,,,,37.50986731990001,127.02654336529999
"서울특별시 강남구 논현로168길 35 (신사동, 목산빌딩 지하1층일부(북측))",C,0,,아이미김성민성형외과의원,02-549-8900,,1900,1000,2000,1000,1900,1000,1900,1000,1900,1000,1600,1000,,,,,37.5234641249,127.0312089327
서울특별시 강남구 봉은사로 524 (삼성동) ,C,0,코엑스인터콘티넨탈서울 지하아케이드,고병천성형외과의원,02-512-5995,,1900,1000,1900,1000,1900,1000,1900,1000,1900,1000,1600,1000,,,,,37.5129451363,127.0571155943
"서울특별시 강남구 테헤란로 101, 7층 (역삼동)",C,0,,연세헤어성형외과의원,02-556-5858,,1830,1000,1830,1000,1830,1000,1830,1000,1830,1000,1600,1000,,,,,37.4986224205,127.0280638046
"대구광역시 중구 동성로3길 99, 2,3층 (공평동)",C,0,,요셉성형외과의원,053-431-3388,,1830,0930,1830,0930,1830,0930,,,1830,0930,1700,0930,,,,,35.86981924149223,128.5983065012631
광주광역시 서구 죽봉대로 76  (농성동),C,0,,메디필성형외과의원,062-352-5252,,1830,0930,1830,0930,1830,0930,1830,0930,1830,0930,1500,0930,,,,,35.16006877223086,126.88378645195482
서울특별시 강남구 도산대로 113,C,0,3호선 신사역 8번출구,아이오유성형외과의원,02-549-0354,,1900,0930,1900,0930,1900,0930,1900,0930,1900,0930,1700,0930,,,,,37.51701319382603,127.0208505921261
"서울특별시 강남구 압구정로 162, 5층 505,506호 (신사동, 베네하임시티)",C,0,압구정역 5번 출구,엄익태성형외과의원,02-549-6962,,1800,1000,1800,1000,1800,1000,1800,1000,1800,1000,,,,,,,37.5263086174,127.0274677997
"부산광역시 부산진구 서면로 57, 3,4층 (부전동)",C,0,"1,2호선 서면역 7번출구",리안성형외과의원,051-816-3071,,1830,1000,1830,1000,1830,1000,1830,1000,1830,1000,1630,1000,,,,,35.15579134627274,129.05756571173083
서울특별시 강남구 논현로 804 (신사동) ,C,0,압구정역 근처/,예스성형외과의원,02-3482-8500,,1800,1030,1800,1030,1800,1030,1800,1030,1800,1030,1500,1030,,,,,37.520491517583984,127.02842945411576
"서울특별시 강남구 언주로 846, 8층 (신사동, 글로벌메디컬빌딩)",C,0,,글로벌성형외과의원,02-514-1133,,1900,1000,1900,1000,1900,1000,1900,1000,1900,1000,1500,1000,,,,,37.525933992562805,127.03366600737436
"부산광역시 부산진구 서면로 51, 4,5,6,7층 (부전동)",C,0,"버스정류장: 서면1번가/1,2호선 서면역 7번출구",BS더바디성형외과의원,051-818-9300,,1900,0900,2100,0900,1900,0900,1900,0900,1900,0900,1700,0900,,,,,35.1554128706907,129.0575649566982
서울특별시 강남구 논현로175길 17,C,0,동인빌딩 3층,마루성형외과의원,02-557-7373,,1900,1000,1900,1000,1900,1000,1900,1000,1900,1000,1700,1000,,,,,37.52580208750665,127.02724230931005
"서울특별시 강남구 도산대로 134, 10층 (논현동)",C,0,,순수성형외과의원,02-540-6601,,1900,1000,1900,1000,1900,1000,1900,1000,1900,1000,1600,1000,,,,,37.5173535301,127.0233787743
대구광역시 중구 동성로6길 2-26,C,0,,가가성형외과의원,053-427-8877,,1900,1000,1900,1000,1900,1000,1900,1000,1900,1000,1700,1000,,,,,35.86814879517038,128.5952490443417
"서울특별시 강남구 삼성로134길 8, 2층,3층 (청담동)",C,0,청담역 9번 출구,레아트성형외과의원,02-549-2080,,1900,1000,1900,1000,1900,1000,1900,1000,1900,1000,1600,1000,,,,,37.5200733586,127.0503293086
"부산광역시 부산진구 서면로 74, 4층 (부전동, 아이온시티빌딩)",C,0,"1,2호선 서면역 7번출구/아이온시티빌딩 4층",갤럭시성형외과의원,051-715-1237,,1900,1000,1900,1000,1900,1000,1900,1000,1900,1000,1600,1000,,,,,35.157216288534215,129.058137085412
"서울특별시 강남구 강남대로 616, 12층 (신사동, 신사미타워)",C,0,신사역 6번 출구,글로리성형외과의원,02-513-9522,,1900,1000,1900,1000,1900,1000,1900,1000,1900,1000,1600,1000,,,,,37.5168568304,127.019799659
"경기도 수원시 팔달구 향교로 161, 4층 (중동, 우림빌딩)",C,0,,이지동안성형외과의원,031-207-7575,,1930,0930,1930,0930,1930,0930,1930,0930,1930,0930,1400,0930,,,,,37.27497607287171,127.01600335180095
서울특별시 강남구 압구정로28길 40  (신사동),C,0,수협은행 골목으로 들어가다가 우측,더원성형외과의원,02-512-3452,,1830,1000,1830,1000,1830,1000,1830,1000,1830,1000,1630,1000,,,,,37.52393877346158,127.02749959417557
"서울특별시 강남구 압구정로30길 23 (신사동, 미승빌딩 601호,602호,603호)",C,0,,리드성형외과의원,1599-7533,,1900,1000,1900,1000,1900,1000,1900,1000,1900,1000,1600,1000,,,,,37.52589006358959,127.02949491233391
서울특별시 강남구 압구정로28길 25,C,0,"압구정역 4번 출구,  도보 4분",미소라인성형외과의원,02-548-0039,,1900,1000,1900,1000,1900,1000,1900,1000,1900,1000,1600,1000,,,,,37.52483248237201,127.02785285777938
"부산광역시 부산진구 부전로66번길 38, 2,3,4,5층 (부전동)",C,0,"1,2호선 서면역 7번출구",밸런스성형외과의원,051-809-9677,,1900,1000,1900,1000,1900,1000,1900,1000,1900,1000,1700,1000,,,,,35.15580416422914,129.05681110849451
제주특별자치도 제주시 도령로 1 5층 (노형동),C,0,<노형오거리 북동측 서울내과 건물>,김영석성형외과의원,064-711-7533,,1800,0930,1800,0930,1800,1400,1800,0930,1800,0930,1230,0930,,,,,33.48684119459767,126.47938216061993
"서울특별시 강남구 논현로 848 (신사동, 2층,5층,6층,7층,10층일부)",C,0,압구정역 3번출구 근처/,드림성형외과의원,02-546-1616,,1900,0930,1900,0930,1900,0930,1900,0930,1900,0930,1700,0930,,,,,37.5245747625,127.0288382596
"광주광역시 서구 상무중앙로 46, 3층 (치평동)",C,0,,이혜미성형외과의원,062-381-8001,,1830,0930,1830,0930,1830,0930,1830,0930,1830,0930,1330,0930,,,,,35.1510579946,126.8489334775
서울특별시 성북구 아리랑로 9 (동소문동6가),C,0,성신여대입구역 5번출구,메이저성형외과의원,02-922-7575,,2100,1000,1930,1000,1930,1000,1930,1000,2100,1000,1630,1000,,,,,37.59374222897869,127.0159833975997
"서울특별시 강남구 강남대로 596, 극동빌딩 5층 (논현동)",C,0,,리앤리성형외과의원,02-540-2022,,1900,1000,1900,1000,1900,1000,1900,1000,2100,1000,1700,1000,,,,,37.51502229316781,127.02035116231144
"서울특별시 성북구 도봉로 33, (길음동)",C,0,,이민녕성형외과의원,02-980-6633,,1800,0900,1800,0900,1800,0900,1800,0900,1800,0900,1600,0900,,,,,37.61217288551843,127.0299412398442
"서울특별시 성북구 보문로 165, 2층,3층,4층 (삼선동5가)",C,0,성북구청 맞은편,임태균성형외과의원,02-929-3331,,1830,1000,1830,1000,1830,1000,1830,1000,1830,1000,,,,,,,37.58896603893813,127.01627711602276
"서울특별시 성북구 동소문로 125, 골든타워 3층 (동선동4가)",C,0,,준성형외과의원,02-929-7357,,1830,1000,1830,1000,1830,1000,1830,1000,1830,1000,1500,1000,,,,,37.5941554733,127.0182167566
"서울특별시 강남구 삼성로 715, 5층 (청담동, 재동빌딩)",C,0,,엘성형외과의원,02-545-5200,,1900,1100,1900,1100,1900,1100,1900,1100,1900,1100,1400,1100,,,,,37.51965928704298,127.04940597725428
"서울특별시 강남구 논현로 843, EGI빌딩 3층 (신사동)",C,0,,라이트성형외과의원,02-543-0300,,1900,1000,1900,1000,1900,1000,1900,1000,1900,1000,1600,1000,,,,,37.5243947699,127.0279739044
"서울특별시 양천구 목동로 203, 5층 (신정동, 로데오빌딩)",C,0,,트로이성형외과의원,18008630,,1900,1000,1900,1000,1900,1000,1900,1000,1900,1000,1600,1000,,,,,37.526705408,126.863805181
"부산광역시 부산진구 황령대로 12, 지하1, 지상2~3층 (범천동)",B,0,"1호선 범내골역 6출구 앞 100m 방향 
",케이성형외과병원,0516381004,,1800,0900,1800,0900,1800,0900,1800,0900,1800,0900,1500,0900,,,,,35.14750359549201,129.06122689101528
서울특별시 양천구 중앙로 277 (신정동),C,0,신정네거리역 2번출구 ,김동주성형외과의원,02-2608-1484,,1830,1000,1830,1000,1830,1000,1830,1000,1830,1000,1600,1000,,,,,37.52092865365394,126.8522094763917
"서울특별시 용산구 한강대로 69, 업무동 7층 701-7호 (한강로2가, 용산푸르지오써밋)",C,0,,모차르트성형외과의원,02-797-7707,,1900,1000,2100,1000,1900,1000,1900,1000,2100,1000,1600,1000,,,,,37.5270418114,126.964893365
"충청북도 청주시 흥덕구 대농로 47, 4층 (복대동)",C,0,,티포인트성형외과의원,043-231-9008,,1900,1000,1900,1000,1900,1000,1900,1000,1900,1000,1500,1000,,,,,36.64233769236793,127.42761540358215
"광주광역시 북구 동문대로 152, 6층 (두암동, 동강빌딩)",C,0,,샤인성형외과의원,062-261-3050,,1800,0900,1800,0900,1800,0900,1800,0900,1800,0900,,,,,,,35.175994444444441,126.928011111111104
경기도 수원시 영통구 봉영로 1606,C,0,,명성형외과의원,031-273-9200,,1830,1000,1830,1000,1830,1000,1830,1000,1830,1000,1300,1000,,,,,37.254057645187316,127.07452360286308
"경기도 수원시 영통구 중부대로 288, 3층 (매탄동, 홍신빌딩)",C,0,,미드림성형외과의원,031-214-5114,,1830,1000,1830,1000,1300,1000,1830,1000,1830,1000,1400,1000,,,,,37.273436111111110,127.046947222222215
"서울특별시 강남구 강남대로 390, 401호 (역삼동, 미진프라자)",C,0,강남역 1번 출구,신현태성형외과의원,02-3469-1235,,1800,0930,1800,0930,1800,0930,1800,0930,1800,0930,1300,0930,,,,,37.4978402234,127.0285791857
"광주광역시 광산구 임방울대로 348, 402호 (수완동)",C,0,,하얀성형외과의원,062-716-8582,,1900,1400,1900,0930,1900,0930,1900,0930,1900,0930,1330,0930,,,,,35.1910775791,126.8243830633
"서울특별시 중구 명동8길 40, 3층 (충무로1가)",C,0,명동역6번출구,노정식성형외과의원,02-778-7933,,1900,1000,1900,1000,1900,1000,1900,1000,2000,1000,1400,1000,,,,,37.56178137053265,126.98478370633653
"대구광역시 중구 달구벌대로 2094, 8층 (남산동)",C,0,,앙뜨레21성형외과의원,053-254-0021,,1900,1000,1900,1000,1900,1000,1900,1000,1900,1000,1700,1000,,,,,35.8653063535,128.5926051868
"서울특별시 강남구 논현로168길 35, 목산빌딩 지하1층 (신사동)",C,0,,아이미성형외과의원,02-549-0652,,1900,1030,1900,1030,1900,1030,1900,1030,1900,1030,1600,1030,,,,,37.52346412486209,127.03120893266026
"서울특별시 강남구 논현로 816, 베스콘빌딩 5층 (신사동)",C,0,압구정역 3번출구에서 강남을지병원 방향,에스티성형외과의원,02-517-0015,,1900,1000,1900,1000,1900,1000,1900,1000,1900,1000,1600,1000,,,,,37.521302396117484,127.02852930892905
"서울특별시 강남구 도산대로 108, 12, 13층 (논현동, 렉스타워)",C,0,,티에스성형외과의원,02-512-7580,,1900,0930,1900,0930,1900,0930,1900,0930,1900,0930,1700,0930,,,,,37.51619354533294,127.02065462602883
"서울특별시 강남구 강남대로 596, 8층 (논현동, 극동빌딩)",C,0,신사역 3번 출구,아이루미성형외과의원,02-534-6888,,1900,1000,1900,1000,1900,1000,1900,1000,2100,1000,1600,1000,,,,,37.51502229316781,127.02035116231144
충청북도 청주시 흥덕구 2순환로 1240,C,0,902호,아이에스성형외과의원,043-237-1500,,1800,0930,1800,0930,1800,0930,2100,0930,1800,0930,1400,0930,,,,,36.62550202870827,127.43008711970558
"서울특별시 강남구 압구정로 436, 7층 (청담동, 상원빌딩)",C,0,,청담퍼스트성형외과의원,02-547-1888,,1900,1000,1900,1000,1900,1000,1900,1000,1900,1000,1600,1000,,,,,37.5265340382,127.0446228638
"서울특별시 강남구 언주로172길 11, 4층 (신사동)",C,0,4층,케이스성형외과의원,02-541-7533,,1800,1000,1800,1000,1800,1000,1800,1000,1800,1000,1430,1000,,,,,37.52795537641731,127.03480924306254
서울특별시 동대문구 천호대로 425,C,0,,도도성형외과의원,02-2213-3377,,1900,1000,1900,1000,1900,1000,1900,1000,1900,1000,1500,1000,,,,,37.56152044337853,127.06634298861974
"서울특별시 강남구 강남대로 548 (논현동, 건우빌딩 6층일부,7층일부)",C,0,논현역 1번출구,4월31일성형외과의원,02-540-6777,,1900,0900,1900,0900,1900,0900,1900,0900,1900,0900,1600,0900,,,,,37.5110359761,127.0218883252
"경상남도 진주시 남강로 702-1, (장대동)",C,0,,현대성형외과의원,055-741-1421,,1800,0900,1800,0900,1800,0900,1800,0900,1800,0900,1300,0900,,,,,35.1913610026,128.0884329961
부산광역시 부산진구 가야대로 781-1 (부전동),C,0,"1,2호선 서면역 9번 출구 ",뉴웰성형외과의원,051-912-5827,,1900,1000,1900,1000,1900,1000,1900,1000,1900,1000,1700,1000,,,,,35.158023035754724,129.05711716728413
"경기도 수원시 팔달구 권광로 175, 3층 일부호 (인계동, 육성건설빌딩)",C,0,,청담라인성형외과의원,070-4231-0218,,1900,1000,2000,1000,1900,1000,2000,1000,1900,1000,1600,1000,,,,,37.2632270134,127.032039179
부산광역시 중구 구덕로 83  (남포동6가),C,0,1호선 자갈치역 8번출구,최상호성형외과의원,051-246-6661,,1700,1000,1700,1000,1700,1000,1700,1000,1700,1000,,,,,,,35.097195942342914,129.02685965573943
서울특별시 강남구 논현로 865  (신사동),C,0,"압구역 4번출구, 도보 3분",예진성형외과의원,02-514-9700,,1900,1000,1900,1000,1900,1000,1900,1000,1900,1000,1600,1000,,,,,37.525940840140066,127.02818263864751
서울특별시 강남구 압구정로 338 (신사동),C,0,,대영성형외과의원,02-3446-7788,,1900,1000,1900,1000,1900,1000,1900,1000,1900,1000,1700,1000,,,,,37.52793971940031,127.03895435123643
"대구광역시 중구 동성로 25, 6층 (사일동)",C,0,,리더스성형외과의원,053-423-3322,,1900,0900,1900,0900,1900,0900,1900,0900,1900,0900,1600,1000,,,,,35.86922785569752,128.5951510862065
"서울특별시 강남구 강남대로 476, 5층 (논현동, urbanhive)",C,0,어반하이브 3층,시너지성형외과의원,1577-3153,,1900,1000,1900,1000,1900,1000,1900,1000,1900,1000,1500,1000,,,,,37.50490856937278,127.02479086770353
서울특별시 강남구 테헤란로 105,C,0,강남역 근처/강남A타워 9층,쿠키성형외과의원,02-562-8500,,1900,1000,1900,1000,1900,1000,1900,1000,2100,1000,1600,1000,,,,,37.49863493892567,127.02853122217101
"서울특별시 강남구 도산대로 335, 3,4층 (신사동, J MEDI TOWER 3,4층)",C,0,,제이드성형외과의원,02-3442-7900,,1830,1000,1830,1000,1830,1000,1830,1000,1830,1000,1530,1000,,,,,37.52339349154688,127.03851677288239
"경기도 평택시 평택5로20번길 38, 3층, 5층 (합정동)",C,0,,강남재준성형외과의원,031-647-3119,,1800,0900,1800,0900,1800,0900,1800,0900,1800,0900,1300,0900,,,,,36.98995635978939,127.11388916455985
"서울특별시 강남구 도산대로 122, 8층 (논현동, 에메랄드타워)",C,0,"에메랄드 빌딩 8,9층",미드림성형외과의원,02-515-0022,,1800,1000,1800,1000,1800,1000,1800,1000,1800,1000,1500,1000,,,,,37.516797222222223,127.022047222222227
부산광역시 부산진구 서면문화로 2 (부전동),C,0,"1,2호선 서면역 9번출구",아이리스성형외과의원,051-809-0021,,1800,1000,1800,1000,1800,1000,1800,1000,1800,1000,1430,1000,,,,,35.15800032500964,129.05802955370314
"서울특별시 강남구 논현로167길 9, 낙산프라자 5층층 (신사동)",C,0,,고고성형외과의원,02-546-2500,,1900,1000,1900,1000,1900,1000,1900,1000,1900,1000,1700,1000,,,,,37.52442012640001,127.0274263818
"서울특별시 강남구 강남대로 492, 14층 (논현동)",C,0,신논현역 3번 출구,리앤성형외과의원,02-2088-2940,,1900,1000,1900,1000,1900,1000,1900,1000,1900,1000,1700,1000,,,,,37.5062061573,127.0241127029
제주특별자치도 제주시 일주서로 7870,C,0,,전신권성형외과의원,064-743-9971,,1700,1000,1700,1000,1700,1000,1700,1000,1700,1000,1200,1000,,,,,33.49353598790491,126.48748564055539
부산광역시 사하구 낙동대로 218  (괴정동),C,0,괴정역 4번 출구 ,이광호성형외과의원,051-208-2888,,1830,1030,1830,1030,1830,1030,1830,1030,1830,1030,1530,1030,,,,,35.100327729510525,128.99296643366534
"서울특별시 마포구 신촌로 180, 3층 (대흥동)",C,0,이대역 6번 출구,홍승현성형외과의원,02-706-0667,,1830,1000,1830,1000,1830,1000,1830,1000,1830,1000,1600,1000,,,,,37.5565079478,126.945485886
"서울특별시 강남구 선릉로158길 10, 3층(청담동)",C,0,압구정로데오역 4번 출구,브이라인성형외과의원,02-518-7755,,1830,1000,1830,1000,1830,1000,1830,1000,1830,1000,,,,,,,37.52543257904481,127.04084373277256
"서울특별시 강남구 논현로 819, 명광빌딩 4층 (신사동)",C,0,,아이니크성형외과의원,02-547-0123,,1900,0930,1900,0930,1900,0930,1900,0930,1900,0930,1700,0930,,,,,37.52163051777323,127.02787332477232
"서울특별시 강남구 도산대로 104 (논현동, 1st Avenue 5,6층)",C,0,신사역 2번출구,웰성형외과의원,02-518-0600,,1900,1000,1900,1000,1900,1000,1900,1000,1900,1000,1700,1000,,,,,37.516078271052414,127.02034239995652
"광주광역시 서구 상무중앙로 9, 7층 701호 (치평동, 동양빌딩)",C,0,세정아울렛인근 동양빌딩6층,압구정앤성형외과의원,062-385-7185,,1900,1000,1900,1000,1900,1000,1900,1000,1900,1000,1500,0900,,,,,35.14764751456676,126.84782279277789
"서울특별시 마포구 양화로 151, 3층 (동교동)",C,0,,에스와이성형외과의원,02-333-4800,,1900,1000,1900,1000,1900,1000,1900,1000,2100,1000,1600,1000,,,,,37.55626795887799,126.9223667575677
"서울특별시 강남구 논현로167길 9, 6층 (신사동)",C,0,낙산프라자빌딩 6층,럭스성형외과의원,02-544-3000,,1900,1000,1900,1000,1900,1000,1900,1000,2000,1000,1700,1000,,,,,37.5244201264,127.0274263818
"서울특별시 강남구 선릉로157길 6, 5층 (신사동)",C,0,,라리성형외과의원,02-547-7552,,1900,1000,1900,1000,1900,1000,1900,1000,1900,1000,1600,1000,,,,,37.525991667990546,127.0394683909079
"서울특별시 강남구 논현로 517 (역삼동, 1~6층, 논현로 521-3 지하1층, 지상4층,5층)",C,0,역삼역 6번출구 ,바노바기성형외과의원,1588-6508,,1830,0930,1830,0930,1830,0930,1830,0930,1830,0930,1600,0930,,,,,37.50267128485868,127.03569235544386
"부산광역시 부산진구 가야대로784번길 11, 2층 (부전동)",C,0,"1,2호선 서면역 7번 출구",트렌디성형외과의원,051-819-0700,,1900,1000,1900,1000,1900,1000,1900,1000,1900,1000,1700,1000,,,,,35.15690873190913,129.05735684307535
"서울특별시 강남구 도산대로 107, 9층 (신사동)",C,0,신사역 7번 출구,프롬비성형외과의원,02-542-8811,,1900,1000,1900,1000,1900,1000,1900,1000,1900,1000,1700,1000,,,,,37.51678109410001,127.0201073117
"제주특별자치도 제주시 1100로 3347, 4층 (노형동, 세기빌딩)",C,0,,드림미성형외과의원,064-749-9400,,1800,1000,1800,1000,1800,1000,1800,1000,1800,1000,,,,,,,33.4848380236,126.4796041176
부산광역시 부산진구 부전로66번길 50 (부전동),C,0,"롯데백화점 부근 / 1,2호선 서면역 7번 출구",얼굴선성형외과의원,051-819-3500,,1900,1000,1900,1000,1900,1000,1900,1000,1900,1000,1700,1000,,,,,35.15577907884329,129.0574381334587
부산광역시 부산진구 중앙대로 700  (부전동),C,0,"1,2호선 서면역 2번출구/고려빌딩 5층",윤동주성형외과의원,051-804-9585,,1900,1030,1900,1030,1900,1030,1900,1030,1900,1030,1700,1030,,,,,35.15521300141611,129.05937156701543
서울특별시 강남구 논현로 813,C,0,"3호선 압구정역 4,5번 출구 영석빌딩",마인성형외과의원,02-516-1175,,1900,1000,1900,1000,1900,1000,1900,1000,1900,1000,1600,1000,,,,,37.52117083566005,127.02786062049861
"서울특별시 강남구 테헤란로 101, 2층 (역삼동, 이즈타워)",C,0,강남역 12번 출구,본아이성형외과의원,02-1899-7233,,1900,1000,1900,1000,1900,1000,1900,1000,1900,1000,1700,1000,,,,,37.4986224205,127.0280638046
"광주광역시 서구 상무중앙로 44, 3층 301호 (치평동)",C,0,,아이퀸성형외과의원,062-375-2299,,1900,1000,1900,1000,1900,1000,1900,1000,1900,1000,1600,1000,,,,,35.150863279447975,126.84891627817478
서울특별시 강남구 논현로171길 15,C,0,"301,302호",매직성형외과의원,02-545-8777,,1930,1000,1930,1000,1930,1000,1930,1000,1930,1000,1800,1000,,,,,37.52549216691917,127.02714265098089
서울특별시 강남구 압구정로28길 31,C,0,"압구정역 4번출구, 도보 3분",코엔아이성형외과의원,02-516-5522,,1900,1000,1900,1000,1900,1000,1900,1000,1900,1000,,,,,,,37.524407184414315,127.02797940889559
"부산광역시 부산진구 부전로66번길 34, 3,4층 (부전동)",C,0,"1,2호선 서면역 1,3번출구/롯데후문",리오성형외과의원,051-818-0025,,1900,1000,1900,1000,1900,1000,1900,1000,1900,1000,1700,1000,,,,,35.15573649776844,129.056550447673
"서울특별시 강남구 논현로 833, 3층 (신사동)",C,0,재경빌딩 3층,김영진성형외과의원,02-548-2662,,1900,1200,1900,1200,1900,1200,1900,1200,1900,1200,,,,,,,37.522799999999997,127.027883333333335
"서울특별시 강남구 봉은사로 107 (논현동, 4,5,7~11,13,14층)",C,0,신논현역 3번 출구,뷰성형외과의원,02-539-1177,,1900,1000,1900,1000,1900,1000,1900,1000,2100,1000,1700,1000,,,,,37.5050201662,127.0253925817
서울특별시 강남구 테헤란로 121 (역삼동) ,C,0,강남역 12번 출구 인근 원빌딩,비디엠아이성형외과의원,02-6335-0111,,1900,1000,1900,1000,1900,1000,1900,1000,1900,1000,1600,1000,,,,,37.49941455538105,127.03106321428645
대구광역시 중구 동성로6길 25 (공평동),C,0,,더원성형외과의원,053-428-0091,,1900,1000,1900,1000,1900,1000,1900,1000,1900,1000,1700,1000,,,,,35.86897110276421,128.59682696405198
"서울특별시 강남구 논현로 868 (신사동, 구정빌딩 5층일부, 6층)",C,0,"압구정역 2,3번출구 사이 구정빌딩",더성형외과의원,02-3446-0055,,1900,0930,1900,0930,1900,0930,1900,0930,1900,0930,1700,0930,,,,,37.52611728778446,127.02877552173025
"부산광역시 부산진구 서면로 60-1, 1,2,3층 (부전동)",C,0,"1,2호선 서면역 7번출구/효성엑센시티빌딩 5층",센텀성형외과의원,051-818-7582,,1900,1000,1900,1000,1900,1000,1900,1000,1900,1000,1700,1000,,,1700,1000,35.1561944225,129.0580279447
서울특별시 강남구 논현로167길 13,C,0,3호선 압구정역 4번출구 50M직진후 첫번째골목에서 우회전,오메가성형외과의원,02-3444-3333,,1900,1000,1900,1000,1900,1000,1900,1000,1900,1000,1600,1000,,,,,37.5244722709849,127.02700202637061
"경기도 평택시 평택로32번길 25, 3층 (평택동)",C,0,,브랜드성형외과의원,031-618-8855,,1800,1000,1800,1000,1800,1000,1800,1000,1800,1000,1600,1000,,,,,36.99145475231685,127.08899172069022
서울특별시 동대문구 왕산로 225  (청량리동),C,0,,정병주성형외과의원,02-966-5536,,1700,1000,1700,1000,1700,1000,1700,1000,1700,1000,1200,1000,,,,,37.58212098872509,127.04721012154396
대구광역시 중구 동성로2길 83,C,0,,리즈성형외과의원,053-255-2552,,1900,0930,1900,0930,1900,0930,1900,0930,1900,0930,1700,0930,,,,,35.86973650099636,128.5970212573212
"서울특별시 강남구 압구정로 320, 6층일부 (신사동)",C,0,압구정파출소 건너편 다이소 건물 내,세란성형외과의원,02-3444-7300,,1900,1000,1900,1000,,,1900,1000,1900,1000,1500,1000,,,,,37.52849382446565,127.03641514912041
"서울특별시 강남구 강남대로 584, 7층 (논현동, 운산빌딩)",C,0,,디바성형외과의원,02-542-7002,,1900,1000,1900,1000,1900,1000,1900,1000,2100,1000,1600,1000,,,,,37.513933833427465,127.02062233228962
"서울특별시 강남구 도산대로 104, 10층 (논현동, 1st Avenue)",C,0,신사역 2번 출구,프라미스성형외과의원,02-548-9003,,1900,1000,1900,1000,1900,1000,1900,1000,2100,1000,1700,1000,,,,,37.5160782711,127.0203424
"서울특별시 강남구 압구정로 144, 2층 (신사동, 한주빌딩)",C,0,,이희문성형외과의원,02-518-6555,,1800,0930,1800,0930,1800,1130,1800,0930,1800,0930,1400,1000,,,,,37.5249721655,127.024584826
"부산광역시 부산진구 서면로 59, 3층 (부전동, 삼정노블빌딩)",C,0,"1,2호선 서면역 1번출구/삼정노블빌딩 3층",아이엠성형외과의원,051-809-0911,,1900,1000,1900,1000,1900,1000,1900,1000,1900,1000,1700,1000,,,,,35.15600790552279,129.05754922101775
"서울특별시 강남구 압구정로 156 (신사동, 카로시티2 빌딩 304,405,406,407호)",C,0,카로시티 2빌딩,노종훈성형외과의원,02-515-5300,,1900,1000,1900,1000,1900,1000,1900,1000,1900,1000,1500,1000,,,,,37.52605810246365,127.02662698071786
부산광역시 부산진구 가야대로784번길 42,C,0,"롯데백화점 후문
1,2호선 서면역 7번 출구",제이스타성형외과의원,051-818-7005,,1900,1000,1900,1000,1900,1000,1900,1000,1900,1000,1700,1000,,,,,35.15555065013103,129.0571065351506
대구광역시 북구 칠곡중앙대로 411,C,0,,칠곡제이스성형외과의원,053-313-6767,,1800,1000,1800,1000,1800,1000,1800,1000,1800,1000,1500,1000,,,,,35.93250967637956,128.54798253249163
서울특별시 강남구 압구정로28길 49  (신사동),C,0,,카라성형외과의원,02-516-8095,,1800,0930,1800,0930,1800,0930,1800,0930,1800,0930,1400,0930,,,,,37.5232595688,127.0277110312
대구광역시 중구 동성로 2,C,0,,김정철성형외과의원,053-421-1600,,1800,0930,1800,0930,1800,0930,1800,0930,1800,0930,1530,0930,,,,,35.867115592738045,128.59406368602646
"대구광역시 중구 동성로5길 31, 3층 (삼덕동1가)",C,0,,글래드성형외과의원,053-710-0103,,1900,1000,2100,1000,1900,1000,1900,1000,2100,1000,1700,1000,,,1700,1000,35.86787816636547,128.59627470740185
"부산광역시 부산진구 서면로 59, 10층 (부전동, 삼정노블빌딩)",C,0,"1, 2호선 서면역 7번출구",비앤제이성형외과의원,051-805-1800,,1900,1000,1900,1000,1900,1000,1900,1000,2100,1000,1700,1000,,,,,35.156007980059165,129.05754483377936
"울산광역시 중구 강북로 123, 101동 3층 305, 306, 307, 308호 (옥교동, 태화강엑소디움)",C,0,옥교동 태화강엑소디움 3층,이유성형외과의원,052-244-2626,,2100,1000,1900,1000,,,1900,1000,2100,1000,1700,1000,1800,1300,,,35.553017673172086,129.3221931692257
서울특별시 강남구 강남대로 446 9층 (역삼동),C,0,,1밀리미터성형외과의원,02-552-1171,,1900,1000,1900,1000,1900,1000,1900,1000,1900,1000,1600,1000,,,,,37.5023891093389,127.02594810924923
"서울특별시 강남구 논현로 834, 윤성빌딩 3,4층 (신사동)",C,0,,에이트성형외과의원,02-515-2550,,1900,1000,1900,1000,1900,1000,1900,1000,1900,1000,1600,1000,,,,,37.522830475794834,127.02861586506808
"경기도 안산시 단원구 고잔1길 17, 402,403,501호 (고잔동, 대유빌딩)",C,0,,프로포즈성형외과의원,031-485-8275,,1900,1000,1900,1000,1900,1000,1900,1000,1900,1000,1600,1000,,,,,37.318647116146614,126.83560023887416
"부산광역시 부산진구 부전로66번길 42, 1,2층 (부전동)",C,0,"1,2호선 서면역 7번출구",오케이성형외과의원,051-804-0080,,1900,1000,1900,1000,1900,1000,1900,1000,1900,1000,1500,1000,,,,,35.15579781991013,129.05698547136996
광주광역시 서구 상무중앙로 10,C,0,"상무역5번출구, 세정아울렛 맞은편",알파성형외과의원,062-383-9401,,1900,0930,1900,0930,1900,0930,1900,0930,1900,0930,1500,0930,,,,,35.14782552716257,126.84888913271824
"부산광역시 부산진구 서면로 60, 5~7층 (부전동)",C,0,"1,2호선 서면역 7번출구",제나성형외과의원,051-805-0101,,1900,1000,1900,1000,1900,1000,1900,1000,1900,1000,1700,1000,,,,,35.1561295666,129.0580263107
"부산광역시 부산진구 부전로66번길 44, 2,3층 (부전동)",C,0,"1,2호선 서면역 7번출구/버스정류장: 롯데백화점 뒷편",하용찬성형외과의원,051-805-2335,,1900,1000,1900,1000,1900,1000,1900,1000,1900,1000,1700,1000,,,,,35.15579946982497,129.05708750392125
"서울특별시 강남구 논현로155길 5 (신사동, 지하1층일부, 2층, 4층)",C,0,,서울위드성형외과의원,02-517-3095,,1900,1000,1900,1000,1900,1000,1900,1000,1900,1000,1700,1000,,,,,37.5216990556,127.0276109064
"서울특별시 강남구 강남대로 606, 403,405호 (논현동, 삼주빌딩)",C,0,신사역 3번 출구,티제이성형외과의원,02-546-4567,,1900,1000,1900,1000,1900,1000,1900,1000,1900,1000,1600,0900,,,,,37.51586927,127.020156837
서울특별시 강남구 압구정로30길 23 6층 604호,C,0,압구정역 근처/,OLE(올래)성형외과의원,02-516-0005,,1900,1000,1900,1000,1900,1000,1900,1000,1900,1000,1600,1000,,,,,37.52589006358959,127.02949491233391
"서울특별시 강남구 학동로 315, 소망빌딩 지하1,1층일부2 층 (논현동)",C,0,압구정역 4번 출구,아이브성형외과의원,02-546-1614,,1900,1000,1900,1000,1900,1000,1900,1000,1900,1000,1600,1000,,,,,37.52510473066329,127.02809634721415
"부산광역시 부산진구 가야대로784번길 21, 4~8층 (부전동)",C,0,"1,2호선 서면역 7번출구",디에이치성형외과의원,1644-7520,,1900,1000,1900,1000,1900,1000,1900,1000,1900,1000,1700,1000,,,1700,1000,35.15655594215331,129.05734251010506
울산광역시 중구 젊음의2거리 23 (성남동),C,0,,서울성형외과의원,052-244-0222,,1900,0930,1900,0930,1900,0930,1900,0930,1900,0930,1400,0930,,,,,35.553197222222224,129.319108333333332
"서울특별시 강남구 강남대로 616 (신사동, 신사미타워, 5층일부)",C,0,신사역 6번 출구,유비에이성형외과의원,02-544-6075,,1900,1000,1900,1000,1900,1000,1900,1000,1900,1000,1600,1000,,,,,37.5168568304,127.019799659
서울특별시 강남구 언주로 869 (신사동) ,C,0,,두한성형외과의원,02-543-9870,,1900,0930,1900,0930,1600,0930,1900,0930,1900,0930,1900,0930,,,,,37.52819562040167,127.03328801043055
"경기도 안산시 단원구 고잔1길 40, 4층 402호 (고잔동, 동원빌딩)",C,0,,김재덕성형외과의원,031-410-4300,,1900,1000,1900,1000,1900,1000,1900,1000,1900,1000,1600,1000,,,,,37.31803655822724,126.83772941950076
"인천광역시 서구 청라라임로 71, 5층 503호 (연희동, 진영메디피아)",C,0,,토파즈성형외과의원,032-566-5790,,1900,1000,1900,1000,1900,1000,1900,1000,1900,1000,1500,0900,,,,,37.53394678047575,126.65290249344922
대구광역시 중구 동성로5길 61,C,0,,김진성형외과의원,053-424-8458,,1830,1000,1830,1000,1830,1000,1830,1000,1830,1000,1630,1000,,,,,35.867450105908986,128.59791866577672
"서울특별시 강북구 도봉로 325, 6층 (수유동, 수성타워)",C,0,,김용운성형외과의원,02-999-5533,,1900,1000,1900,1000,1900,1000,1900,1000,1900,1000,1500,1000,,,,,37.638480354048426,127.02255430013462
서울특별시 강남구 압구정로 170 3층,C,0,압구정 현대백화점 정문 맞은편 지하철 3호선 5번출구,명품코코성형외과의원,02-512-3663,,1830,0930,1830,0930,1830,0930,1830,0930,1830,0930,1500,0930,,,,,37.526758968276525,127.02810601802636
서울특별시 강남구 논현로 841,C,0,압구정역 4번출구 도보 7분,아이콘성형외과의원,02-517-7522,,1900,1000,1900,1000,1900,1000,1900,1000,1900,1000,1700,1000,,,,,37.52416937520625,127.02773949952432
경상북도 포항시 북구 중흥로 308 (죽도동),C,0,,포미성형외과의원,054-273-0052,,1900,1000,1900,1000,1900,1000,1900,1000,1900,1000,1600,1000,,,,,36.0295599007,129.3638428064
서울특별시 강남구 언주로 807  (신사동),C,0,,함희정성형외과의원,02-541-3303,,1830,0930,1830,0930,1830,0930,2030,1300,1830,0930,1300,0930,,,,,37.522443675125025,127.03309993225184
"부산광역시 부산진구 부전로66번길 26, 3층,4층 (부전동)",C,0,"1,2호선 서면역 7번 출구",아이앤코성형외과의원,051-809-9004,,1900,1030,1900,1030,1900,1030,1900,1030,1900,1030,1700,1030,,,,,35.15578387912945,129.05609517363732
"서울특별시 강남구 도산대로 107, 6층 (신사동)",C,0,3층,엔비성형외과의원,02-3446-7575,,1900,1000,1900,1000,1900,1000,1900,1000,1900,1000,1600,1000,,,,,37.51688711158939,127.02049764333239
부산광역시 부산진구 중앙대로 697,C,0,서면역 1번출구/동보서적 맞은편 우리은행 5층,오두종성형외과의원,051-808-1666,,1800,0900,1800,0900,1800,0900,1800,0900,1800,0900,1700,0900,,,,,35.15513907430077,129.05884301926787
서울특별시 강남구 압구정로28길 49 (신사동) ,C,0,,오렌지성형외과의원,02-546-0042,,1830,1000,1830,1000,1830,1000,1830,1000,1830,1000,1530,1000,,,,,37.5232595688,127.0277110312
"서울특별시 강남구 논현로 819 (신사동, 명광빌딩 1층일부, 2층, 3층)",C,0,,MVP(엠브이피)성형외과의원,02-3442-6669,,1900,0930,1900,0930,1900,0930,1900,0930,1900,0930,1700,0930,,,,,37.5216305178,127.0278733248
"서울특별시 마포구 마포대로4다길 31, 2,3,6층 (마포동, 옵티마빌딩)",C,0,강변한신코아 맞은편,옵티마성형외과의원,02-555-5566,,1830,0930,1830,0930,1830,0930,1830,0930,1830,0930,1400,0930,,,,,37.535651051863766,126.94426102007499
서울특별시 강남구 강남대로 498 (논현동) ,C,0,명성빌딩 4층,바라본성형외과의원,02-542-2700,,1900,1000,1900,1000,1900,1000,1900,1000,2100,1000,1600,1000,,,,,37.506696353684475,127.02386856517702
"서울특별시 강남구 강남대로 372 (역삼동, 화인타워 4층)",C,0,강남역 4번 출구 화인타워 4층,시크릿성형외과의원,1688-8538,,1900,1000,1900,1000,1900,1000,1900,1000,1900,1000,1600,1000,,,,,37.496034486126725,127.0290715422114
"경기도 안산시 단원구 고잔1길 16, 301-1호 (고잔동, 중앙마케이트)",C,0,,프라임성형외과의원,031-439-7100,,1900,1000,1900,1000,1900,1000,1900,1000,1900,1000,1600,1000,,,,,37.31797978275247,126.83519105780293
"서울특별시 강남구 압구정로 156, 5층 501호, 502호(신사동, 카로시티2)",C,0,압구정역 5번 출구 인근 카로시티2 ,모재성성형외과의원,02-547-1700,,1900,1000,1900,1000,1900,1000,1900,1000,2100,1000,1700,1000,,,,,37.52602766582538,127.0267662975232
"서울특별시 마포구 마포대로 109, 3층 (공덕동, 롯데캐슬프레지던트)",C,0,,스마트성형외과의원,02-6009-1122,,1900,1000,1900,1000,1900,1000,1900,1000,1900,1000,1500,1000,,,,,37.54511809510328,126.95088501519565
대구광역시 중구 동성로6길 2-23,C,0,,더로즈성형외과의원,053-423-7588,,1900,1000,1900,1000,1900,1000,1900,1000,1900,1000,1600,1000,,,,,35.86806227007988,128.595521874815
"서울특별시 강남구 논현로 823, 5층 (신사동)",C,0,,노블와이성형외과의원,02-3446-7300,,1900,1000,1900,1000,1900,1000,1900,1000,1900,1000,1600,1000,,,,,37.521957563034036,127.02795263236152
"광주광역시 서구 치평로 18, 2층 206호 (치평동)",C,0,"운천지점 농협, 광주은행 사이 광주사우나 2층",이노블성형외과의원,062-384-7800,,1830,0930,1830,0930,1830,0930,1830,0930,2100,0930,1600,0930,,,,,35.148631862059,126.84777114551102
"서울특별시 강남구 선릉로 830, 3층 (청담동, 공신진흥빌딩)",C,0,,카이성형외과의원,02-512-0830,,1900,1000,1900,1000,1900,1000,1900,1000,1900,1000,1600,1000,,,,,37.5260129629,127.0404413104
"제주특별자치도 제주시 노형14길 14, 3층 (노형동)",C,0,,청담루이성형외과의원,064-712-8999,,1900,1000,1900,1000,1900,1000,1900,1000,1900,1000,1600,1000,,,,,33.48449613194506,126.47977401132877
"서울특별시 강남구 압구정로30길 67 (신사동, 지하1,2층, 지상1층일부, 2,3,4,5층)",B,0,압구정역 근처/,이지앤성형외과병원,080-500-2080,,1900,1000,1900,1000,1900,1000,1900,1000,1900,1000,1700,1000,,,,,37.52293483802069,127.02924487562568
부산광역시 부산진구 가야대로784번길 23 (부전동),C,0,서면역 3번 출구,지세스성형외과의원,051-818-2224,,1900,1000,1900,1000,1900,1000,1900,1000,1900,1000,1700,1000,,,,,35.156344444444443,129.057283333333345
"서울특별시 강남구 테헤란로 101, 이즈타워 10층 (역삼동)",C,0,,다름성형외과의원,02-558-5011,,1900,1000,1900,1000,1900,1000,1900,1000,1900,1000,1600,1000,,,,,37.49862242049999,127.0280638046
서울특별시 강남구 압구정로 432 7층(청담동),C,0,,김지연위쉬성형외과의원,02-549-8841,,1900,1000,1900,1000,1900,1000,1900,1000,1900,1000,1500,1000,,,,,37.52660632227422,127.04407988400506
"서울특별시 강남구 삼성로 553, JW정원성형빌딩 3~7층 (삼성동)",C,0,,제이더블유(JW)정원성형외과의원,02-541-5114,,1900,1000,1900,1000,1900,1000,1900,1000,1900,1000,1700,1000,,,,,37.510881476736664,127.05405111069473
서울특별시 강남구 논현로 831,C,0,네오스빌딩 301호,김진성형외과의원,02-3445-4514,,1830,0930,1830,0930,1830,0930,1830,0930,1830,0930,1400,0930,,,,,37.52260161235029,127.02787922315945
"서울특별시 강남구 압구정로 158, 진우빌딩 지하1,2층,4층 (신사동)",C,0,압구정역 5번 출구,디엠성형외과의원,1899-0834,,1900,1000,1900,1000,1900,1000,1900,1000,1900,1000,1600,1000,,,,,37.52620060982335,127.02697904213136
"서울특별시 강남구 도산대로 107, 12층일부 (신사동)",C,0,,최엽성형외과의원,02-512-9200,,1830,1000,1830,1000,1830,1000,1830,1000,1830,1000,1430,1000,,,,,37.515130555555558,127.020269444444438
"부산광역시 부산진구 부전로66번길 28, 3~6층 (부전동)",C,0,"1,2호선 서면역 7번출구",케이엔젤성형외과의원,051-808-1228,,1900,1000,1900,1000,1900,1000,1900,1000,1900,1000,1700,1000,,,,,35.1556997524,129.0574405098
서울특별시 강남구 도산대로 211 (신사동) ,C,0,압구정역 근처/,예담성형외과의원,02-548-0036,,1900,1000,1900,1000,1900,1000,1900,1400,1900,1000,1600,1000,,,,,37.52059572557547,127.02968287095139
"대전광역시 유성구 계룡로 92, 2층 227호 (봉명동, 유성CJ나인파크)",C,0,,별이성형외과의원,042-335-5816,,1900,1000,1900,1000,1900,1000,1900,1000,1900,1000,1500,1000,,,,,36.353474042,127.3405935736
"서울특별시 강남구 논현로167길 9, 3층(신사동, 낙산프라자)",C,0,낙산프라자 3층,가암성형외과의원,02-548-7575,,1800,1000,1800,1000,1800,1000,1800,1000,1800,1000,1400,1000,,,,,37.5244201263853,127.02742638177415
"서울특별시 강남구 강남대로 606, 삼주빌딩 10, 12층 (논현동)",C,0,신사역 3번 출구,다나성형외과의원,02-512-0922,,1900,1000,1900,1000,1900,1000,1900,1000,1900,1000,1700,1000,,,,,37.51586927,127.020156837
"대구광역시 달서구 월배로 219, 6층 (상인동)",C,0,,상인제이스성형외과의원,053-644-1175,,1800,1000,1800,1000,1800,1000,1800,1000,1800,1000,1300,1000,,,,,35.81914373813922,128.53713597348747
"광주광역시 서구 상무평화로 79, 4층 408호 (치평동)",C,0,,강남세련성형외과의원,062-371-0003,,1900,1000,1900,1000,1900,1000,1900,1000,1900,1000,1600,1000,,,,,35.14832365437147,126.84780160904282
서울특별시 강남구 논현로 841,C,0,압구정역 4번출구,밥성형외과의원,02-549-0500,,1900,0900,1900,0900,1900,0900,1900,0900,1900,0900,1500,0900,,,,,37.52423061467494,127.02786622126231
"서울특별시 강남구 논현로167길 11, 2층 (신사동, 2층)",C,0,,차이성형외과의원,02-540-4217,,1900,1000,1900,1000,1900,1000,1900,1000,1900,1000,1600,1000,,,,,37.5244562198,127.0271956169
"서울특별시 강남구 도산대로 110, 케이비엘 센터 404호 (논현동)",C,0,,어린공주성형외과의원,02-542-1102,,1830,1000,1830,1000,1830,1000,1830,1000,1830,1000,1600,1000,,,,,37.516279977,127.0210211398
서울특별시 강남구 강남대로 438,C,0,강남역 11번 출구 CGV건물,스타성형외과의원,02-554-0233,,1900,1000,1900,1000,1900,1000,1900,1000,1900,1000,1600,1000,,,,,37.50174209522102,127.02618908898506
"서울특별시 강남구 강남대로 596, 2층 (논현동)",C,0,,연세진성형외과의원,02-541-9551,,1900,1000,1900,1000,1900,1000,1900,1000,1900,1000,1700,1000,,,,,37.51499163658611,127.02044505769461
"부산광역시 부산진구 서면로 55-1, 2~4층 (부전동)",C,0,"1,2호선 서면역 7번 출구",디자인성형외과의원,051-807-0259,,1900,0930,1900,0930,1900,0930,1900,0930,1900,0930,1700,0930,,,,,35.1556973673,129.0575809009
"대구광역시 중구 동성로6길 6, 2,3층 (동성로2가)",C,0,,S삼성성형외과의원,053-427-0008,,1900,1000,1900,1000,1900,1000,1900,1000,1900,1000,1700,1000,,,,,35.86896255530932,128.59577501976588
"부산광역시 부산진구 부전로66번길 24, 2,3층 (부전동)",C,0,"1,2호선 서면역 7번 출구",뉴스타일성형외과의원,051-817-0303,,1900,0930,1900,0930,1900,0930,1900,0930,1900,0930,1700,0930,,,1700,0930,35.15578258492514,129.0559590788009
"서울특별시 강남구 압구정로 168, 2층 (신사동)",C,0,압구정역 5번 출구 앞,원데이팔자주름성형외과의원,02-515-7900,,1800,0930,1800,0930,1800,0930,1800,0930,1800,0930,1500,0930,,,,,37.526625649002966,127.02798378782413
"서울특별시 강남구 도산대로 318, 6층(논현동, SB타워)",C,0,SB빌딩 6층,엄나구모성형외과의원,02-512-6838,,1700,1140,1700,1140,1700,1140,1700,1140,1700,1140,,,,,,,37.52201744673091,127.03634863190906
"부산광역시 부산진구 가야대로 786, 4,5층 (부전동)",C,0,2호선 서면역 7번 출구 ,브랜드성형외과의원,051-715-7008,,1830,0940,1830,0940,1830,0940,1830,0940,1830,0940,1630,0940,,,,,35.1573751237,129.0574870984
"경상남도 거제시 서문로 56, 3층 (고현동, 삼성증권)",C,0,신한은행거제지점 3층,리츠성형외과의원,055-633-3037,,1830,0930,1830,0930,1830,0930,2000,0930,1830,0930,1400,0930,,,,,34.8891625014714,128.6222045509081
"서울특별시 강남구 논현로 828, 7층 (신사동, RAPHA 빌딩)",C,0,,코샵성형외과의원,02-540-8800,,1900,1000,1900,1000,1900,1000,1900,1000,1900,1000,1600,1000,,,,,37.5224340609,127.0285071151
"대구광역시 중구 동성로2길 53, 3층 (공평동)",C,0,,로고스성형외과의원,053-428-1195,,1900,1000,1900,1000,1900,1000,1900,1000,1900,1000,1700,1000,,,,,35.86842176230001,128.59497035150022
"서울특별시 강남구 논현로159길 10, 6층 (신사동)",C,0,,한형일성형외과의원,02-2678-2000,,1800,1000,1800,1000,1800,1000,1800,1000,1800,1000,1500,1000,,,,,37.5231154949,127.0273399296
부산광역시 부산진구 가야대로784번길 36 (부전동),C,0,롯데백화점 후문 근방,The예쁜얼굴만들기성형외과의원,051-808-1616,,1900,1000,1900,1000,1900,1000,1900,1000,1900,1000,1700,1000,,,,,35.15579452534053,129.05716638329156
"대구광역시 중구 국채보상로 550, (상서동)",C,0,,김성조성형외과의원,053-253-2410,,1830,0930,1830,0930,1830,0930,1830,0930,1830,0930,1400,0930,,,,,35.870378513051804,128.59086442366583
"경기도 수원시 팔달구 중부대로11번길 24, 402호 (영동, 은파빌딩)",C,0,,정해광성형외과의원,031-268-6633,,1800,1000,1800,1000,1800,1000,1800,1000,1800,1000,1300,1000,,,,,37.275383333333330,127.018036111111115
대전광역시 유성구 계룡로132번길 10,C,0,,유아이성형외과의원,042-861-5300,,1830,0930,1830,0930,,,1830,0930,2000,1400,1500,0930,,,,,36.35238106987877,127.34461655340107
"서울특별시 강남구 압구정로 156 (신사동, 카로시티2 301,302,303호)",C,0,압구정역 근처/,실루엣성형외과의원,02-3443-1180,,1800,1000,1800,1000,1800,1000,1800,1000,1800,1000,1630,0930,,,,,37.52602766582538,127.0267662975232
"서울특별시 강남구 압구정로 310 (신사동, 고려빌딩 301호일부,302호일부)",C,0,압구정파출소 맞은편,베스트웰김진왕성형외과의원,02-511-3713,,1800,1000,1800,1000,1800,1000,1800,1000,1800,1000,1600,1000,,,,,37.5287824914,127.035292989
"서울특별시 강남구 도산대로 335, 5,6층 (신사동, J MEDI TOWER)",C,0,"5,6층",옴므앤팜므성형외과의원,02-514-0990,,1900,1000,1900,1000,1900,1000,1900,1000,1900,1000,1600,1000,,,,,37.5233934915,127.0385167729
"울산광역시 북구 산업로 1005, 3층 301호 (연암동)",C,0,시티병원 앞 상가건물 3층,오늘성형외과의원,052-222-9800,,1830,1000,1830,1000,1830,1000,1830,1000,1830,1000,1500,1000,,,,,35.58252965066496,129.35881074780687
"서울특별시 강남구 압구정로28길 19 2층 (신사동, 한익빌딩)",C,0,압구정역 4번 출구,찰스성형외과의원,02-516-3700,,1900,1000,1900,1000,1900,1000,1900,1000,1900,1000,1600,1000,,,,,37.5252633607,127.0278701512
"서울특별시 강북구 도봉로 365, 6층 (수유동)",C,0,수유역 8번 출구 서울현대병원 맞은편,더탑성형외과의원,02-993-5000,,1800,0930,1800,0930,1800,0930,1800,0930,1800,0930,1400,0930,,,,,37.6400140004,127.0273872425
"서울특별시 강북구 도봉로 343 (수유동, 송도약국)",C,0,"수유역 7,8번출구 ",연세신효선성형외과의원,02-905-0690,,1900,0900,1900,0900,1900,0900,1900,0900,1900,0900,1600,0900,,,,,37.638533333333335,127.02571388888889
서울특별시 강남구 압구정로 158,C,0,,메가그라프트성형외과의원,02-3444-0831,,1900,1000,1900,1000,1900,1000,1900,1000,1900,1000,1600,1000,,,,,37.52616614237159,127.02699807740916
"서울특별시 강남구 강남대로 590, 13층 (논현동, 미혜빌딩)",C,0,신사역 3번 출구,압구정디오성형외과의원,02-514-0350,,1900,1000,1900,1000,1900,1000,1900,1000,2000,1000,1600,1000,,,,,37.5145357425,127.0204007993
"부산광역시 부산진구 서면로 69-1, 2층 (부전동)",C,0,"1,2호선 서면역 7번출구 ",비바성형외과의원,051-806-8482,,1900,1100,,,1900,1100,1900,1100,1900,1100,1700,1100,,,,,35.1570029599,129.0575391724
