주소,분류,응급여부,간이약도,이름,Tel,Tel_E,월close,월open,화close,화open,수close,수open,목close,목open,금close,금open,토close,토open,일close,일open,공close,공open,위도,경도
"인천광역시 중구 신도시남로 137, 화평빌딩 4층 401,402호 (운서동)",C,0,공항신도시 운서동사무소 앞,신제일산부인과의원,032-747-1118,,2000,0930,1800,0930,2000,0930,1800,0930,2000,0930,1500,0930,1300,1000,1300,1000,37.49344469517739,126.48905776688995
인천광역시 중구 참외전로 160-1  (경동),C,0,"동인천역근처. 도원역으로 가는 방면(1-4층, 6층 일부)",아이본산부인과의원,032-772-7474,,1800,0930,1800,0930,1800,0930,1800,0930,1800,0930,1300,0930,,,,,37.47297617527827,126.6342338939634
"인천광역시 중구 하늘달빛로 94, 스타타워 5층 509,510,511호 (중산동)",C,0,,하늘도시산부인과의원,032-746-1236,,2000,0900,1800,0900,2000,0900,1800,0900,2000,0900,1300,0900,1300,0900,,,37.4872984731,126.5574795085
경상남도 창원시 성산구 원이대로 664  (상남동),C,0,은아아파트 정문 맞은편,서울산부인과의원,055-267-2290,,1900,0830,1900,0830,1900,0830,1900,0830,1900,0830,1300,0830,,,1300,0830,35.223811681133185,128.6859218506466
"경상남도 창원시 성산구 원이대로 578 (중앙동, 구트병원 빌딩 701호)",C,0,,센텀산부인과의원,055-275-6336,,1830,0900,1830,0900,1830,0900,1830,0900,1830,0900,1500,0900,,,,,35.2283759608049,128.67794179705297
"경상남도 창원시 의창구 팔용로 442, 4층(팔용동,KB빌딩)",C,0,국민은행 부근,아름다운산부인과의원,055-253-7585,,1830,0930,1830,0930,1830,0930,1830,0930,1830,0930,1300,0930,,,,,35.25571865022753,128.61383526246524
"경상남도 창원시 의창구 서상로 1 (동정동, 엘르메디의원)",C,0,창원역 부근,엘르메디산부인과의원,055-253-2111,,1800,0900,1800,0900,1800,0900,1800,0900,1800,0900,1300,0900,,,,,35.26236332299207,128.61343410575893
경상남도 창원시 성산구 원이대로883번길 15-24  (가음동),C,0,,윤은숙산부인과의원,055-287-1005,,1700,0900,1700,0900,1300,0900,1700,0900,1700,0900,1300,0900,,,,,35.20792443221409,128.6970704244036
경상남도 창원시 의창구 원이대로 591 (용호동) 3층,C,0,정우상가 옆,이보람산부인과의원,055-262-8223,,1930,0900,1930,0900,1930,1000,1930,0900,1930,0900,1600,0900,1400,1300,1300,1100,35.22812099379244,128.6799487027359
경상남도 창원시 의창구 읍성로 38,C,0,재건교회 부근,최정미산부인과의원,055-252-7553,,1800,1030,1800,1030,1800,1030,1800,1030,1800,1030,1300,1030,,,,,35.264883452328235,128.62219584029543
"경상남도 창원시 의창구 평산로 96 (팔용동, (웰빙프라자309,310호))",C,0,"팔용중학교 맞은편, 심산유곡건물 3층",로즈맘여성산부인과의원,055-253-7722,,1800,0900,1800,0900,1800,0900,1800,0900,1800,0900,1500,0900,1300,1000,1300,1000,35.251459033060435,128.61966708531165
"경상남도 창원시 의창구 원이대로285번길 6, 4,5,6,7,10층 (봉곡동)",C,0,,미즈맘산부인과의원,055-277-5588,,2000,0900,2000,0900,2000,0900,2000,0900,2000,0900,1600,0900,1300,1000,1300,1000,35.242606405315186,128.65172023744486
강원도 동해시 한섬로 125 (천곡동),C,0,천곡동 동해보건소 옆,고산부인과의원,033-535-5528,,1740,0900,1740,0900,1740,0900,1740,0900,1740,0900,1500,0900,1300,0900,1600,0900,37.52192290668943,129.11745786613682
경기도 과천시 별양상가1로 35 504호 (별양동),C,0,,고운산부인과의원,02-503-8360,,1900,0930,1900,0930,1900,0930,1900,0930,1900,0930,1400,0930,,,,,37.42854488926825,126.99356454257132
"충청남도 서산시 남부순환로 1025 (예천동, 대명빌딩)",C,0,샤브향 옆건물,엠산부인과의원,041-668-3100,,1800,0900,1800,0900,1800,0900,1800,0900,1800,0900,1400,0900,,,1300,0900,36.76765241624719,126.45218404500957
충청남도 서산시 중앙로 108 (석림동),C,0,의료원 300m,자모산부인과의원,041-663-0055,,1900,0830,1900,0830,1900,0830,1900,0830,1800,0830,,,,,,,36.77704983857076,126.46108522390143
"경기도 남양주시 별내3로 320, 2~5층 (별내동, 센트럴프라자)",C,0,,별내마리산부인과의원,031-564-7373,,1800,0900,1800,0900,1800,0900,1800,0900,1800,0900,1300,0900,1300,0900,1300,0900,37.6660075522,127.1178157
경기도 동두천시 동두천로 307 (생연동),C,0,,염산부인과의원,031-862-7778,,1830,0900,1830,0900,1830,0900,1830,0900,1830,0900,1200,0900,,,,,37.9090029081115,127.05599215890969
경기도 동두천시 동두천로 216 (생연동),C,0,,제일산부인과의원,031-865-3360,,1830,0900,1830,0900,1830,0900,1830,0900,1830,0900,1300,0900,,,,,37.9008224239,127.0558085885
경기도 동두천시 정장로 34 (생연동),C,0,,해성산부인과의원,031-868-0868,,1800,0900,1800,0900,1800,0900,1800,0900,1800,0900,1500,0900,1300,1000,1300,1000,37.90405083978864,127.05452593514308
"경기도 파주시 교하로 83, 동광프라자 401호 (목동동)",C,0,,새봄산부인과의원,031-946-8860,,1900,0930,1900,0930,1900,0930,1900,0930,1900,0930,1400,0930,,,,,37.72791854900001,126.7337040584
"경기도 파주시 금빛로 27, 301호 (금촌동, 광장프라자)",C,0,,아산최은녕산부인과의원,031-943-7070,,1800,0900,1800,0900,1400,0900,1800,0900,1800,0900,1400,0900,,,,,37.75225969491449,126.76627867922731
"경기도 용인시 기흥구 구갈로60번길 1 (구갈동, 오래메디칼센타)",C,0,기흥보건소 옆 건물,참사랑산부인과의원,031-283-6321,,1900,0900,1900,0900,1900,0900,1900,0900,1900,0900,1600,0900,,,,,37.279866086114104,127.11153259162884
경기도 용인시 기흥구 흥덕2로87번길 18,C,0,,햇살산부인과의원,031-263-6001,,1800,0930,1800,0930,1230,0930,1800,0930,1800,0930,1230,0930,,,,,37.27591856934351,127.07150940882448
"경기도 용인시 기흥구 죽전로 52 (보정동, 훼미리프라자)",C,0,,현산부인과의원,031-897-6900,,1830,0930,1830,0930,1830,0930,1830,0930,1830,0930,1400,0930,,,,,37.3202302818812,127.11463371792216
인천광역시 계양구 계산새로65번길 17 (계산동),C,0,그랜드마트 맞은편 계양메디칼건물,연세산부인과의원,032-543-3377,,1900,0900,1900,0900,1900,0900,1900,0900,1900,0900,1600,0900,,,,,37.53984507845691,126.73531428172666
"인천광역시 계양구 오조산로 53, 연세차메디칼센터 2층 201호 (계산동)",C,0,평안교회 옆 건물 2층,연세차산부인과의원,032-547-0100,,1800,0900,1800,0900,1800,0900,1800,0900,1800,0900,1250,0900,,,,,37.53557595454908,126.73825449562625
인천광역시 계양구 계산새로 71,C,0,홈플러스 계산점 옆 상가,제일산부인과의원,032-554-7114,,1900,0930,1900,0930,1900,0930,1900,0930,1900,0930,1530,0930,,,,,37.538391451920795,126.73636944715221
"인천광역시 계양구 경명대로 1070, 지하1,지상1,2층 (계산동)",C,0,계산역 3번출구 도보 1분거리,중앙산부인과의원,032-551-5005,,1900,0900,1900,0900,1900,0900,1900,0900,1900,0900,1400,0900,,,,,37.543097222222222,126.725633333333334
"인천광역시 계양구 장제로 912, 5층 (병방동)",C,0,병방시장 사거리 농협 옆,하랑산부인과의원,032-554-5300,,2000,0900,1800,0900,1800,0900,2000,0900,1800,0900,1400,0900,,,,,37.547641291226086,126.7411499587817
"경기도 용인시 기흥구 동백중앙로 283 (중동, 골드프라자 A동 7층)",C,0,,동백미즈산부인과의원,031-8006-2030,,2000,0900,2000,0900,2000,0900,2000,0900,2000,0900,1600,0900,,,1300,1000,37.278040261107535,127.15346677734541
"경기도 용인시 기흥구 구갈로 74 (구갈동, 구갈스포츠센타 3층)",C,0,,미즈마리산부인과의원,031-284-7223,,1830,0930,1830,0930,1830,0930,1830,0930,1830,0930,1400,0930,,,,,37.280980538050315,127.11178752090176
"경기도 용인시 기흥구 구성로 95, 2층 (언남동, 타임빌딩)",C,0,,새봄산부인과의원,031-283-3350,,1830,0900,1830,0900,1830,0900,1830,0900,1830,0900,1400,0900,,,,,37.294180553207795,127.12015212383684
충청남도 금산군 금산읍 비호로  87,C,0,터미널 근처 읍사무소 사거리 가는 쪽,조산부인과의원,041-754-2267,,1830,0900,1830,0900,1830,0900,1830,0900,1830,0900,1300,0900,,,1300,0900,36.10655706014858,127.49219825416189
"광주광역시 남구 백양로 13 (백운동, 모아산부인과)",B,0,백운로타리부근,모아산부인과병원,062-670-7700,,2000,0900,2000,0900,2000,0900,2000,0900,2000,0900,1300,0900,,,1200,0900,35.13407710509227,126.90353091444962
부산광역시 수영구 수영로 389,C,0,2호선 남천역 4번 출구,엘르산부인과의원,051-626-8090,,1800,0930,1800,0930,1800,0930,1800,1400,1800,0930,,,,,,,35.141383366992265,129.10690825738192
"부산광역시 수영구 연수로 421, 2층 (수영동)",C,0,"2,3호선 수영역 2번출구",이수자산부인과의원,051-524-1419,,1830,0930,1830,0930,1830,0930,1830,0930,1830,0930,1330,0930,,,,,35.16782244327142,129.11496160630313
"울산광역시 울주군 온양읍 온양로 80, 1층",C,0,,미소산부인과의원,052-239-7133,,1830,0900,1830,0900,1830,0900,1830,0900,1830,0900,1400,0900,,,,,35.410513888888886,129.280372222222212
울산광역시 울주군 언양읍 헌양길 37 (2층(언양농협)),C,0,,박철산부인과의원,052-254-2565,,1830,0930,1830,0930,1830,0930,1830,0930,1830,0930,1530,0930,,,,,35.56477057766818,129.12519487698802
"부산광역시 수영구 과정로 59, 2층 (망미동)",C,0,버스정류장: 망미우체국건너편,고운산부인과의원,051-754-5258,,1800,0930,1800,0930,1800,0930,1800,0930,1800,0930,1300,0930,,,,,35.176788888888886,129.107055555555547
경기도 이천시 장호원읍 장감로 96,C,0,,장호원산부인과의원,031-643-3582,,1900,0910,1900,0910,1900,0910,1900,0910,1900,0910,1300,0900,,,,,37.117802236362046,127.63326938272397
경상남도 창녕군 창녕읍 명덕로 64-1,C,0,명덕초등학교 부근,이산부인과의원,055-533-1952,,1800,0930,1800,0930,1800,0930,1800,0930,1800,0930,1300,0930,,,,,35.542509348052725,128.49644140951233
대구광역시 중구 달구벌대로 2047 (계산동2가),C,0,,미즈산부인과의원,053-255-1020,,1800,0900,1800,0900,1800,0900,1800,0900,1800,0900,1300,0900,,,,,35.86683801078154,128.58780083572302
경기도 이천시 이섭대천로 1185  (중리동),C,0,,남선희산부인과의원,031-636-1555,,1830,0900,1830,0900,1830,0900,1830,0900,1830,0900,1530,0900,,,,,37.2760209723367,127.44677675624254
경기도 이천시 경충대로 2564 (중리동),C,0,"수원사거리쪽 미란다호텔근처, 파티마병원 천시욱정형외과 건물 사이",마리나산부인과의원,031-637-0552,,1900,0900,2000,0900,1900,0900,2000,0900,1900,0900,1700,0900,1300,1000,1830,0830,37.2749397242,127.4482198786
"경기도 남양주시 경춘로1256번길 6, 401,402호 (평내동, 다모아프라자)",C,0,,조은산부인과의원,031-511-3963,,1900,0900,1900,0900,1900,0900,1900,0900,1900,0900,1600,0900,,,1300,0900,37.64597878191171,127.23459940723032
경기도 남양주시 경춘로 448-1 (지금동),C,0,,주리애산부인과의원,031-553-2338,,1800,0900,1800,0900,1800,0900,1300,0900,1800,0900,1300,0900,,,,,37.60875086108053,127.1632307988148
경기도 시흥시 복지로 77 ,C,0,,중앙산부인과의원,031-313-3333,,1900,0830,1900,0830,1900,0830,1900,0830,1900,0830,1500,0830,1100,1000,1100,1000,37.4462355894,126.7905272985
경기도 시흥시 삼미시장1길 5 (신천동),C,0,,참산부인과의원,031-314-6666,,1900,0900,1900,0900,1900,0900,1900,0900,1900,0900,1500,0900,,,,,37.4399115828262,126.78556856021541
"경기도 시흥시 비둘기공원7길 33, 402호 (대야동, 성원디아망빌딩)",C,0,,포우먼산부인과의원,031-404-8206,,1900,0900,1900,0900,1900,0900,1900,0900,1900,0900,1500,0900,,,,,37.443023907681244,126.79272850801814
"경기도 남양주시 늘을2로 20, 5층 (호평동, 씨에취리베로)",C,0,,한나산부인과의원,031-592-5100,,1900,0900,1900,0900,1900,0900,1900,0900,1900,0900,1600,0900,1300,1000,1300,1000,37.654517325855494,127.24410329269841
경기도 시흥시 장곡로37번길 16  (장곡동),C,0,,한사랑산부인과의원,031-317-8375,,1830,0930,1830,0930,1830,0930,1830,0930,1830,0930,1430,0930,,,,,37.378085682449296,126.7844091386924
"경기도 남양주시 와부읍 덕소로97번길 2, 4층 (동산빌딩)",C,0,,김란산부인과의원,031-521-0035,,1900,0900,1900,0900,1900,0900,1900,0900,1900,0900,1600,0900,,,,,37.58552972607998,127.21243475563928
"경기도 남양주시 늘을2로 26, 504호 (호평동, 호평씨네마타워)",C,0,,남정우산부인과의원,031-559-1004,,1800,0900,1800,0900,1800,0900,1800,0900,1800,0900,1500,0900,,,1300,1000,37.6550918688001,127.24411531106207
"경기도 남양주시 다산중앙로123번길 13, 제이타워 6층 601,602호 (다산동)",C,0,,다산소연산부인과의원,031-523-2661,,2000,0930,2000,0930,2000,0930,2000,0930,2000,0930,1530,0930,1230,0930,1230,0930,37.623539420886054,127.15194906241464
경기도 남양주시 화도읍 비룡로 30,C,0,,드림산부인과의원,031-591-9889,,1800,0900,1800,0900,1800,0900,1800,0900,1800,0900,,,,,,,37.6549280806876,127.30126126581632
경기도 시흥시 정왕대로 230,C,0,,에덴산부인과의원,031-319-5275,,1900,0900,1900,0900,1900,0900,1900,0900,1900,0900,1300,0900,,,,,37.34507671900152,126.73858547249017
"경기도 시흥시 정왕대로 78 (정왕동, B동 306호, 407호, 408호)",C,0,,예진산부인과의원,031-431-1134,,1800,0900,1800,0900,1800,0900,1800,0900,1800,0900,1600,0900,,,,,37.353335617248106,126.72521115993426
"경기도 시흥시 정왕대로 184, 3층 (정왕동, 한성타운)",C,0,,시화박산부인과의원,031-319-7861,,1900,0930,1900,0930,1900,0930,1900,0930,1900,0930,1700,0930,,,1300,0930,37.34752530765485,126.73439211170492
경기도 남양주시 경춘로 1511 (호평동),C,0,경동이마트 마치터널 1km지점,메디피아산부인과의원,031-595-8400,,1800,0900,1800,0900,1800,0900,1800,0900,1800,0900,1900,0900,1600,1000,1600,1000,37.65556666666668,127.25944166666664
경기도 남양주시 진건읍 진건오남로 52-5,C,0,,민산부인과의원,031-574-2322,,1800,0930,1800,0930,1800,0930,1800,0930,1800,0930,,,,,,,37.65559129696247,127.17934498048069
경상북도 김천시 김천로 90,C,0,,김천하나산부인과의원,054-435-8811,,1800,0900,1800,0900,1800,0900,1800,0900,1800,0900,1300,0900,,,,,36.124435736770394,128.11204521905728
경상북도 김천시 중앙시장3길 27  (모암동),C,0,,김태홍산부인과의원,054-434-4333,,1800,0900,1800,0900,1800,0900,1300,0900,1800,0900,1300,0900,,,,,36.118688173812146,128.12614554120034
"경상북도 김천시 혁신3로 5, 율곡스퀘어Ⅲ 3층 303,304호 (율곡동)",C,0,,미소맘산부인과의원,054-439-0032,,1900,0900,1900,0900,1900,0900,1900,0900,1900,0900,1400,0900,,,,,36.1179524902,128.1833230978
경기도 남양주시 화도읍 비룡로 113,C,0,,은혜산부인과의원,031-591-5670,,1800,0900,1800,0900,1800,0900,1800,0900,1800,0900,1300,0900,,,,,37.66191951401542,127.30271737491535
"경기도 시흥시 정왕대로 220, 5층 504호 (정왕동, 우리빌딩)",C,0,,김서경산부인과의원,031-433-6677,,1800,1030,1800,1030,1800,1030,1800,1030,1800,1030,1400,1030,,,,,37.34548985022229,126.73768784124765
경상북도 김천시 평화순환길 301-1 (평화동),C,0,,윤대영산부인과의원,054-430-4270,,1800,1000,1800,1000,1800,1000,1800,1000,1800,1000,1300,1000,,,,,36.12092847714395,128.11669638982428
경상북도 김천시 자산로 69  (모암동),C,0,,이상식산부인과의원,054-433-3307,,1830,0930,1830,0930,1830,0930,1830,0930,1830,0930,1430,0930,,,,,36.11894021204495,128.12386999712368
"경기도 시흥시 중심상가2길 2, 4층 (정왕동)",C,0,,더클래식산부인과의원,031-431-7110,,1900,0930,1900,0930,1900,0930,1900,0930,1900,0930,1200,0930,,,,,37.34595052718487,126.7357766837169
경기도 시흥시 봉우재로 13  (정왕동),C,0,,미즈필산부인과의원,031-434-7575,,1900,0900,1900,0900,1900,0900,1900,0900,1900,0900,1500,0900,,,,,37.34468263610036,126.74292950949632
경기도 이천시 이섭대천로 1186 (중리동),C,0,,양정분산부인과의원,031-635-5300,,1900,0900,2100,0900,1900,0900,2100,0900,1900,0900,1700,0900,1300,0900,1300,0900,37.27619444444443,127.4471361111111
"경기도 남양주시 와부읍 덕소로 123, 2층",C,0,,이근산부인과의원,031-577-0336,,1900,0900,1900,0900,1900,0900,1900,0900,1900,0900,1300,0900,,,1300,0900,37.583448501791196,127.21289979742104
서울특별시 영등포구 여의대방로 375 (여의도동) ,C,0,샛강역 2번출구,다미산부인과의원,02-761-3072,,1900,0930,2000,0930,1900,0930,1900,0930,2000,0930,1500,0930,,,,,37.51892850570731,126.93073095467217
"서울특별시 영등포구 도신로 215-1, 2-5층 (신길동)",C,0,,라메르산부인과의원,02-831-8387,,2000,0900,1900,0900,1900,0900,2000,0900,1900,0900,1600,0900,,,1300,1000,37.5119337912,126.9151919112
"서울특별시 영등포구 의사당대로 108, 3층 (여의도동, 아일렉스)",C,0,여의도역 6번 출구,로앤산부인과의원,02-782-3000,,2000,1000,1900,1000,1900,1000,1900,1000,1900,1000,1400,1000,,,,,37.5210146876,126.9239915211
서울특별시 영등포구 시흥대로175길 3 (대림동),C,0,구로디지털단지역 6번 출구에서 대림사거리방향 신한은행 뒷편,박금자산부인과의원,02-846-1503,,1700,0900,1700,0900,1700,0900,1700,0900,1700,0900,1300,0900,,,,,37.48770476743602,126.9044787109358
"서울특별시 영등포구 시흥대로 675, 3층 303호 (대림동, 삼성YJ그랜드빌딩)",C,0,"대림중학교,강남성심병원 인근",베스트산부인과의원,02-836-2233,,1800,0900,1800,0900,1800,0900,1800,0900,1800,0900,1300,0900,,,,,37.492016552,126.9084704909
"서울특별시 영등포구 영중로 51-1, 9층 (영등포동6가)",C,0,영등포시장역 4번 출구,세인산부인과의원,02-846-7878,,1800,0930,1800,0930,1800,0930,1800,0930,1800,0930,1230,0930,,,,,37.52094657308551,126.9046207167052
"서울특별시 영등포구 신풍로 33, 2층 (신길동)",C,0,,신풍산부인과의원,02-833-7378,,1830,0930,1830,0930,1830,0930,1830,0930,1830,0930,1600,0930,,,,,37.50034301823598,126.90999837418442
"서울특별시 영등포구 선유로 64, 2-5,7층 (문래동3가)",C,0,하나로마트 맞은편,아란태산부인과의원,02-2630-6600,,2000,0900,2000,0900,2000,0900,2000,0900,2000,0900,1700,0900,1230,0930,1230,0930,37.51962891251866,126.88968161113951
경기도 평택시 안중읍 안중로131번길 14-15,C,0,,안중산부인과의원,031-683-7366,,1800,0900,1800,0900,1800,0900,1800,0900,1800,0900,1400,0900,,,,,36.990069396114,126.92957345606305
"서울특별시 영등포구 대림로 153, 1층 (대림동, 이충호산부인과)",C,0,대림역 11번 출구,연세이충호산부인과의원,02-844-6106,,1800,0900,1800,0900,1800,0900,1800,0900,1800,0900,1500,0900,,,,,37.494427834851905,126.89981909987388
"서울특별시 영등포구 여의대방로 169, 3층 (신길동)",C,0,보라매역 6번출구 100m도보 직진,이상태산부인과의원,02-842-0199,,1830,0930,1830,0930,1830,0930,1830,0930,1830,0930,1300,0930,,,,,37.502161820837585,126.9208576078228
서울특별시 영등포구 당산로 222,C,0,당산역 10번 출구 앞 ,이화퀸산부인과의원,02-2675-7775,,2000,0930,1900,0930,1900,0930,1600,0930,1900,0930,1600,0930,,,,,37.533299113153845,126.90228064276789
"서울특별시 영등포구 영중로 6, 9층 (영등포동3가, 키스톤타워)",C,0,,자연산부인과의원,02-2671-9900,,1900,1000,1900,1000,1900,1000,1900,1000,1900,1000,1400,1000,,,,,37.51696215971975,126.90665281198264
서울특별시 영등포구 영중로2길 1,C,0,,지앤유산부인과의원,02-2068-5288,,2100,0930,2100,0930,2100,0930,2100,0930,1830,0930,1530,0930,,,,,37.51691201951941,126.9069128795646
서울특별시 영등포구 여의대방로 386  (여의도동),C,0,,김열회산부인과의원,02-780-3881,,1800,0930,1800,0930,1800,0930,2000,0930,1800,0930,1400,0930,,,,,37.51889677455607,126.9319436101711
"서울특별시 영등포구 도림로 178, 2층 (대림동)",C,0,,꽃세산부인과의원,02-836-5275,,1800,1000,1800,1000,1800,1000,1800,1000,1800,1000,1300,1000,,,,,37.4953299417,126.901125129
"서울특별시 영등포구 양평로 53, 6층(당산동5가, 코트론빌딩)",C,0,"2호선, 9호선 당산역 12번출구 그랜드컨벤션 건너편 국민은행 6층",플로체산부인과의원,02-2637-8852,,1900,0930,1900,0930,1900,0930,1900,0930,1900,0930,1400,0930,,,,,37.53431757091144,126.90041745974108
"서울특별시 동작구 사당로 308, 4층 (사당동, 화인빌딩)",C,0,"7호선 이수역 8번출구,4호선 총신대입구역 13번 출구",신수재산부인과의원,02-585-5222,,1830,0930,1830,0930,1830,0930,1830,0930,1830,0930,1300,0900,,,,,37.48490738146172,126.98157914593254
"경상남도 남해군 남해읍 화전로96번가길 4-2, 1층",C,0,국민건강보험공단옆,이경화산부인과의원,055-864-7353,,1730,0830,1730,0830,1730,0830,1730,0830,1730,0830,1230,0830,,,,,34.84008026762042,127.89518658288773
"서울특별시 마포구 잔다리로 81, 3~4층 (서교동)",C,0,,제이스엠비산부인과의원,02-324-9966,,2100,0900,1900,0900,1900,0900,1900,0900,2100,0900,1600,0900,,,,,37.554493861,126.9157457791
경기도 포천시 소흘읍 솔모루로 106,C,0,,루시나산부인과의원,031-543-3070,,1830,0900,1830,0900,1830,0900,1830,0900,1830,0900,1530,0900,,,,,37.8304386329,127.1488691897
경기도 포천시 소흘읍 송우로 62,C,0,,메리엘산부인과의원,031-541-0470,,1900,0900,1900,0900,1900,0900,1900,0900,1900,0900,1300,0900,,,,,37.82960388865818,127.14243659558777
경기도 포천시 중앙로 145  (신읍동),C,0,,박영자산부인과의원,031-535-8986,,1730,0930,1930,0930,1730,0930,1730,0930,1730,0930,1430,0930,,,,,37.899004534181806,127.20460149082601
"서울특별시 강남구 학동로 521 (청담동, 1층일부, 2~4층)",C,0,청담역 12번 출구,연앤네이쳐산부인과의원,02-518-1300,,2000,0900,1800,0900,1800,0900,1800,0900,2000,0900,1400,0800,,,,,37.5200456727,127.0557997663
"대전광역시 유성구 대학로 1, 3층 (봉명동)",C,0,유성온천역 사거리 주변,새순산부인과여성의원,042-825-0001,,1900,0900,1900,0900,1900,0900,1900,0900,1900,0900,1300,0900,,,1300,0900,36.35411404387486,127.34116677578024
서울특별시 동작구 사당로 215  (사당동),C,0,,연희산부인과의원,02-599-6600,,1800,0930,1800,0930,2000,0930,,,1800,0930,1400,0930,,,,,37.48444546932609,126.9723191085839
서울특별시 동작구 상도로 101-1 (상도동),C,0,성대시장입구,강미자산부인과의원,02-817-7002,,1830,0930,1830,0930,1830,0930,1830,0930,1830,0930,1500,0930,,,,,37.500663867092456,126.93162993743225
서울특별시 동작구 남부순환로 2053 (사당동),C,0,"사당역 7번출구 300미터
신한은행 옆 위치",이경림산부인과의원,02-581-2336,,1800,0900,1800,0900,1800,0900,1800,0900,1800,0900,1130,0900,,,,,37.47690197305291,126.9767875873511
서울특별시 동작구 사당로 230-1 (사당동),C,0,"남성역 1번출구에서 약100m직진, 남성시장근처",김성미산부인과의원,02-521-2411,,1800,0900,1800,0900,1800,0900,1800,0900,1800,0900,1500,0900,,,1300,1000,37.483305596850066,126.97324442779337
"서울특별시 동작구 동작대로 121, 6층 (사당동)",C,0,이수역 태평백화점 옆에 미샤건물 3층,이지은산부인과의원,02-535-3515,,1900,0930,1900,0930,1900,0930,1900,0930,1900,0930,1600,0930,,,,,37.4874807042,126.9818589295
"서울특별시 동작구 사당로 273, (사당동)",C,0,남성초등학교 삼거리,이춘식산부인과의원,02-599-7098,,1830,0900,1830,0900,1830,0900,1830,0900,1830,0900,1400,0900,,,,,37.48421836528387,126.97782100697955
"서울특별시 동작구 동작대로 21, 5층 (사당동, 양지빌딩)",C,0,사당역 10번 출구,루이스산부인과의원,02-521-3323,,2000,1000,2000,1000,2000,1000,2000,1000,2000,1000,1500,1000,,,,,37.4784813521,126.9813636536
"서울특별시 동작구 서달로 163, 5층 (흑석동, 세명크리닉)",C,0,흑석역 4번출구 중앙대병원 근처,혜윤산부인과의원,02-815-2778,,1830,0930,1830,0930,1830,0930,1300,0930,1830,0930,1300,0930,,,,,37.507883333333332,126.962422222222216
"서울특별시 강서구 양천로 556, 1-7층 (등촌동, 강서메디칼센터)",C,0,증미역 4번 출구 강서소방서 옆 ,미래아이산부인과의원,02-3665-2002,,2000,0900,2000,0900,2000,0900,2000,0900,2000,0900,1530,0830,,,1300,0900,37.557673865451754,126.8608260067538
서울특별시 강서구 양천로 460  (등촌동),C,0,가양역 10번출구,미산부인과의원,02-2659-7777,,1900,0900,1900,0900,1900,0900,1900,0900,1900,0900,1700,0900,,,,,37.562586611,126.8517016324
서울특별시 강서구 금낭화로 91-2 (방화동),C,0,대승프라자 4층,서울산부인과의원,02-2661-7755,,1830,0915,1830,0915,1830,0915,1830,0915,1830,0915,1300,0915,,,,,37.57370722738506,126.8110767201639
"경기도 용인시 수지구 포은대로313번길 4 (풍덕천동, 수지미래빌딩 지하2층~지하1층, 1층~5층)",C,0,수지초등학교 정문 부근,수지미래산부인과의원,031-896-3333,,2000,0900,2000,0900,2000,0900,2000,0900,2000,0900,1600,0900,1300,1000,1600,1000,37.31501671323358,127.08640940618126
"서울특별시 강서구 강서로 267, 송화쇼핑센터 2층 202호 (내발산동)",C,0,,세이산부인과의원,0226620550,,1800,0900,1800,0900,1800,0900,1800,0900,1800,0900,1400,0900,,,,,37.549598622551855,126.83594319722292
경상남도 밀양시 삼문중앙로 49  (삼문동),C,0,성구아파트,미즈산부인과의원,055-356-0025,,1800,0900,1800,0900,1800,0900,1800,0900,1800,0900,1230,0900,,,1230,0900,35.48597554809536,128.7570528816555
경상남도 밀양시 삼문중앙로 14 (삼문동),C,0,탑마트,아름다운자모산부인과의원,055-355-0348,,1800,1000,1800,1000,1800,1000,1800,1000,1800,1000,1300,1000,,,,,35.4837243291055,128.7540878635123
"서울특별시 강서구 마곡중앙5로 81, 502.503호 (마곡동, 에스비타운)",C,0,지하철 9호선 신방화역 부근,고운여성산부인과의원,02-2661-3009,,1930,0930,1930,0930,1930,0930,1930,0930,1930,0930,1300,0930,,,,,37.56711744045069,126.81859563401362
서울특별시 강서구 강서로 261 (내발산동),C,0,,김순애산부인과의원,02-2602-2914,,1800,0930,1800,0930,1800,0930,1800,0930,1800,0930,1300,0930,,,,,37.54918417749011,126.83595315868466
"서울특별시 강서구 강서로 52, 403호 (화곡동, 화곡판타지아)",C,0,,김정숙산부인과의원,02-2695-3335,,1830,1000,1830,1000,1700,1000,1830,1000,1830,1000,1600,1000,,,,,37.532490483227995,126.84669263622201
"서울특별시 강서구 강서로 43, 402,403호 (화곡동, 도양라비앙타워)",C,0,,김현영산부인과의원,02-2699-5225,,2100,1000,1900,1000,2100,1400,1900,1000,1900,1000,1400,1000,,,,,37.531520797785085,126.84653170360522
서울특별시 강서구 가로공원로 178 (화곡동),C,0,월정초교앞 교차로 요산페어뷰아파트 건너편,남장현산부인과의원,02-2695-1001,,1800,0900,1800,0900,1800,0900,1800,0900,1800,0900,1300,0900,,,,,37.53668514212349,126.83568186128204
"서울특별시 강서구 강서로 242, 2층 205호 (화곡동, 강서힐스테이트)",C,0,,한순심산부인과의원,0226031100,,1830,0930,1830,0930,1830,0930,1830,0930,1830,0930,1400,0930,,,,,37.54738330398159,126.83676281196502
"경기도 하남시 미사강변대로54번길 121, 연세아란빌딩 2~5층 (풍산동)",C,0,,연세아란산부인과의원,031-793-7000,,1800,0900,1800,0900,1800,0900,1800,0900,1800,0900,1600,0900,1300,0900,1300,0900,37.55791202080016,127.18884267068955
"충청북도 증평군 증평읍 광장로 89, 2층",C,0,,아름다운산부인과의원,043-836-5077,,1830,0900,1830,0900,1830,0900,1830,0900,1830,0900,1300,0900,,,,,36.78581513858502,127.58262747418133
울산광역시 남구 삼산중로 86 (삼산동),C,0,,손병민산부인과의원,052-273-7878,,1900,0900,1900,0900,1900,0900,1900,0900,1900,0900,1700,0900,,,,,35.541254077748505,129.33578891539577
울산광역시 남구 북부순환도로 10 (무거동),C,0,무거동 남운프라자 맞은편,순풍산부인과의원,052-222-8833,,1830,0930,1830,0930,1830,0930,1830,0930,1830,0930,1600,0930,,,,,35.550834178421894,129.26525589865554
경기도 용인시 처인구 금령로106번길 13-5 (김량장동),C,0,,금.란산부인과의원,031-335-1155,,1900,0930,1900,0930,1900,0930,1900,0930,1900,0930,1600,0930,,,1300,0930,37.234509752900855,127.20859250553533
"서울특별시 강서구 강서로 385, 우성에스비타워 7층 707호 (마곡동)",C,0,,아이비산부인과의원,02-2668-8998,,1700,1000,1700,1000,1700,1000,1700,1000,1700,1000,1400,1000,,,,,37.5600930886,126.8383060298
경기도 용인시 처인구 금령로71번길 16  (김량장동),C,0,,서울산부인과의원,031-321-3311,,1830,0930,1830,0930,1830,0930,1830,0930,1830,0930,1530,0930,,,1300,0930,37.23633365269064,127.20373901239401
"경기도 용인시 처인구 금학로 345 (김량장동,5층,6층)",C,0,,연세미즈산부인과의원,031-321-7227,,1830,0930,1830,0930,1830,0930,1830,0930,1830,0930,1500,0930,,,,,37.2370872261654,127.20207679226695
경기도 용인시 처인구 중부대로 1347 (김량장동),C,0,,용인제일산부인과의원,031-8031-0200,,2000,0900,2000,0900,2000,0900,2000,0900,2000,0900,1400,0900,1300,0900,1300,0900,37.23527612394543,127.19455307421403
"경기도 용인시 처인구 금령로 116 (김량장동, 용인타워 201호)",C,0,,한솔산부인과의원,031-339-4545,,1900,0930,1900,0930,1900,0930,1900,0930,1900,0930,1400,0930,,,1400,0930,37.23521867338656,127.20922551790458
"울산광역시 남구 삼산로 283, 7층 (삼산동)",C,0,삼산동 외환은행부근 소망빌딩7층,김성희산부인과의원,052-227-3606,,1830,0930,1830,0930,1830,1400,1830,0930,1830,0930,1300,0930,,,,,35.53973182380271,129.3379011134118
"울산광역시 남구 수암로 134, 일중학원 302호 (야음동)",C,0,,김은규산부인과의원,052-268-0003,,1900,0930,1900,0930,1900,0930,1900,0930,1900,0930,1400,0930,,,,,35.5272516622,129.3216941717
"서울특별시 강서구 양천로57길 16, 3층 (가양동, 영보빌딩)",C,0,9호선 가양역 1번출구 100m 도보 ,예나산부인과의원,02-3663-4774,,1840,1000,1840,1000,1840,1000,1840,1000,1840,1000,1600,1000,,,,,37.56337689075885,126.85250594490576
울산광역시 남구 삼산로 257 (달동),C,0,,김현진산부인과의원,052-256-5866,,1800,0930,1800,0930,,,1800,0930,1800,0930,1300,0930,,,,,35.539138888888886,129.335052777777776
"서울특별시 강서구 까치산로 73, 4층 (화곡동)",C,0,부영 아파트 인근,윤영혜산부인과의원,02-2608-0447,,1830,1000,1830,1000,1830,1000,1830,1000,1830,1000,1530,1000,,,,,37.545266666666670,126.846844444444443
울산광역시 남구 삼산로 266 (삼산동),C,0,삼산동 이바담8층,다나산부인과의원,052-266-9777,,1830,0930,1830,0930,2000,0930,1830,0930,1830,0930,1300,0930,,,,,35.538795196774785,129.33628775836877
"서울특별시 강서구 방화동로 56, 4동 202호 (방화동)",C,0,,이미영산부인과의원,02-2664-7285,,1800,1100,1800,1100,1800,1100,1800,1100,1800,1100,1500,1100,,,,,37.565298117114835,126.8121211585383
"서울특별시 강서구 공항대로 168, 5층 501,502호 (마곡동)",C,0,,이현주산부인과의원,02-2663-9663,,2000,0900,2000,0900,2000,0900,2000,0900,2000,0900,1300,0900,,,,,37.55927211017624,126.82613879590866
"울산광역시 남구 삼산로 247, 15~17층 (달동, 마마파파&베이비빌딩)",C,0,마마파파&베이비빌딩 15층,마마파파베이비산부인과의원,052-258-6006,,1730,0730,1730,0730,1730,0730,1730,0730,1730,0730,1400,0730,,,,,35.53909323604993,129.33411361063992
서울특별시 강서구 공항대로 36,C,0,,제이산부인과의원,02-2665-8500,,1900,0900,2000,0900,1900,0900,1900,0900,2000,0900,1600,0900,,,1300,1000,37.561096495219715,126.81117391939583
서울특별시 강서구 곰달래로 263 (화곡동),C,0,,중앙산부인과의원,02-2643-6047,,1900,1000,1900,1000,1900,1000,1900,1000,1900,1000,1700,1000,,,,,37.53243045246002,126.86232397085996
"경기도 고양시 일산동구 정발산로 38, 장항동이스턴시티 2층 208호 (장항동)",C,0,,로앤산부인과의원,031-905-2222,,2100,1000,2100,1000,2100,1000,2100,1000,2100,1000,1800,1000,,,1300,1000,37.6567158889,126.7731333131
경기도 고양시 일산동구 숲속마을1로 73,C,0,,문혜경산부인과의원,031-932-2299,,1830,0900,1830,0900,1300,0900,1830,0900,1830,0900,1300,0900,,,,,37.667642052061446,126.7998898135335
"경기도 고양시 일산동구 정발산로 47, 303호 (장항동, 웅신아트)",C,0,,민트산부인과의원,031-932-5525,,2000,1000,2000,1000,1800,1000,2000,1000,1800,1000,1400,1000,,,,,37.65775946676693,126.77375152428627
강원도 태백시 서황지로 4 (황지동),C,0,노동부 근처 중앙로 4거리,한마음산부인과의원,033-553-6901,,1800,0930,1800,0930,1800,0930,1800,0930,1800,0930,1300,0930,,,,,37.172018231057045,128.99013084320626
강원도 속초시 동해대로 4117 (조양동),C,0,,중앙산부인과의원,033-637-9887,,1800,0900,1800,0900,1800,0900,1800,0900,1800,0900,1300,0900,,,1300,0900,38.18925236410661,128.58397575748785
"경기도 수원시 영통구 봉영로1759번길 32 (영통동, 윈 산부인과)",B,0,,윈산부인과병원,031-201-9800,,2000,0900,2000,0900,2000,0900,2000,0900,1800,0900,1500,0900,,,,,37.26668958503025,127.08101602704578
"울산광역시 남구 대학로 138, 6층 (무거동, 신정빌딩)",C,0,무거동 신한은행 6층  여의사진료,윤혜정산부인과의원,052-277-9595,,1830,0930,1830,0930,1830,0930,1300,0930,1830,0930,1300,0930,,,,,35.54677430613901,129.26211965444412
울산광역시 남구 삼산로 166,C,0,달동 ck치과 맞은편,음현진산부인과의원,052-271-6788,,1800,0930,1800,0930,1800,0930,1800,0930,1800,0930,1300,0930,,,,,35.53655446116482,129.32551525568584
울산광역시 남구 수암로 130,C,0,수암시장과 홈플러스사이 경남은행3층,이브산부인과의원,052-276-8575,,1900,0900,1900,0900,1900,0900,1900,0900,1900,0900,1500,0900,,,1300,0900,35.52753412646303,129.32134422089348
"울산광역시 남구 삼산로 15, 2층 (신정동)",C,0,공업탑 애플팬시 옆 우리은행2층,이현정산부인과의원,052-256-1935,,1900,0930,1900,0930,1900,0930,1900,0930,1900,0930,1300,0930,,,,,35.53307760893232,129.3096085446177
울산광역시 남구 삼산로278번길 8,C,0,,좋은산부인과의원,052-261-1275,,1830,0900,1830,0900,1830,0900,1830,0900,1830,0900,1600,0900,,,,,35.53850608100725,129.337173243425
"울산광역시 남구 삼산로 136, 4층 (달동)",C,0,달동 우리은행4층,주영산부인과의원,052-257-3935,,1830,0930,1830,0930,1830,0930,1830,0930,1830,0930,1400,0930,,,,,35.53576890181015,129.3223265941266
"경기도 고양시 일산동구 고양대로 762, 2층 204~205호 (중산동)",C,0,,우성산부인과의원,031-976-7769,,1800,0900,1800,0900,1800,0900,1800,0900,1800,0900,1500,0900,,,,,37.68309255443913,126.77824953539607
울산광역시 남구 수암로 113,C,0,,한나산부인과의원,052-268-7901,,1830,0900,1830,0900,1830,0900,1830,0900,1830,0900,1300,0900,,,1300,0900,35.52886382219663,129.32004655864128
울산광역시 남구 중앙로 278-1 (신정동),C,0,신정동 동의대한방병원 옆,허동은산부인과의원,052-274-7002,,1730,0930,1730,0930,,,1730,0930,1730,0930,1200,0930,,,,,35.5456073553544,129.3102898907838
"서울특별시 강남구 언주로 707, 지하1층~11층 (논현동)",C,0,7호선 학동역 10번출구에서 직진 서울세관사거리 좌측,미래와희망산부인과의원,02-3446-0011,,1900,0800,1900,0800,1900,0800,1900,0800,1900,0800,1700,0800,,,,,37.5162225985,127.0350110748
"울산광역시 남구 삼산로 269, 7층 (삼산동, 탑텐크리닉)",C,0,현대백화점 정문 바로옆,고옥산부인과의원,052-257-0075,,1800,0930,1800,0930,1800,0930,1800,0930,1800,0930,1200,0930,,,,,35.53947517358971,129.3365367904272
"대구광역시 수성구 달구벌대로 2295, (수성동4가)",C,0,,하연옥산부인과의원,053-756-5060,,1800,0940,1800,0940,1800,0940,1300,0940,1800,0940,1300,0940,,,,,35.86006666666668,128.61359166666693
"경기도 성남시 분당구 야탑로81번길 10 206호(야탑동, 분당아미고타워)",C,0,,이현이산부인과의원,031-622-1675,,1730,0930,1730,0930,1730,0930,1300,0930,1730,0930,1400,0930,,,,,37.41059574096712,127.1282085119275
"경기도 성남시 분당구 대왕판교로606번길 41 301호 (삼평동, 프라임스퀘어) (삼평동)",C,0,,판교연세산부인과의원,031-698-3334,,1900,0930,1900,0930,1900,0930,1900,0930,1900,0930,1300,0930,,,,,37.39648066747378,127.1119310276203
"경기도 성남시 분당구 서현로 435, 2층 3호 (분당동)",C,0,,행복가득산부인과의원,031-708-5600,,1800,0900,1800,0900,1800,0900,1800,0900,1800,0900,1300,0830,1300,0900,1300,0900,37.37420021525847,127.14505902169202
"경기도 성남시 분당구 서현로210번길 14, 유성트윈프라자2차 305,306호 (서현동)",C,0,,이경미산부인과의원,031-781-0070,,1900,0930,1900,0930,1900,0930,1900,0930,1900,0930,1600,0930,,,,,37.386416614768066,127.12452530760083
"경기도 성남시 분당구 성남대로 912, 409호 (야탑동,비와씨빌딩)",C,0,,이유미산부인과의원,031-783-8770,,1830,0930,1830,0930,1830,0930,1300,0930,1830,0930,1400,0930,,,,,37.410969403442586,127.1292664332075
"경기도 성남시 분당구 황새울로 332 (서현동, 분당문화센터 5층일부)",C,0,,애플산부인과의원,031-8017-8322,,2100,1000,2100,1000,2100,1000,2100,1000,2100,1000,1800,1000,,,1600,1000,37.38553195640001,127.12233025250002
전라북도 군산시 상나운안길 61 (나운동),C,0,나운동 전북은행 옆,양지산부인과의원,063-467-0055,,1800,0900,1800,0900,1800,0900,1800,0900,1800,0900,1300,0900,,,1300,0900,35.96930465834014,126.69542844048243
"대구광역시 수성구 청수로 133, 황금동 JM타워 6층 (황금동)",C,0,,이리라산부인과의원,053-766-7770,,1800,0930,1800,0930,1300,0930,1800,0930,1800,0930,1300,0930,,,,,35.84036432177091,128.6229176974021
"대구광역시 수성구 달구벌대로 2397, 17층 (범어동, KB손해보험 대구빌딩)",C,0,,이은지마리산부인과의원,053-745-5888,,1930,0930,1300,0930,1930,0930,1800,0930,1930,0930,1530,0930,,,1200,0930,35.85976412260022,128.62489467134964
대구광역시 수성구 달구벌대로 2333,C,0,,정연주산부인과의원,053-652-3223,,1830,0930,1830,0930,1830,0930,1830,0930,1830,0930,1300,0930,,,,,35.85991928525434,128.61793263890203
"대구광역시 수성구 달구벌대로 3210, 5층 (신매동)",C,0,,정지영산부인과의원,053-721-6721,,1800,0900,1800,0900,,,1800,0900,1800,0900,1300,0900,,,,,35.839633345306446,128.70764130468308
대구광역시 수성구 지범로 59,C,0,,송소현산부인과의원,053-781-3268,,1800,1000,1800,1000,1800,1000,1800,1000,1800,1000,1400,1000,,,,,35.826007690837834,128.62941188705025
대구광역시 수성구 들안로 276,C,0,,주은희산부인과의원,053-764-3004,,1800,0930,1800,0930,1800,0930,1800,0930,1800,0930,1400,0930,,,,,35.85475046795403,128.61738935038457
충청북도 청주시 상당구 단재로 141-3 (영운동),C,0,영운사거리 부근,이화산부인과의원,043-223-6755,,1900,0900,1900,0900,1900,1400,1900,0900,1900,0900,1300,0900,,,1300,0900,36.61719839278424,127.49933895750566
충청북도 청주시 상당구 단재로 16,C,0,,진산부인과의원,043-255-3566,,1830,0930,1830,0930,1830,0930,1830,0930,1830,0930,1300,0930,,,,,36.62687081444068,127.49200901342515
"충청북도 청주시 상당구 용암북로160번길 18, 2~6층 (용암동)",C,0,,프라우삼성산부인과의원,043-255-2000,,1800,0930,1800,0930,1800,0930,1800,0930,1800,0930,1600,0930,,,1300,0930,36.62184382855351,127.51480947877687
경기도 평택시 중앙로 106 (합정동),C,0,,라마즈산부인과의원,031-618-9792,,1900,0900,1900,0900,1900,0900,1900,0900,1900,0900,1400,0900,,,,,36.99319192553078,127.09465329279116
충청북도 충주시 봉계1길 58,C,0,우리은행 옆,샘여성산부인과의원,043-856-5539,,1800,0900,1800,0900,1800,0900,1800,0900,1800,0900,1400,0900,,,,,36.98140964556283,127.91586699985295
충청북도 충주시 갱고개로 140 (연수동),C,0,,세브란스산부인과의원,043-857-9401,,1900,0930,1900,0930,1900,0930,1900,0930,1900,0930,1600,0930,,,1600,0930,36.98340684819996,127.93987650932494
"울산광역시 남구 삼산로 273, 삼산타워 12층 1201호 (삼산동)",C,0,,허인정 산부인과의원,052-256-0008,,1830,0930,1830,0930,1830,0930,1830,0930,1830,0930,1330,0930,,,,
"경상남도 창원시 마산합포구 해안대로 15 (해운동, 파라다이스빌딩)",C,0,롯데마트 부근,신세계산부인과의원,055-247-6007,,1830,0900,1830,0900,1830,0900,1830,0900,1830,0900,1400,0900,,,,,35.1805580649,128.5606019363
"경기도 안산시 단원구 선부광장1로 22, 3층,4층 (선부동, 한우리크리닉센타)",C,0,,열린산부인과의원,031-405-3572,,1900,0900,1900,0900,1900,0900,2100,0900,1900,0900,1600,0900,1300,0900,,,37.33599094282417,126.80774423569858
"경상남도 창원시 마산합포구 3·15대로 32 (월남동4가, 미래산부인과)",C,0,MH연세병원(경남대) 부근,미래산부인과의원,055-221-3777,,1900,0900,1900,0900,1900,0900,1900,0900,1900,0900,1600,0900,,,1300,0900,35.18276729911822,128.5595957251531
"경상남도 창원시 마산회원구 용마로 130, 메트로센텀 406호 (양덕동)",C,0,,박주현산부인과의원,055-715-2200,,1730,0900,1730,0900,1730,0900,1300,0900,1730,0900,1300,0900,,,,,35.22358361038385,128.5860885810207
경상남도 창원시 마산회원구 내서읍 경남대로 937 (고운맘산부인과의원),C,0,롯데마트 근처,고운맘산부인과의원,055-231-8118,,1800,0900,1800,0900,1800,0900,1800,0900,1800,0900,1300,0900,,,,,35.23378267583894,128.50414236780637
경상남도 창원시 마산합포구 용마로 53,C,0,,사마리아산부인과의원,055-241-0633,,1800,1000,1800,1000,1800,1000,1800,1000,1800,1000,1230,1000,,,,,35.21861832437773,128.5804703038279
경상남도 창원시 마산회원구 내서읍 삼계로 12,C,0,삼계농협 건너편,삼계중앙산부인과의원,055-232-8161,,1830,0900,1830,0900,1830,0900,1830,0900,1830,0900,1300,0900,,,,,35.232244137266946,128.50349888110367
경상남도 창원시 마산회원구 내서읍 호계본동로 17-2 (코오롱그랜드쇼핑),C,0,그랜드 상가 3층,삼성산부인과의원,055-232-3688,,1820,0940,1820,0940,1820,0940,1820,0940,1820,0940,1200,0930,,,1200,0930,35.26145164641592,128.52109116580831
인천광역시 연수구 용담로 135 (연수동),C,0,대동월드와 힘찬병원 중간지점에 위치한 건물 1층,김웅철산부인과의원,032-814-5252,,1830,0930,1830,0930,1830,0930,1830,0930,1830,0930,1400,0930,,,,,37.413853735206374,126.67946748890296
"인천광역시 연수구 청능대로 103, 3층 (연수동, 비와이씨빌딩)",C,0,롯데마트맞은편 BYC빌딩 3층,메디우먼산부인과의원,032-819-9990,,1930,0900,1900,0900,1900,0900,1900,0900,1900,0900,1400,0900,,,,,37.41375676065214,126.67628357777744
"인천광역시 연수구 먼우금로 189, 501호 (청학동, 소망빌딩)",C,0,,미래제일산부인과의원,032-245-0101,,2000,0900,2000,0900,2000,0900,2000,0900,2000,0900,1800,0900,,,,,37.4146250796,126.6758562181
경상남도 창원시 마산회원구 3·15대로 775  (합성동),C,0,새마을금고 근처,소피마르소산부인과의원,055-251-7785,,1800,0900,1800,0900,1800,0900,1800,0900,1800,0900,1500,0900,,,,,35.24089973888969,128.58410102299803
경상남도 창원시 마산회원구 3·15대로 771  (합성동),C,0,합성동에서구암동가는방향,메리놀산부인과의원,055-256-6556,,1800,0930,1800,0930,1800,0930,1800,0930,1800,0930,1300,0930,,,,,35.24058145399496,128.5839058945851
"인천광역시 연수구 독배로 35 (옥련동,IF빌딩 4층)",C,0,,솔이산부인과의원,032-834-1118,,1900,0930,1900,0930,1900,0930,1900,0930,1900,0930,1400,0930,,,,,37.423890806203154,126.64440936009302
전라북도 전주시 덕진구 가재미로 7 (인후동1가),C,0,예우랑 사거리에서 아중역 방면으로 30m직진,푸른산부인과의원,063-247-2114,,1800,0900,1800,0900,1800,0900,1800,0900,1800,0900,1400,0900,,,,,35.82582167152237,127.16336923309144
전라북도 전주시 덕진구 백제대로 818 (우아동3가),C,0,전주역앞,정성산부인과의원,063-244-4755,,1900,0900,1900,0900,1900,0900,1900,0900,1900,0900,1400,0900,,,,,35.84811723639973,127.15794622167433
경상남도 창원시 마산회원구 3·15대로 765-1  (합성동),C,0,간호학원 옆,하나산부인과의원,055-295-0246,,1900,0930,1900,0930,1900,0930,1900,0930,1900,0930,1330,0930,,,,,35.240143849269906,128.58346238483944
"전라북도 전주시 완산구 감나무4길 4, (서신동)",C,0,한일고정문 맞은편,진산부인과의원,063-251-0100,,1800,0930,1800,0930,1200,0930,1800,0930,1800,0930,1200,0930,,,,,35.83174747106374,127.12241182894539
"전라북도 전주시 완산구 용머리로 62, (효자동1가)",C,0,국민은행3층,차경연산부인과의원,063-224-8895,,1800,0900,1800,0900,1800,0900,1800,0900,1800,0900,1230,0900,,,,,35.80633020009765,127.11690501471075
경상남도 창원시 마산합포구 합포로 243,C,0,신세계백화점 옆,허성희산부인과의원,055-221-9777,,1800,1000,1800,1000,1800,1000,1300,1000,1800,1000,1400,1000,,,,,35.218854979458925,128.58691044100033
전라북도 전주시 완산구 모악로 4760 (평화동1가),C,0,코오롱아파트 정문 입구 좌측,참조은산부인과의원,063-223-0027,,2100,0900,2100,0900,2100,0900,2100,0900,2100,0900,2100,0900,1230,0900,2100,0900,35.79426771872587,127.13268763661493
경상남도 창원시 마산합포구 합포로 76 (오동동),C,0,오동동농협 부근,정산부인과의원,055-246-7712,,1800,0930,1800,0930,1800,0930,1800,0930,1800,0930,1300,0930,,,,,35.20582326591698,128.57937880502507
"경상남도 창원시 마산합포구 가포로 8 (해운동, 선진빌딩)",C,0,경남대학교 부근,정정은산부인과의원,055-243-0802,,1820,0930,1820,0930,1820,0930,1820,0930,1820,0930,1330,0930,,,,,35.17939342858434,128.5580988928484
전라북도 전주시 완산구 백제대로 137 (효자동1가),C,0,효자동 한국통신사거리 건너편에 위치,효자산부인과의원,063-223-6888,,1800,0900,1800,0900,1800,0900,1800,0900,1800,0900,1300,0900,,,,,35.80509101935742,127.1231686125223
서울특별시 광진구 광나루로 506 (구의동),C,0,구의사거리 인근,SC제일산부인과의원,02-447-3111,,1800,0900,1800,0900,1800,0900,1800,0900,1800,0900,1400,0900,,,,,37.5447188169,127.0856644719
인천광역시 연수구 앵고개로 254 (동춘동),C,0,동춘동소방서건너편,우리산부인과의원,032-818-5121,,2000,0900,2000,0900,2000,0900,2000,0900,2000,0900,1600,0900,1300,1000,1300,0900,37.40800759472905,126.67178689910851
전라북도 전주시 덕진구 건산로 71 (인후동2가),C,0,모래내사거리아름다운가게2층,안혜숙산부인과의원,063-271-1331,,1800,0900,1800,0900,1800,0900,1800,0900,1800,0900,1230,0900,,,,,35.83233044794026,127.14520191548658
"전라북도 전주시 덕진구 쪽구름1길 2, (동산동)",C,0,동산동 파출소 우측에 위치,에덴산부인과의원,063-212-8119,,1730,0930,1730,0930,1730,0930,1730,0930,1730,0930,1300,0930,,,,,35.87228705479842,127.07640891973227
경기도 안성시 중앙로 368 (석정동),C,0,"신협앞 , 예전 코오롱버스 터미널 자리",모아산부인과의원,031-674-7744,,1830,0930,1830,0930,1830,0930,1830,0930,1830,0930,1600,0930,1600,0930,1230,0930,37.007743205049046,127.2676326852265
"충청북도 청주시 상당구 월평로 182, (용암동)",C,0,,순풍산부인과의원,043-294-9555,,1900,0900,1900,0900,1900,0900,1900,0900,1900,0900,1600,0900,,,,,36.61007578870509,127.5044109262891
경기도 안성시 중앙로379번길 29 ,C,0,,이선경산부인과의원,031-674-2251,,1830,0930,1830,0930,1830,0930,1830,0930,1830,0930,1300,0930,,,,,37.00893853678051,127.26914200830541
충청북도 청주시 상당구 중고개로 333 (금천동),C,0,파리바게트 건물 3층,연세유정산부인과의원,043-250-0001,,1900,0900,1900,0900,1900,0900,1300,0900,1900,0900,1300,0900,,,1300,0900,36.63009148543143,127.50365976521958
"전라북도 전주시 완산구 온고을로 26, 301호 (서신동, 트윈폴리스)",C,0,롯데백화점 옆,미즈웰김영희산부인과의원,063-255-8575,,1800,1000,1930,1000,1800,1000,1230,1000,1800,1000,1230,1000,,,,,35.834197599683506,127.12012123517138
충청북도 청주시 상당구 중고개로 320  (금천동),C,0,,고운산부인과의원,043-285-7373,,1900,0900,1900,0900,1900,0900,1900,0900,1900,0900,1400,0900,,,,,36.630034308589124,127.50526658872559
"전라북도 전주시 완산구 당산로 54, 5층 (서신동)",C,0,새터비사벌@앞 뚜레쥬르건물5층,밝은산부인과의원,063-252-1260,,1800,0900,1800,0900,1800,0900,1800,0900,1800,0900,1300,0900,,,,,35.83200890131071,127.11410163950621
"전라북도 전주시 덕진구 송천중앙로 177, 2층 (송천동1가)",C,0,솔래고정문 맞은편 한일신경외과2층,백인숙산부인과의원,063-271-3500,,1730,0900,1730,0900,1730,0900,1730,0900,1730,0900,1200,0900,,,,,35.86280493666985,127.12134574461032
"전라북도 전주시 완산구 홍산로 250, 601,602호 (효자동3가)",C,0,체신청 앞 하이마트 우리들정형외과건물,새란산부인과의원,063-227-0135,,1830,0900,1830,0900,1230,0900,1830,0900,1830,0900,1400,0900,,,,,35.81599941957339,127.10637932549992
"전라북도 전주시 덕진구 솔내로 148, 4층 가402호 (송천동1가)",C,0,,은산부인과의원,063-252-1280,,1800,0930,1800,0930,1230,0930,1800,0930,1800,0930,1230,0930,,,,,35.863334098087414,127.12733973204837
전라북도 전주시 완산구 거마평로 57 (삼천동1가),C,0,완산소방서 사거리에서 천변방향,은혜산부인과의원,063-228-7576,,1800,0900,1800,0900,1800,0900,1800,0900,1800,0900,1230,0900,,,,,35.7977773997087,127.11667906375875
"대구광역시 수성구 달구벌대로 2492, 3층 (범어동)",C,0,,구수정산부인과의원,053-761-6363,,1800,0900,1800,0900,1800,0900,1800,0900,1800,0900,,,,,,,35.85843335663168,128.63519265298902
충청남도 예산군 예산읍 예산로 247,C,0,쌍송백 버스정류장 앞 ,제일산부인과의원,041-331-3575,,1800,0900,1800,0900,1800,0900,1300,0900,1800,0900,1300,0900,,,,,36.68067343387814,126.8520650890558
전라북도 전주시 완산구 유연로 313-1,C,0,서신동 부킹나이트근처,이승연산부인과의원,063-252-2882,,1830,0930,1830,0930,1830,0930,1830,1400,1830,0930,1300,0930,,,,,35.82543558130924,127.11992831387474
전라북도 전주시 덕진구 백제대로 630 (금암동) ,C,0,사대부고 사거리 이노병원 옆에 위치,이춘군산부인과의원,063-253-6633,,1800,0930,1800,0930,1800,0930,1800,0930,1800,0930,1400,0930,,,,,35.841988888888892,127.138519444444441
전라북도 전주시 완산구 백제대로 335 (중화산동2가),C,0,진북터널과 전주빙상경기장 사이,자인산부인과의원,063-223-3939,,1800,0900,1800,0900,1800,0900,1800,0900,1800,0900,,,,,,,35.823060266299805,127.12238078323207
"전라북도 전주시 덕진구 안덕원로 53, 3층 (진북동)",C,0,,선한산부인과의원,063-251-1006,,1800,0930,1300,0930,1800,0930,1800,0930,1800,0930,1300,0930,,,,,35.8282223712,127.1360973593
"전라북도 전주시 덕진구 송천중앙로 169, 2,3,4층 (송천동1가)",C,0,솔내고등학교 맞은편에 위치함,솔빛산부인과의원,063-277-3477,,1830,0900,1830,0900,1830,0900,1830,0900,1830,0900,1300,0900,,,,,35.862218390064285,127.12117766783552
"전라북도 전주시 덕진구 쪽구름로 74, 3층 (동산동)",C,0,,송희원산부인과의원,063-211-2334,,1830,0930,1830,0930,1830,0930,1230,0930,1830,0930,1230,0930,,,,,35.871960776575804,127.07647945737537
전라북도 전주시 덕진구 안덕원로 263 ,C,0,안골사거리 전북은행 옆,아름다운산부인과의원,063-241-2141,,1830,0900,1830,0900,1830,0900,1830,0900,1830,0900,1230,0900,,,,,35.83695153759227,127.15574280726491
전라북도 전주시 덕진구 무삼지로 79 (인후동1가),C,0,인후초등 정문 옆 위치,아중산부인과의원,063-244-5686,,1830,0900,1830,0900,1830,0900,1830,0900,1830,0900,1600,0900,1300,1000,1300,1000,35.832593755162904,127.16268364248256
"부산광역시 동래구 충렬대로 413, 6층 (안락동)",C,0,지하철 동해남부선 안락역 2번 출구,본메디산부인과의원,051-525-0800,,1900,0900,1900,0900,1900,0900,1900,0900,1900,0900,1300,0900,,,,,35.1968785069,129.1036168583
서울특별시 서대문구 연세로 12  (창천동),C,0,신촌역 3번출구 현대백화점유플렉스 신촌점 맞은편,로앤산부인과의원,02-326-5000,,2100,1000,2100,1000,2100,1000,2100,1000,2100,1000,1700,1000,,,1300,0900,37.5566335758,126.9372013744
서울특별시 서대문구 모래내로 239 (남가좌동),C,0,,문영환산부인과의원,02-373-1133,,1800,0900,1800,0900,1800,0900,1800,0900,1800,0900,1500,0900,,,,,37.575374488357284,126.92518156265987
"서울특별시 서대문구 통일로 131, 8층 (충정로2가, 공화당빌딩)",C,0,서대문역 2번출구 공화당빌딩 8층,미즈미산부인과의원,02-363-7677,,1900,0930,1900,0930,1900,0930,1900,0930,1900,0930,1600,0930,,,1300,0930,37.5661526581,126.9658620314
전라남도 장흥군 중앙로 23-1 (장흥읍) ,C,0,한국전력공사 건너편,장흥에덴산부인과의원,061-864-1155,,1700,0900,1700,0900,1700,0900,1700,0900,1700,0900,1200,0900,,,,,34.6780827770191,126.90799642044931
부산광역시 동래구 충렬대로 239,C,0,4호선 수안역 8번출구,강선영산부인과의원,051-553-7500,,1800,0900,1800,0900,1300,0900,1800,0900,1800,0900,1300,0900,,,,,35.20166716638532,129.08562319881173
부산광역시 동래구 명안로85번길 52,C,0,,고은산부인과의원,051-532-2778,,1840,0930,1840,0930,1840,0930,1840,0930,1840,0930,1330,0930,,,,,35.20490866293593,129.10183234603957
부산광역시 동래구 충렬대로 252 (수안동),C,0,4호선 수안역 8번출구,김지연산부인과의원,051-529-9167,,1830,0930,1830,0930,1830,0930,1830,0930,1830,0930,1400,0930,,,,,35.20093153138295,129.08666481880647
"서울특별시 서대문구 신촌로 107, 5층 (창천동)",C,0,,그대안에산부인과의원,02-363-2400,,2000,1000,2000,1000,2000,1000,2000,1000,2000,1000,1600,1000,,,,,37.5556536455,126.9378721848
"인천광역시 미추홀구 주안로 175, 3, 4층 (주안동)",C,0,인천시아동보호전문기관 옆,김용철산부인과의원,032-432-3582,,1830,0930,2100,0930,1830,0930,2100,1400,1830,0930,1400,0930,,,,,37.463206373309596,126.68948421846617
"서울특별시 서대문구 신촌역로 10, 2층 (대현동, 혜우빌딩)",C,0,해우빌딩 2층,이명아산부인과의원,02-364-8280,,1800,1000,1800,1000,1800,1000,1800,1000,1800,1000,1300,1000,,,,,37.557634905027456,126.94318080898307
서울특별시 서대문구 거북골로 120,C,0,가제울 센트리빌 상가 206동 209호,최아란산부인과의원,02-308-1781,,1730,1100,1730,1100,1730,1100,1300,1100,1730,1100,1330,1100,,,,,37.57546144158157,126.91554641386045
서울특별시 서대문구 연희로 98 (연희동),C,0,,홍영택산부인과의원,02-333-2129,,1800,1000,1800,1000,1800,1000,1800,1000,1800,1000,,,,,,,37.56664559259626,126.93100827412735
"서울특별시 서대문구 통일로39가길 30, 2층 (홍제동, 해명빌딩)",C,0,홍제역 4번출구,봄산부인과의원,02-394-7575,,2000,0900,1800,0900,1800,0900,1800,0900,2000,0900,1500,0900,,,,,37.58931372447173,126.9428532940107
"서울특별시 서대문구 신촌로35길 10, 지하1층 416,412호 (북아현동, e편한세상신촌4단지)",C,0,,사라산부인과의원,02-392-0030,,1900,0900,1900,0900,1900,0900,1400,0900,1900,0900,1400,0900,,,,,37.5586422818,126.9559736848
"인천광역시 미추홀구 매소홀로 448, 202호 (학익동, 대성빌딩)",C,0,학익동 신동아아파트 맞은편 건물 2층,현대산부인과의원,032-872-5353,,1900,0900,1900,0900,1900,0900,1900,0900,1900,0900,1300,0900,,,,,37.439533587989985,126.67177231238944
"서울특별시 서대문구 신촌로 99, 10층 (창천동)",C,0,신촌역 3번 출구,애플산부인과의원,02-393-3060,,2100,1000,2100,1000,2100,1000,2100,1000,2100,1000,1800,1000,,,1600,1000,37.5556893069,126.9371568973
"경기도 김포시 김포한강11로 147, 2-6층 (장기동, 은성프라자)",C,0,,모아제일산부인과의원,031-988-7004,,1800,0900,1800,0900,1800,0900,1800,0900,1800,0900,1600,0900,1300,1000,1300,1000,37.6461314451,126.6799653782
"서울특별시 광진구 아차산로 219, 3층 301호 (화양동, 삼영빌딩)",C,0,,건대와이(Y)산부인과의원,02-461-8120,,2100,1000,2100,1000,2100,1000,2100,1000,1900,1000,1700,1000,,,,,37.541126352135365,127.06793175591599
"서울특별시 광진구 광나루로 355, 3층 (군자동)",C,0,화양시장근처(3층),고려산부인과의원,02-462-7799,,1830,0930,1830,0930,1830,0930,1830,0930,1830,0930,1530,0930,,,,,37.54838592204096,127.0693462421633
서울특별시 광진구 능동로 103,C,0,건대입구역2번출구,소연산부인과의원,02-469-9777,,1900,0930,1900,0930,1900,0930,1900,0930,1900,0930,1330,0930,,,,,37.540337595433186,127.07049760303744
"서울특별시 광진구 뚝섬로 590, (자양동)",C,0,자양종합사회복지관 인근,권오상산부인과의원,02-454-5353,,1800,0930,1800,0930,1800,0930,1800,0930,1800,0930,1230,0930,,,,,37.533074999999997,127.075241666666670
서울특별시 광진구 아차산로 375,C,0,크레신타워. 구의역근처,아미산부인과의원,02-446-7557,,1830,1000,1830,1000,1830,1000,1400,1000,1830,1000,1400,1000,,,,,37.537088691816955,127.08439330191115
"서울특별시 광진구 면목로 139, 이남희산부인과 (중곡동)",C,0,중곡역2번출구,이남희산부인과의원,02-466-1235,,1830,0930,1830,0930,1830,0930,1830,0930,1830,0930,1500,0930,,,,,37.56583067377545,127.08099810904727
서울특별시 광진구 천호대로 635 (중곡동),C,0,삼성디지털프라자 중곡점 인근,전영미산부인과의원,02-454-2963,,1830,0930,1830,0930,1830,0930,1830,0930,1830,0930,1400,0930,,,,,37.55403318600302,127.0883097782611
서울특별시 광진구 아차산로 484,C,0,올림픽대교북단사거리근처,정경원산부인과의원,02-3436-7252,,1730,0930,1730,0930,1730,0930,1730,0930,1730,0930,1230,0930,,,,,37.54074908796245,127.0956625862119
"서울특별시 광진구 아차산로 241, 7층 (화양동, 연한빌딩)",C,0,"2,7호선 건대입구역 2번출구",로앤산부인과의원,02-469-3003,,2100,1000,2100,1000,2100,1000,2100,1000,2100,1000,1800,1000,,,1600,1000,37.54050516805157,127.07014894701835
인천광역시 남동구 호구포로 826 (구월동) ,C,0,모래마을사거리 올림픽 생활기념관 옆건물,다정산부인과의원,032-463-5500,,1900,0900,1900,0900,1900,0900,1900,0900,1900,0900,1500,0900,,,,,37.456185847437474,126.7198226836932
"서울특별시 광진구 아차산로 215, 2층 (화양동)",C,0,건대입구역1번출구 인근,주명희산부인과의원,02-467-9337,,2000,0930,1830,0930,2000,0930,1830,0930,2000,0930,1400,0930,,,,,37.5412058426,127.0675787944
"인천광역시 남동구 인하로 497-5, 9층일부호 (구월동, 푸른세상안과빌딩)",C,0,,로앤산부인과의원,032-568-5000,,1830,0930,1830,0930,1830,0930,1830,0930,1830,0930,1730,0930,,,,,37.44359736923527,126.70159568491363
"인천광역시 남동구 논고개로 71 , 301~303호,401~403호,503호일부호 (논현동, 가산타워 )",C,0,논현고잔동주민센터 부근,리앤아이산부인과의원,032-270-7777,,1800,0900,1800,0900,1800,0900,1800,0900,1800,0900,1600,0900,1300,1000,1300,1000,37.39801297021834,126.72684374907025
"서울특별시 광진구 자양로9길 13, (자양동)",C,0,혜민병원100m,퀸산부인과의원,02-457-3575,,1900,0930,1900,0930,1900,0930,1900,0930,1900,0930,1600,0930,,,,,37.53365899376547,127.08447518054422
인천광역시 남동구 논고개로123번길 17,C,0,,마이비산부인과의원,032-424-7007,,2000,0900,2000,0900,2000,0900,2000,0900,2000,0900,1400,0900,,,1300,0900,37.40168267262936,126.72307762999787
서울특별시 광진구 능동로 313 (중곡동),C,0,,하이맘산부인과의원,02-453-3331,,2000,0900,2000,0900,2000,0900,2000,0900,2000,0900,1600,0900,,,,,37.55777319926024,127.07947732315199
인천광역시 미추홀구 낙섬중로 39-1 (용현동),C,0,토지금고시장 입구 롯데리아 맞은편 건물 4층,인천제일산부인과의원,032-889-7575,,1900,0900,1900,0900,1900,0900,1900,0900,1900,0900,1400,0900,,,,,37.45183426299176,126.63745199442718
"인천광역시 남동구 인하로 497-8, 5층 (구월동,오아시스빌딩)",C,0,구월동 우리은행 근처 글라스박스 5층,박지원산부인과의원,032-427-0562,,1800,1000,1800,1000,1800,1000,1800,1000,1800,1000,1300,1000,,,,,37.44356256300311,126.70208854189046
인천광역시 미추홀구 경원대로 869 (주안동),C,0,구법원아래 르네상스빌딩 5층,주산부인과의원,032-420-0136,,1830,1000,1830,1000,1830,1000,1830,1000,1830,1000,1300,1000,,,,,37.46039601917697,126.68910023657005
"인천광역시 미추홀구 석정로 391 (주안동, 광운빌딩 201호)",C,0,주안뒷역 사거리 인근 천년부페 웨딩홀 근처 광운빌딩 2층,주안미산부인과의원,032-865-0270,,1830,0930,1830,0930,1300,0930,1830,0930,1830,0930,1600,0930,,,,,37.46714942068333,126.67899858145206
"인천광역시 남동구 남동대로 890, 202호 (간석동,탑메디칼)",C,0,올리브백화점 옆 실로암약국건물 2층(마을버스 정류장 앞),방금화산부인과의원,032-432-8275,,1830,0930,1830,0930,1830,0930,1830,0930,1830,0930,1400,0930,,,,,37.46187835453934,126.70861581661441
"인천광역시 남동구 백범로 179, 1~4층(만수동)",C,0,"만수기업은행 옆, 하이마트 건너편",아이미즈산부인과의원,032-463-7600,,2000,0900,2000,0900,2000,0900,2000,0900,2000,0900,1700,0900,1300,1000,1300,1000,37.45792412437014,126.72841181747058
"인천광역시 남동구 구월로 280, (구월동)",C,0,"모래마을사거리, 효성상아아파트맞은편 건물 4층",연세산부인과의원,032-465-6092,,1700,1000,1700,1000,1700,1000,1700,1000,1700,1000,1200,1000,,,,,37.45554032246253,126.72155885371597
"인천광역시 남동구 인주대로 865, 2층 (만수동,승창빌딩)",C,0,남동구청 사거리 십자육교 아래 쌍용자동차 건물 2층,한마음산부인과의원,032-467-3687,,1830,0930,1830,0930,1830,0930,1830,0930,1830,0930,1400,0930,,,,,37.448658274019586,126.73362126619801
"인천광역시 남동구 장승남로 46, 5층 (만수동)",C,0,만수6동 우체국 맞은편 건물 5층,한빛산부인과의원,032-466-3575,,1900,1000,1900,1000,1900,1000,1900,1000,1900,1000,1600,1000,,,,,37.443235081639074,126.73724305475255
"경기도 김포시 감정로 1, 3,4층 (감정동, 원정빌딩)",C,0,"하나로사거리 정다운내과건물3,4층",삼성산부인과의원,031-997-3575,,1900,0900,1900,0900,1900,0900,1900,0900,1900,0900,1600,0900,,,,,37.62319160057233,126.70014689213599
"경기도 김포시 고촌읍 김포대로 343, 지산빌딩 304호",C,0,,서울산부인과의원,031-981-9936,,1830,0900,1830,0900,1830,0900,1830,0900,1830,0900,1300,0900,,,,,37.60126651903932,126.769836576228
"경기도 김포시 북변중로 70, 1층 (북변동)",C,0,김포경찰서 맞은편 건물 1층,아이민산부인과의원,031-984-3379,,1800,0900,1800,0900,1800,0900,1800,0900,1800,0900,1300,0900,,,,,37.62716879580237,126.70957844514126
경기도 김포시 통진읍 김포대로2230번길 14-1 (2층),C,0,롯데슈퍼 뒷쪽 고려정형외과 3층,연세산부인과의원,031-988-3575,,1830,0900,1830,0900,1830,0900,1830,0900,1830,0900,1300,0900,,,,,37.690487699761036,126.59896037595104
"경기도 김포시 김포한강8로 396, 지오타워 4층 402호 (구래동)",C,0,,조은미래산부인과의원,031-992-6622,,2000,0900,2000,0900,2000,0900,2000,0900,2000,0900,1600,0900,1300,1000,1300,1000,37.6432777579,126.6251103539
"부산광역시 해운대구 재반로 82, 2층 (재송동, 장안빌딩)",C,0,버스정류장: 재송초등학교/장안빌딩 2층,김미란산부인과의원,051-781-7877,,1830,0930,1830,0930,1830,0930,1300,0930,1830,0930,1300,0930,,,,,35.186008333333334,129.12577500000341
"부산광역시 해운대구 좌동순환로 173, 301호 (좌동, 영풍프라자)",C,0,버스정류장: 해운대교육청,노선화산부인과의원,051-702-9009,,1800,0930,1800,0930,,,1800,0930,1800,0930,1300,0930,,,,,35.1781622062,129.1752833977
부산광역시 해운대구 재반로 213  (반여동),C,0,,다나산부인과의원,051-781-3900,,1830,0930,1830,0930,1830,1430,1830,0930,1830,0930,1330,0930,,,,,35.196237209302346,129.13065246097221
"인천광역시 미추홀구 미추로 56, 지하1, 1, 2층 (숭의동, 아이소망여성병원)",C,0,"도원역근처, 숭의동 공설운동장",아이소망산부인과의원,032-883-3643,,1830,0900,1830,0900,1830,0900,1830,0900,1830,0900,1600,0900,1600,1000,1600,1000,37.464971061,126.646077728
"경상남도 양산시 양산역6길 9, 6층,7층,8층 (중부동)",C,0,,미즈모아산부인과의원,055-365-0202,,2000,0900,2000,0900,2000,0900,2000,0900,2000,0900,1300,0900,,,1300,0900,35.337730093920875,129.02700393161533
경기도 안산시 상록구 샘골로 112 (본오동),C,0,,미즈피아산부인과의원,031-407-0077,,2000,0900,2000,0900,2000,0900,2000,0900,2000,0900,1700,0900,1300,1000,1300,1000,37.29376964865363,126.86321571975961
"경상남도 양산시 삼일로 68 (중부동, 3층)",C,0,구터미널근처,자모산부인과의원,055-386-8634,,1900,0900,1900,0900,1900,0900,1900,0900,1900,0900,1300,0900,,,,,35.34359691533954,129.03481390992303
서울특별시 강남구 강남대로 242 크리스탈빌딩 3층,C,0,양재역 3번출구 도보로 1분거리/크리스탈빌딩 3층,강남미즈힐산부인과의원,02-577-5488,,2000,1000,2000,1000,2000,1000,2000,1000,2000,1000,1700,1000,1500,1000,1500,1000,37.48543142923631,127.03412664530374
경상남도 양산시 덕계로 85  (덕계동),C,0,새마을금고,이인재산부인과의원,055-365-5547,,1830,0930,1830,0930,1830,0930,1830,0930,1830,0930,1300,0930,,,1300,0930,35.375199675400374,129.15189204473458
"경상남도 양산시 덕계로 115 (덕계동, 최선용소아과의원)",C,0,,순산부인과의원,055-388-0798,,1830,0900,1830,0900,1830,0900,1830,0900,1830,0900,1300,0900,,,,,35.377448009421094,129.15394245564468
"경상남도 양산시 양산역1길 24, 402호 (중부동, 영동프라자)",C,0,이마트 부근,백미경산부인과의원,055-387-9229,,1730,0930,1730,0930,1730,0930,1730,0930,1730,0930,1230,0930,,,,,35.33696915998256,129.02767116543075
"경상남도 양산시 서창로 193 (삼호동, 으뜸산부인과의원)",C,0,,으뜸산부인과의원,055-365-1400,,1900,0900,1900,0900,1900,0900,1900,1400,1900,0900,1300,0900,,,,,35.41654318675652,129.17277594557223
"부산광역시 해운대구 해운대로 407, 302호 (우동, 신세계프라자)",C,0,2호선 벡스코역 2번출구,강영미산부인과의원,051-741-7982,,1830,0930,1830,0930,1830,0930,1830,0930,1830,0930,1300,0930,,,,,35.1678387663,129.1406987575
부산광역시 해운대구 운봉길 3 (반송동),C,0,버스정류장: 동부산대학 입구 대로변 ,해원산부인과의원,051-545-1216,,1800,0900,1800,0900,1800,0900,1800,0900,1800,0900,1300,0900,,,,,35.230336111111114,129.149027777777775
"경기도 고양시 일산서구 중앙로 1565, 502호 (대화동, 메드위즈)",C,0,,채난희산부인과의원,031-911-7588,,1830,0930,1830,0930,1830,1400,1830,0930,1830,0930,1400,0930,,,,,37.675638894312314,126.74772492548274
"경기도 고양시 일산서구 중앙로 1416, 203,204호 (주엽동, 한사랑빌딩)",C,0,,한사랑김수련산부인과의원,031-922-7997,,1830,0900,2030,0900,1830,0900,1830,0900,2030,0900,1600,0900,,,,,37.669819730666255,126.76305094332284
"경기도 고양시 일산서구 중앙로 1426, 503,504호 (주엽동, 일송노블레스)",C,0,,백희수산부인과의원,031-922-9200,,1900,0930,1900,0930,1900,0930,1900,0930,1900,0930,1500,0930,,,,,37.670274025285636,126.76195700246711
"경기도 고양시 일산서구 덕이로 10 (덕이동, 지하1층 일부,1층, 2층일부, 3층)",C,0,,아이산산부인과의원,031-916-9400,,1800,0900,1800,0900,1800,0900,1800,0900,1800,0900,1600,0900,1300,0900,1300,0900,37.68934503614229,126.75828596529065
"경기도 고양시 일산서구 중앙로 1437, 507,508호 (주엽동, 화성프라자)",C,0,,연세미즈산부인과의원,031-916-8585,,1800,0930,1800,0930,1800,0930,1800,0930,1800,0930,1500,0930,,,,,37.6700900885618,126.76040683225994
경기도 고양시 일산서구 중앙로 1564,C,0,,일산연세리엔산부인과,031-912-8765,,1800,1000,1800,1000,1800,1000,2500,1000,1800,1000,1300,1000,,,,,37.67619548160213,126.74828998663514
"부산광역시 해운대구 해운대해변로298번길 15, A동 1층 (중동, 메디컬리조트)",C,0,버스정류장: 파라다이스호텔 건너편,브니엘산부인과의원,051--742-9977,,1900,0930,1900,0930,1900,0930,1900,0930,1900,0930,1700,0930,,,,,35.16116290770002,129.16544181980194
"부산광역시 해운대구 해운대로 369, 5층 (우동, 해운대센텀메디칼센타)",C,0,2호선 시립미술관역 8번출구/해운대센텀메디컬센터 5층,삼성제일산부인과의원,051-747-3999,,1800,0900,2000,0900,1800,0900,2000,0900,1800,0900,1300,0900,,,,,35.170177777777781,129.137722222222209
제주특별자치도 제주시 서광로 208-1 (삼도일동),C,0,<서사라 사거리 서측 삼화주유소옆>,이주영산부인과의원,064-756-1199,,1800,0900,1800,0900,1800,0900,1230,0900,1800,0900,1230,0900,,,1200,0900,33.49958843280326,126.51873270590211
"부산광역시 해운대구 선수촌로 102-2, 부원메디칼센타 4층 402호 (반여동)",C,0,버스정류장: 아시아선수촌아파트,서자영산부인과의원,051-525-0033,,1830,0930,1830,0930,1300,0930,1830,0930,1830,0930,1300,0930,,,,,35.20277753660002,129.11962264840167
"부산광역시 해운대구 해운대로 802, B동 302호 (좌동, 웅신시네아트)",C,0,2호선 장산역 9번출구/웅신씨네아트B동 3층 302호,최영주산부인과의원,051-704-2020,,1730,0940,1730,0940,1730,0940,1730,0940,1730,0940,,,,,,,35.16915479396808,129.17666756675157
부산광역시 해운대구 중동1로 30 (중동),C,0,2호선 해운대역 1번출구/세이브존 근처,해운대산부인과의원,051-746-0707,,1800,0900,1800,0900,1800,0900,1800,0900,1800,0900,,,,,,,35.162605826938694,129.16255676157425
경기도 고양시 일산서구 강선로 49,C,0,,김혜숙산부인과의원,031-915-9243,,1800,0930,1800,0930,1800,0930,1800,0930,1800,0930,1200,0930,,,,,37.66859067674436,126.76357189453127
대구광역시 동구 아양로 82-1,C,0,,강남아이산부인과의원,053-959-3555,,1900,0930,1900,0930,1900,0930,1900,0930,1900,0930,1330,0930,,,,,35.882833975423395,128.62296477554594
"대구광역시 동구 동촌로 303, 2,3,4,6층 (방촌동)",C,0,,경대여성산부인과의원,053-982-2242,,2030,0930,1830,0930,1830,0930,2030,0930,1830,0930,1500,0930,,,,,35.8791594281,128.672884616
대구광역시 동구 신암남로 183 (신암동),C,0,,고은미산부인과의원,053-952-7900,,1900,0930,1900,0930,1900,0930,1900,0930,2100,0930,1400,0930,,,,,35.885277777777780,128.632616666666678
대구광역시 동구 신암로 98,C,0,,다나산부인과의원,053-941-7500,,1830,0930,1830,0930,1830,0930,1830,0930,1830,0930,1530,0930,,,,,35.879436209202744,128.61080860566716
"대구광역시 동구 동부로22길 48, 유성푸르나임 203호,204호,205호 (신천동)",C,0,,대구함춘산부인과의원,053-248-8802,,1800,1000,1800,1000,1800,1000,1800,1000,1800,1000,1400,0900,,,,,35.8724363153,128.6262200222
대구광역시 동구 금강로 6,C,0,,동호파티마산부인과의원,053-965-8500,,1800,0900,1800,0900,1800,0900,1530,0900,1800,0900,1300,0900,,,,,35.86713631816541,128.72394746956152
"서울특별시 노원구 동일로 1669, 수락프라자 (상계동)",C,0,"7호선 수락산역 4,5번출구 사이 수락프라자빌딩 2층",미즈아이프라자산부인과의원,02-931-5224,,2300,0900,2300,0900,2300,0900,2300,0900,2300,0900,1900,0900,1900,0900,1900,0900,37.67746002177436,127.05489268765112
서울특별시 노원구 한글비석로 253  (중계동),C,0,은행사거리 우리은행2층,박경숙산부인과의원,02-933-9230,,1800,0930,1800,0930,1800,0930,1800,1400,1800,0930,1300,0900,,,,,37.650484659472156,127.07646913696748
서울특별시 노원구 동일로 1530,C,0,마들역 3번출구 근처,박규희산부인과의원,02-932-0700,,1800,0900,1800,0900,1800,0900,1800,0900,1800,0900,1300,0900,,,,,37.66508350173485,127.05805041129182
"서울특별시 노원구 덕릉로76길 29, 401호(중계동,마들빌딩)",C,0,중계1동 주민센터 인근,서울산부인과의원,02-951-5588,,1830,0930,1830,0930,1830,0930,1830,0930,1830,0930,1400,0930,,,,,37.65176348228797,127.0768781391038
"경기도 부천시 부일로 204, 502호 (상동, 루치올라빌딩)",C,0,송내역 북광장 경인문고건물 5층,프라임산부인과의원,032-328-8882,,1830,0930,1830,0930,2000,1400,1830,0930,1830,0930,1400,0930,,,,,37.4883395001663,126.75264495596886
"경기도 부천시 소사로 713, 2층 201호 (원종동)",C,0,원종사거리 롯데리아 옆 건물 ,희경산부인과의원,032-672-6057,,2000,1000,1700,1000,1700,1000,2000,1000,1700,1000,,,,,,,37.51965922552499,126.80452092530832
"서울특별시 노원구 덕릉로83길 10, 2/3층 (중계동)",C,0,상계역 1번 출구,김지호산부인과의원,02-939-0980,,1900,1000,1900,1000,1900,1000,1900,1000,1900,1000,1300,1000,,,,,37.65997721891624,127.07488061409187
"서울특별시 노원구 노해로 482, 7층(상계동,덕영빌딩)",C,0,노원역근처 우리은행 7층,남미현산부인과의원,02-938-5557,,1800,0900,1900,0900,1800,0900,1300,0900,1800,0900,1300,0900,,,,,37.65427261570629,127.06171580009483
"서울특별시 노원구 화랑로 321 , 2층 (월계동, 건안빌딩)",C,0,선한이웃병원근처,다사랑산부인과의원,02-912-2518,,1800,0930,1800,0930,1800,0930,1800,0930,1800,0930,1300,0930,,,,,37.614595853683056,127.06353599639271
"경기도 안양시 만안구 안양로 303, 708호 (안양동, 메세포스빌)",C,0,,이유진산부인과의원,031-448-3036,,1730,1000,1730,1000,1730,1000,1730,1000,1730,1000,1200,1000,,,,,37.39879570849762,126.92079025058091
"경기도 안양시 만안구 안양로 309, 7층 (안양동, 금강빌딩)",C,0,,이한희산부인과의원,031-449-3294,,1800,0930,1800,0930,1800,0930,1800,0930,1800,0930,1430,0930,,,,,37.399476603028816,126.92039201117579
경기도 안양시 만안구 안양로 283,C,0,,윤정산부인과의원,031-468-5577,,1800,0930,1800,0930,1800,0930,1800,0930,1800,0930,1400,0930,,,,,37.397583191977546,126.9219885019875
경기도 안양시 만안구 안양로 368  (안양동),C,0,,필산부인과의원,031-441-9111,,1800,0900,1800,0900,1800,0900,1800,0900,1800,0900,1800,0900,,,1500,1000,37.404174289521045,126.91740526226707
"충청남도 계룡시 엄사면 엄사중앙로 107-1,",C,0,국민은행근처,빈앤준산부인과의원,042-841-5168,,1800,0900,1800,0900,1800,0900,1230,0900,1800,0900,1230,0900,,,,,36.290396288220215,127.24248363095837
"서울특별시 노원구 상계로 65, (상계동)",C,0,노원역 9번 출구,연세산부인과의원,02-939-2231,,1830,0900,1830,0900,1830,0900,,,1830,0900,1600,0900,,,,,37.656355407036685,127.06224789120318
경상북도 칠곡군 왜관읍 중앙로2길 36,C,0,,다나산부인과의원,054-972-7367,,1800,0900,1800,0900,1800,0900,1800,0900,1800,0900,1300,0900,,,,,35.99189467784274,128.39840713851157
"대구광역시 동구 화랑로 87, (효목동)",C,0,,로사산부인과의원,053-255-2424,,1830,0900,1830,0900,1830,0900,1830,0900,1830,0900,1630,0900,,,,,35.872661111111114,128.636413888888882
서울특별시 노원구 한글비석로 384,C,0,상계역 1번출구,오승희산부인과의원,02-938-3313,,1800,0930,1800,0930,1800,0930,1800,0930,1800,0930,1200,0930,,,,,37.65987124432756,127.07320104653505
서울특별시 노원구 노해로 495,C,0,노원역4번출구,올리브산부인과의원,02-925-8861,,1930,1000,1900,1000,1900,1400,1930,1000,1900,1000,1300,0930,,,,,37.65510178586275,127.063097071881
"서울특별시 노원구 한글비석로 270, 스카이타워 (중계동)",C,0,,이가영산부인과의원,02-952-0997,,1900,0900,1900,0900,1900,0900,1900,0900,1900,0900,1400,0900,,,,,37.6515712309,127.077401454
서울특별시 노원구 노해로83길 4 (상계동),C,0,노원역 1번 출구,장애숙산부인과의원,02-938-6486,,1830,0930,1830,0930,1830,0930,1830,0930,1830,0930,1300,0930,,,,,37.65552888506312,127.06452276861265
"서울특별시 노원구 섬밭로 229 , 306호 (하계동, 극동,건영,벽산아파트)",C,0,벽산상가3층,제일산부인과의원,02-948-2870,,1900,0900,1900,0900,1900,0900,1900,0900,1900,0900,1600,0900,,,,,37.6366190323,127.0645381361
"대구광역시 동구 안심로 54, 1층 (율하동)",C,0,,수산부인과의원,053-961-7733,,1800,0900,1800,0900,1800,0900,1800,0900,1800,0900,1400,0900,,,,,35.87021826598679,128.69171726181884
"서울특별시 노원구 동일로 1059, (공릉동)",C,0,7호선공릉역3번출구에서 20m거리,퀸스메디산부인과의원,02-948-7588,,2000,0900,2000,0900,2000,0900,2000,0900,2000,0900,1600,0900,1300,1000,1300,1000,37.6245300843,127.0729872833
"서울특별시 노원구 동일로 1689, 207호(상계동,하이베라스)",C,0,수락산역6번출구 하이베라스 207호,큐빅산부인과의원,02-930-1450,,1800,0900,1800,0900,1800,0900,1800,0900,1800,0900,1500,0900,,,,,37.67912139854208,127.0549528594317
대구광역시 동구 동촌로 228-1,C,0,,우리산부인과의원,053-983-0707,,1830,0930,1830,0930,1830,0930,1830,0930,1830,0930,1500,0930,,,,,35.88133437915877,128.66513954704075
대구광역시 동구 안심로 106,C,0,,이지민산부인과의원,053-965-8181,,1830,0900,1830,0900,1830,0900,1830,0900,1830,0900,1300,0900,,,,,35.867020165625576,128.69613078689176
"대구광역시 동구 안심로 370, 5층 (신서동)",C,0,,이화산부인과의원,053-965-1275,,1800,1000,1800,1000,1800,1000,1800,1000,1800,1000,1300,1000,,,,,35.86797989834873,128.72493667698725
"대구광역시 동구 동촌로 242, 다산빌딩 3층 302호 (방촌동)",C,0,,정지영산부인과의원,053-984-3400,,1900,0900,1900,0900,1900,0900,1900,0900,1900,0900,1600,0900,,,,,35.88092185468573,128.6658970813953
서울특별시 노원구 화랑로 455 (공릉동),C,0,태릉입구역 6번출구 60m,홍성환산부인과의원,02-972-2718,,1830,0930,1830,0930,1830,0930,1830,0930,1830,0930,1300,0930,,,,,37.61868865183289,127.07773887591455
"서울특별시 노원구 노해로 485, 7층 (상계동, 금정빌딩)",C,0,노원역 4번출구 롯데백화점 후문근처 금정빌딩 7층,힐링산부인과의원,02-952-9100,,1900,0900,1900,0900,1300,0900,1900,0900,1900,0900,1300,0900,,,,,37.654875342565234,127.06193192287614
"대구광역시 동구 신암로 80, 2층 202호 (신암동)",C,0,,최성은산부인과의원,053-953-2600,,1830,0930,1830,0930,1300,0930,1830,0930,1830,0930,1400,0930,,,,,35.87826747054367,128.60943808665397
대구광역시 동구 아양로 251  (신암동),C,0,,한아름산부인과의원,053-958-8500,,1830,0900,1830,0900,1830,0900,1830,0900,1830,0900,1300,0900,,,,,35.887638897431536,128.64021822660504
대구광역시 동구 신암남로 177 (신암동),C,0,,현대산부인과의원,053-955-5400,,1001,1000,,,,,,,,,,,,,,,35.8850416793424,128.63237661426154
"경기도 안양시 만안구 안양로 300, 4층 (안양동)",C,0,삼영빌딩 4층 ,남연순산부인과의원,031-466-0035,,1800,0930,1800,0930,1900,0930,1700,0930,1800,0930,1400,0930,,,,,37.39911697070593,126.92155339244201
"충청남도 천안시 동남구 만남로 44, 3층 (신부동)",C,0,신부동 신세계백화점 맞은편 아홉가지약속치과 옆건물,애니산부인과의원,041-561-7799,,1900,0900,1900,0900,1900,0900,1900,0900,1900,0900,1400,0900,,,,,36.818563888888889,127.157102777777780
"충청남도 천안시 동남구 수곡2길 17-17, 1,2,3,4,6층 (신방동)",C,0,,연세하임산부인과의원,041-412-5500,,2000,0900,2000,0900,2000,0900,2000,0900,2000,0900,1600,0900,1300,1000,1300,1000,36.7907967611,127.1269397255
"경기도 구리시 건원대로 39-1 (인창동, 마리본산부인과(3층제외))",C,0,GS주유소 근처/윤서병원 근처,마리본산부인과의원,031-551-2700,,2000,0900,2000,0900,2000,0900,2000,0900,2000,0900,1500,0900,1330,0930,1330,0930,37.60453894459173,127.13966451822006
"경기도 안산시 단원구 중앙대로 459, 4층 (원곡동)",C,0,,고은산부인과의원,031-492-5700,,1900,1000,1900,1000,1900,1000,1900,1000,1900,1000,1700,1000,1700,1200,1700,1200,37.32808236473227,126.79028710457245
"경기도 부천시 경인로 522, 위드프러스타워 501호 (괴안동)",C,0,부천역곡남부역에서 소사역방향 200m,미즈아이산부인과의원,032-347-3500,,1900,0900,1900,0900,1900,0900,1900,0900,1900,0900,1400,0900,,,,,37.4831180210063,126.80833599166925
경기도 부천시 경인로 542 (괴안동),C,0,역곡남부역 홈플러스 바로 옆건물 1층,박영숙산부인과의원,032-343-2773,,1900,1000,1900,1000,1900,1000,1900,1000,1900,1000,1300,1000,,,,,37.48547069960127,126.81521125261588
"경기도 부천시 중동로 48, 302호 401호 (송내동, 대우프라자)",C,0,중동 남부역부근 대우프라자 4층,벨라산부인과의원,032-654-9900,,1800,0930,1800,0930,1800,0930,1800,0930,1800,0930,1400,0930,,,,,37.4843672239,126.7642257931
경기도 부천시 소사로 750 2층 (원종동),C,0,,부천중앙산부인과의원,032-672-3030,,1900,0900,1900,0900,1900,0900,1900,0900,1900,0900,1530,0900,,,1300,0900,37.52293510343849,126.80517130496104
"경기도 부천시 부흥로 270 (중동, (1~6층), 부흥로 268 (1층~3층,6층))",C,0,계남고등학교 근처,삼성미래산부인과의원,032-662-6100,,1800,0900,1800,0900,1800,0900,1800,0900,1800,0900,1600,0900,,,,,37.494781223323265,126.7725882301829
"충청남도 천안시 동남구 충절로 12, (신부동)",C,0,대한생명근처,김현경산부인과의원,041-556-1645,,1830,0930,1830,0930,1300,0930,1830,0930,1830,0930,1300,0930,,,,,36.81805604830867,127.15796317048216
충청남도 천안시 동남구 만남로 50,C,0,신세계백화점 맞은편 ,나무산부인과의원,041-622-8887,,2000,1000,2000,1000,2000,1000,2000,1000,2000,1000,,,,,,,36.818696008701856,127.15761977616032
"경기도 부천시 부일로 202-13, 4층 (상동,대명시티프라자)",C,0,송내역 주변. 대명시티프라자 4층,광장수진산부인과의원,032-328-9686,,1830,0900,1830,0900,1830,0900,1830,0900,1830,0900,1300,0900,,,,,37.48803335913579,126.75274094529651
"경기도 부천시 부천로 34, 2층일부 (심곡동)",C,0,"부천역 부근 경인문고, 농협 주변",김산부인과의원,032-666-6203,,1800,0930,1800,0930,1800,0930,1800,0930,1800,0930,1600,0930,,,,,37.48717242594095,126.7837328884819
"경상북도 칠곡군 북삼읍 금오대로 266,",C,0,,신세계산부인과의원,054-974-3200,,1900,0900,1900,0900,1900,0900,1900,0900,1900,0900,1600,0900,,,,,36.069008494741695,128.3469040180124
경기도 성남시 분당구 성남대로 385 ,C,0,,베일러이화산부인과의원,031-710-9670,,1830,0900,1830,0900,1830,0900,1830,0900,1830,0900,1500,0900,,,,,37.3705605194,127.1075121814
"대구광역시 수성구 지범로22길 9, 3층 (지산동,아주빌딩)",C,0,,대학산부인과의원,053-782-0010,,1830,0930,1830,0930,1830,0930,1830,1400,1830,0930,1600,0930,,,,,35.82115083934558,128.63912994871575
"경기도 성남시 분당구 성남대로 926, 403호 404호 (야탑동, 분당메트로빌딩)",C,0,"분당메트로빌딩 402,403호",분당여성산부인과의원,031-701-0462,,1830,0930,1830,0930,1830,0930,1830,0930,1830,0930,1500,0930,,,,,37.412563888888890,127.129211111111104
"경기도 성남시 분당구 내정로 29, 205호,206호 (정자동,금곡프라자)",C,0,,분당연세산부인과의원,031-711-1711,,1800,0900,1800,0900,1800,0900,1800,0900,1800,0900,1300,0930,,,,,37.36287002218774,127.11447742648698
대구광역시 수성구 화랑로 110 (만촌동),C,0,,리즈메디산부인과의원,053-756-7997,,1800,0900,1800,0900,1800,0900,1800,0900,1800,0900,1600,0900,,,,,35.87273808776086,128.63882254358566
경기도 성남시 분당구 미금로 45,C,0,,노성희산부인과의원,031-717-4288,,1800,1000,1800,1000,1800,1000,1800,1000,1800,1000,1300,1000,,,,,37.33736662815029,127.11582396472204
대구광역시 수성구 지범로 178 (지산동),C,0,,박수미산부인과의원,053-781-0787,,1800,0900,1800,0900,1800,0900,1800,0900,1800,0900,1500,0900,,,,,35.82136591879375,128.6385567994742
"경기도 성남시 분당구 돌마로 79, 3층 302~304호 (금곡동, 썬프라자)",C,0,,늘푸른산부인과의원,031-719-1004,,1830,0930,1830,0930,1830,0930,1830,0930,1830,0930,1430,0900,,,,,37.35039610348944,127.11080164462423
"경기도 성남시 분당구 판교역로 152, 알파돔타워 3층 303호, 304호 (백현동)",C,0,,더엘산부인과의원,070-8766-0815,,2100,1000,2100,1000,2100,1000,2100,1000,2100,1000,1800,1000,1600,1000,1600,1000,37.39426202230159,127.11036477013562
전라북도 완주군 이서면 기지로 56  ,C,0,,세나산부인과의원,063-228-8246,,1730,0900,1730,0900,2000,0900,1230,0900,1730,0900,1300,0900,,,,,35.83810183386215,127.05821957384589
"대구광역시 수성구 달구벌대로 2512, 3층 (범어동)",C,0,,서경란산부인과의원,053-753-5954,,1700,0930,1700,0930,1700,0930,1700,0930,1700,0930,1200,0930,,,,,35.85855850208461,128.63738262793575
"경기도 성남시 분당구 성남대로 168, 미도프라자 2층 202호 (금곡동)",C,0,,분당우리산부인과의원,031-713-3700,,2000,0900,2000,0900,1800,0900,2000,0900,2000,0900,1300,0900,,,,,37.3508874814,127.1094931268
충청북도 충주시 예성로 126 (용산동),C,0,,연세산부인과의원,043-854-3350,,1830,0930,1830,0930,1830,0930,1830,0930,1830,0930,1300,0930,,,,,36.96833200322732,127.9336909726905
충청북도 충주시 번영대로 77 (금릉동),C,0,,연수산부인과의원,043-854-4616,,1830,0930,1830,0930,1830,0930,1830,0930,1830,0930,1330,0830,,,,,36.98756888632411,127.92614401612012
대구광역시 수성구 달구벌대로 2570,C,0,,고민정산부인과의원,053-741-5080,,1800,0930,1800,0930,1800,0930,1930,1400,1800,0930,1600,0930,,,,,35.85846659398324,128.64450585799327
"경기도 부천시 부일로 226, 3층 (상동,대명그린프라자)",C,0,,수와진산부인과의원,032-322-0808,,1800,0900,1800,0900,1800,0900,1800,0900,1800,0900,1300,0900,,,,,37.488215630518205,126.75503230547443
경기도 부천시 길주로 237,C,0,은하효성쌍용아파트 맞은편 파랑새약국 건물 3층.,이박산부인과의원,032-323-3111,,1830,0900,1830,0900,1830,0900,1830,0900,1830,0900,1300,0900,,,,,37.50452483011881,126.7688209274284
"경기도 부천시 부천로90번길 8, 4층, (원미동)",C,0,대성병원 맞은편 건물 4층,이안산부인과의원,032-611-9935,,1830,0930,1830,0930,1830,0930,1830,0930,1830,0930,1500,0930,,,,,37.492096475395634,126.78474769705154
충청북도 충주시 중원대로 3417 (문화동),C,0,,이종수산부인과의원,043-847-9662,,1830,0900,1830,0900,1830,0900,1830,0900,1830,0900,1500,0900,,,,,36.972488888888890,127.922719444444439
"대구광역시 수성구 달구벌대로 3206, (신매동)",C,0,,고은산부인과의원,053-793-6776,,1900,0930,1900,0930,1900,0930,2000,0930,1900,0930,1500,0930,,,,,35.8397815706,128.7073567394
"대구광역시 수성구 달구벌대로 3207, 2층 (신매동,성진빌딩)",C,0,,구명숙산부인과의원,053-791-6400,,1830,0930,1830,0930,1300,0930,1830,0930,1830,0930,1300,0930,,,,,35.840345075503215,128.70777831794987
"대구광역시 수성구 청수로 188, 3층 (지산동)",C,0,,권수현산부인과의원,053-765-2060,,1800,1000,1800,1000,1800,1000,1800,1000,1800,1000,1300,1000,,,,,35.838736111111110,128.628544444444458
충청북도 충주시 번영대로 118,C,0,,최경남산부인과의원,043-855-3575,,1800,0900,1800,0900,1800,0900,1300,0900,1800,0900,1300,0900,,,,,36.986993937608176,127.93054003139403
"충청북도 충주시 번영대로 192, 2층 (연수동)",C,0,연수초 맞은편,충주산부인과의원,043-855-8011,,1800,0900,1800,0900,1800,0900,1300,0900,1800,0900,1300,0900,,,,,36.98688127251316,127.93897124414299
"대구광역시 수성구 국채보상로 800, 5층 (범어동)",C,0,,김성림산부인과의원,053-472-0800,,1900,0930,1830,0930,1830,0930,,,1900,0930,1500,0930,,,,,35.8675898856,128.6180878138
"서울특별시 마포구 신촌로 12, 2,3,4층 (동교동, 동우빌딩)",C,0,홍대입구역 5번출구/동교동삼거리 인근,진오비산부인과의원,02-3143-3595,,1700,0900,1700,0900,1700,0900,1700,0900,1700,0900,1300,0900,,,,,37.558087751303,126.92769325816064
"경기도 부천시 소사로 760 (원종동, 목천빌딩)",C,0,,이홍철산부인과의원,032-675-8453,,1900,0930,1900,0930,1900,0930,1900,0930,1900,0930,1300,0930,,,,,37.52396616895437,126.80516470627746
"경기도 성남시 분당구 황새울로342번길 23, 4층 402호 (서현동, 기영프라자)",C,0,,루비산부인과의원,031-704-3933,,1800,0900,1800,0900,1800,0900,1800,0900,1800,0900,,,,,,,37.3868991274,127.1246134467
"경기도 부천시 길주로 199 504,505호",C,0,중동 이마트 맞은편,에스미산부인과의원,032-341-5556,,1900,1030,1900,1030,1900,1030,1900,1030,1900,1030,1530,1000,,,,,37.505040852048125,126.76471270661091
"경기도 부천시 상동로 105, 402호 (상동, 현해프라자)",C,0,세이브존맞은편 현해프라자 4층,여성사랑산부인과의원,032-328-6673,,1800,1000,1800,1000,1800,1000,1800,1000,1800,1000,1300,1000,,,,,37.50669960998185,126.75280945743031
"경기도 성남시 분당구 돌마로 43, 메디파크빌딩 3층 (금곡동)",C,0,,메디파크산부인과의원,031-622-7800,,2000,0900,1800,0900,2000,0900,1800,0900,2000,0900,1400,0830,,,,,37.350432859665645,127.10653023878992
경기도 부천시 부일로 486 ,C,0,부천북부역,진희정산부인과의원,032-651-6439,,1900,1000,1900,1000,1900,1000,1900,1000,1900,1000,1700,1000,1800,1400,1800,1400,37.48549362782552,126.78409952354248
경기도 부천시 역곡로 466-1 (고강동),C,0,고강동국민은행 옆건물,차앤윤산부인과의원,032-672-5600,,1930,0930,1830,0930,1830,0930,1830,0930,1930,0930,1530,0900,,,,,37.52624104375883,126.81631444676539
"서울특별시 서초구 방배로 144, 1호 (방배동)",C,0,,김용훈산부인과의원,02-522-9988,,1830,0930,1830,0930,1830,0930,1830,0930,1830,0930,1500,0930,,,,,37.486674664683285,126.99463600190836
서울특별시 서초구 신반포로 157,C,0,9호선 고속터미널역 8-1출구 반포쇼핑타운 402호,김혜경산부인과의원,02-591-9091,,1800,1000,1800,1000,1800,1000,1800,1000,1800,1000,1500,1000,,,,,37.50549642845651,127.00148541518203
서울특별시 서초구 강남대로 515  (반포동),C,0,,나나산부인과의원,02-515-6104,,1800,1000,1800,1000,1800,1000,1800,1000,2000,1000,1400,1000,,,,,37.5080229346,127.0223262801
"서울특별시 서초구 서초중앙로 113, 7층 (서초동, 영한빌딩)",C,0,교대역 14번 출구,나무산부인과의원,02-6265-6000,,2000,1000,1900,1000,1900,1000,1900,1400,2000,1000,1400,0930,,,,,37.4918710074,127.0137411613
"서울특별시 서초구 강남대로 437, 5층 (서초동)",C,0,대원빌딩 6층,라임산부인과의원,02-592-7582,,2000,1000,1900,1000,1900,1000,1900,1000,1900,1000,,,,,,,37.501351251257674,127.02545469098552
"서울특별시 서초구 신반포로 257, 5층 (잠원동, 뉴타운)",C,0,반포역 6번출구,레이나산부인과의원,02-537-5200,,1900,0930,1900,0930,1900,0930,1900,0930,1900,0930,1400,0930,,,,,37.5086191048,127.0119345888
서울특별시 서초구 사평대로 353,C,0,신논현역 1번 출구,마리앤산부인과의원,02-512-5652,,1800,0930,1900,0930,1800,0930,1800,1400,1800,0930,1300,0900,,,,,37.503955796092384,127.0217203157321
"서울특별시 서초구 강남대로 535, 프린스빌딩 (반포동)",C,0,프린스빌딩 5층,마린산부인과의원,02-516-5530,,2000,1000,2000,1000,2000,1000,1300,1000,2000,1000,1430,1000,,,,,37.509605227847054,127.0215983814212
"서울특별시 서초구 서초중앙로 36, 준영빌딩 5층 501호 (서초동)",C,0,서울특별시 서초구 지하철 남부터미널역 1번출구 다이소건물 5층 서초하나산부인과의원,서초하나산부인과의원,02-3474-3700,,2130,0800,2130,0800,2130,0800,2130,0800,2130,0800,2000,0800,1400,0800,1400,0800,37.4855672437,127.0162094087
"서울특별시 서초구 서초대로77길 24, 강남 지웰타워2 8층 (서초동)",C,0,,쉬즈웰산부인과의원,02-564-2211,,2000,1000,2000,1000,2000,1000,2000,1000,2000,1000,1700,1000,,,,,37.50002125602344,127.02599252571657
"서울특별시 서초구 방배로 234, 지1층,2~5층 (방배동, 우신빌딩)",C,0,,아이투비산부인과의원,02-532-6400,,2000,0930,2000,0930,2000,0930,2000,0930,2000,0930,1500,0900,1300,1000,,,37.4941599338,126.9899086681
"서울특별시 서초구 서초대로77길 3, 6층 (서초동, 아라타워)",C,0,강남역 9번출구 ,애플산부인과의원,02-530-8500,,2100,1000,2100,1000,2100,1000,2100,1000,2100,1000,1800,1000,1600,1000,1600,1000,37.498220920583535,127.026527188622
"서울특별시 서초구 강남대로 435, 6층 (서초동,주류성빌딩)",C,0,,에이린산부인과의원,02-534-1131,,1930,1000,1930,1000,1930,1000,1930,1000,1930,1000,1600,1000,,,1300,1000,37.5011782414,127.0255631795
"서울특별시 구로구 개봉로 23, 고려크리닉센터 6층 (개봉동)",C,0,개봉역근처,김관수산부인과의원,02-2618-9817,,1800,0700,1800,0700,1800,0700,1800,0700,1800,0700,,,,,,,37.48776560806894,126.856042341499
"서울특별시 구로구 도림로23길 2, 3,4,5층 (구로동)",C,0,럭키아파트 인근,미래사랑산부인과의원,02-837-7511,,1830,0900,1830,0900,1830,0900,1830,0900,1830,0900,1530,0900,,,,,37.491102777777776,126.893450000000001
"서울특별시 서초구 반포대로 111, 보광빌딩 4층 (서초동)",C,0,,연세더블유산부인과의원,02-587-2330,,2000,0800,2000,0800,2000,0800,2000,0800,2000,0800,1700,0800,,,,,37.4899830093,127.008213733
"서울특별시 서초구 사임당로 180, 보원빌딩 2층 202호 (서초동)",C,0,,연세미시간산부인과의원,02-6254-3366,,1930,1000,1930,1000,1930,1000,1930,1000,1930,1000,1400,1000,,,,,37.49257817459575,127.02926922056265
"서울특별시 구로구 경인로 203, 3층 (오류동)",C,0,,김은주산부인과의원,02-2689-7500,,1900,0930,1900,0930,1400,1030,1900,0930,1900,0930,1400,0930,,,,,37.4960748115,126.8433881701
"서울특별시 구로구 경인로 322, 1,2,4,5층 (개봉동)",C,0,개봉사거리 인근,민전산부인과의원,02-2685-3388,,2000,0830,2000,0830,1730,0830,2000,0830,2000,0830,1600,0830,1300,0900,1300,0900,37.49705664447202,126.8559249935232
서울특별시 구로구 구로동로 35 (가리봉동),C,0,남구로역4번출구,박산부인과의원,02-862-0865,,1800,0900,1800,0900,1800,0900,1800,0900,1800,0900,1200,0900,,,,,37.48483205376604,126.88586141283323
"서울특별시 서초구 잠원로 24, 501호 (반포동, 자이프라자상가)",C,0,반포역 3번 출구,연이산부인과의원,02-596-0202,,1800,0930,1800,0930,1800,0930,1800,0930,1800,0930,1400,0930,,,,,37.507116419,127.009871399
"대전광역시 서구 도산로 158, 삼정빌딩 2층 (변동)",C,0,향우사거리,한사랑산부인과의원,042-533-5777,,1700,0930,1700,0930,1700,0930,1700,0930,1700,0930,1200,0930,,,,,36.32241114477545,127.37831722335318
"대전광역시 서구 대덕대로176번길 9, 2층 (둔산동)",C,0,미래여성병원 옆 건물 시온크리닉 2층,홍산부인과의원,042-361-1000,,1830,0900,1830,0900,1830,0900,1830,0900,1830,0900,1500,0900,,,,,36.348690949322915,127.3776604317216
"서울특별시 서초구 남부순환로350길 4, 3층 (양재동)",C,0,양재역 5번 출구,장은진산부인과의원,02-571-1516,,1800,0930,1800,0930,1800,0930,1300,0930,1800,0930,1400,0930,,,,,37.4843377475,127.0351770963
"서울특별시 서초구 동작대로 108 (방배동, 302호)",C,0,,오연수산부인과의원,02-3483-2255,,1830,1000,1830,1000,1830,1000,1830,1000,1830,1000,1300,1000,,,,,37.486134244332625,126.98264832623417
"서울특별시 관악구 신림로 344, 305호 (신림동)",C,0,,홍이경산부인과의원,02-883-3217,,1800,0930,1800,0930,1800,0930,1800,0930,1800,0930,1400,0930,,,,,37.48520520840519,126.92996612893398
"서울특별시 중랑구 망우로 233, 메디렌느산부인과 (중화동)",C,0,중랑역3번출구 나와서 로얄스포츠센터에서 100m,메디렌느산부인과의원,02-493-7987,,1800,0900,1800,0900,1800,0900,1800,0900,1800,0900,1600,0900,1300,0900,1300,0900,37.59485156334375,127.07850670276028
"대구광역시 북구 학정로 439, 305, 404호 (동천동)",C,0,,프라임산부인과의원,053-326-5900,,1830,0900,1830,0900,1830,0900,1830,0900,1830,0900,1600,0900,,,1300,0900,35.94387802389513,128.563319543086
충청남도 서산시 율지4로 5 (동문동),C,0,동문 2동 사무소 뒤 ,한마음산부인과의원,041-667-8900,,1800,0900,1830,0900,1800,0900,1800,0900,1830,0900,1300,0900,,,1300,0900,36.78036399702273,126.45987010691357
서울특별시 관악구 난곡로 274 (신림동),C,0,난곡우체국 맞은 편,박춘식산부인과의원,02-854-6715,,1830,0900,1830,0900,1830,0900,1830,0900,1830,0900,1500,0800,,,,,37.4785282403,126.9154286582
서울특별시 관악구 남부순환로 1470 (신림동),C,0,난곡사거리 인근,변산부인과의원,02-852-2361,,1800,0930,1800,0930,1800,0930,1800,0930,1800,0930,1400,0930,,,,,37.481352688073684,126.91388331634467
"서울특별시 관악구 난곡로 217, 3층 (신림동)",C,0,농협은행 난곡지점 인근,삼성산부인과의원,02-851-9600,,1800,0930,1800,0930,1800,0930,1800,0930,1800,0930,1500,0930,,,,,37.473886743043174,126.91742585383471
"서울특별시 관악구 남부순환로 1593, 2층 (신림동)",C,0,,선산부인과의원,02-875-4445,,1800,0900,1800,0900,1800,0900,1800,0900,1800,0900,1500,0900,,,,,37.4842709304412,126.92751378312519
"서울특별시 관악구 관천로 17, (신림동)",C,0,,신숙진산부인과의원,02-851-9393,,1830,0930,1830,0930,1830,0930,1830,0930,1830,0930,1430,0930,,,,,37.481704703360954,126.92831869073595
경기도 용인시 수지구 용구대로 2702,C,0,,에스더산부인과의원,031-264-2722,,1800,0900,1800,0900,1800,0900,1800,0900,1800,0900,1600,0900,,,,,37.32658935875728,127.10922749252292
서울특별시 중랑구 면목로 330 (면목동),C,0,,수아산부인과의원,02-495-3718,,1900,0900,1900,0900,1900,0900,1900,0900,1900,0900,1500,0900,,,,,37.58131503849999,127.08870425169998
"서울특별시 중랑구 망우로 214, 우도빌딩 (상봉동)",C,0,"중랑역 3번 출구 동부시장교차로 방향, 국민연금공단 건물 ",연세봄산부인과의원,02-493-5605,,1800,1000,1800,1000,1800,1000,1800,1000,1800,1000,1300,1000,,,,,37.59380770795106,127.0765308712885
"서울특별시 서초구 서초중앙로 142, 5층(서초동, 삼하빌딩)",C,0,교대역 6번 출구,이음산부인과의원,02-537-0939,,1900,1000,1500,1000,1900,1000,,,1900,1000,1500,1000,,,1500,1000,37.494566815000006,127.01379141099999
제주특별자치도 서귀포시 동문로 46 (서귀동),C,0,,제일산부인과의원,064-733-2312,,1800,0830,1800,0830,1800,0830,1800,0830,1800,0830,1200,0830,,,1200,0830,33.25014604177256,126.56517602794804
강원도 춘천시 중앙로 118 (소양로4가),C,0,춘천세무서 길건너편,미래산부인과의원,033-241-7677,,1900,0900,1900,0900,1900,0900,1900,0900,1900,0900,1400,0900,,,1300,1000,37.87674674749757,127.72200177333832
강원도 춘천시 경춘로 2348 (온의동),C,0,시외버스 터미널/이마트 육교 건너편,변미숙산부인과의원,033-256-5005,,1900,0900,1900,0900,1900,0900,1900,0900,1900,0900,1400,0900,,,,,37.862994444444446,127.719647222222221
"서울특별시 중랑구 사가정로52길 20 (면목동, 유산부인과의원)",C,0,"사가정역 3번출구 면목시장 시장가는방향
",유정옥산부인과의원,02-493-3329,,1830,0930,1830,0930,1830,0930,1830,0930,1830,0930,1400,0930,,,,,37.57995762869791,127.08697278612011
"서울특별시 중랑구 면목로 305, 3층 (면목동)",C,0,"사가정역 3,4번출구에서  100m",윤혜정산부인과의원,02-438-8118,,1800,0930,1800,0930,1300,0930,1800,0930,1800,0930,1300,0930,,,,,37.57971940167537,127.08746159714786
서울특별시 중랑구 동일로 634 (면목동),C,0,,이경희산부인과의원,02-434-4574,,1800,0900,1800,0900,2100,0900,1300,0900,1800,0900,1300,0900,,,,,37.587072222222226,127.080133333333336
"강원도 춘천시 금강로 72, 2층 (조양동, 흥안빌딩)",C,0,,수앤영산부인과의원,033-253-0005,,1800,0900,2000,0900,1300,0900,2000,0900,1800,0900,1400,0900,,,,,37.8788556526,127.7289013128
"강원도 춘천시 터미널길 21, 1-3층 (온의동)",C,0,이마트 주차장 입구,아름다운산부인과의원,033-244-7800,,1900,0900,1900,0900,1900,0900,1900,0900,1900,0900,1500,0900,1300,0900,1300,0900,37.86441103358057,127.71908582803338
"서울특별시 중랑구 망우로 411, B동 1, 7층 (망우동, 장스빌딩)",C,0,우림시장 국민은행부근,장스산부인과의원,02-490-4105,,2000,0730,2000,0730,2000,0730,2000,0900,2000,0730,1700,0730,1700,0900,1700,0900,37.59965211013455,127.09772635191852
"서울특별시 중랑구 동일로 861, 2층 (묵동, 정영희산부인과)",C,0,한전 동부지사 맞은편,정영희산부인과의원,02-977-3455,,1800,0930,1800,0930,1800,0930,1800,0930,1800,0930,1300,0930,,,,,37.60732521177756,127.07799885239828
서울특별시 중랑구 면목로 415 (면목동),C,0,면목역 3번 출구,정은숙산부인과의원,02-432-8291,,1800,0900,1800,0900,1800,0900,1800,0900,1800,0900,1300,0900,,,,,37.5890251303095,127.08709656013168
"서울특별시 중랑구 동일로 925, 7층 (묵동, 하태윤산부인과)",C,0,먹골역 7번출구,하태윤산부인과의원,02-975-7576,,1830,1000,1830,1000,1830,1000,1830,1000,1830,1000,1500,1000,,,,,37.6129769633229,127.07685855912558
강원도 춘천시 중앙로 82-1,C,0,중앙시장 서문 근처,춘천순산부인과의원,033-252-2345,,1800,0900,1800,0900,1800,0900,1800,0900,1800,0900,1200,0900,,,,,37.8784794909862,127.72514832291792
강원도 춘천시 퇴계로 189 (석사동),C,0,하이마트 건너편,호산부인과의원,033-264-1700,,1800,0900,1800,0900,1800,0900,1800,0900,1800,0900,1400,0900,1300,1000,1300,1000,37.85751585597424,127.7398107412495
부산광역시 동구 중앙대로221번가길 5  (초량동),C,0,1호선 부산역 7번 출구,홍순박산부인과의원,051-468-2726,,1730,1030,1730,1030,1730,1030,1730,1030,1730,1030,,,,,,,35.11713723884913,129.04016354972956
"전라남도 목포시 부흥로 97, 3층 (옥암동)",C,0,목포 하당 부영아파트 2차옆 신세계약국 3층,미래산부인과의원,061-284-3113,,1800,0930,1800,0930,1800,0930,1800,0930,1800,0930,1230,0930,,,,,34.804411274706915,126.43153511181526
"서울특별시 관악구 남부순환로 1619, 4층 (신림동, 영일빌딩)",C,0,신림역 8번 출구 스타벅스건물 4층,애플산부인과의원,02-886-8622,,2100,1000,2100,1000,2100,1000,2100,1000,2100,1000,1800,1000,,,1600,1000,37.484639698069834,126.93050030994457
전라남도 목포시 섶나루길 126 (상동),C,0,,삼성미산부인과의원,061-287-6000,,1800,0900,1800,0900,1800,0900,1800,0900,1800,0900,1300,0900,,,,,34.8110646157,126.4191526788
서울특별시 관악구 남부순환로 1942 ,C,0,낙성대역 1번 출구,엘산부인과의원,02-877-3114,,1750,1000,1750,1000,1750,1000,1750,1000,1750,1000,1350,1000,,,,,37.4763943578,126.9645100759
"서울특별시 관악구 과천대로 939, 르메이에르강남타운2 306,307,308호 (남현동)",C,0,,연세365산부인과의원,02-547-2876,,2100,0800,2100,0800,2100,0800,2100,0800,2100,0800,1800,0800,1400,1000,1400,1000,37.47437636267328,126.98143250354137
"서울특별시 관악구 시흥대로 570, 5층 501호 (신림동)",C,0,,연세W산부인과의원(구로점),02-866-9229,,2000,0930,1900,0930,2000,0930,1900,0930,2000,0930,1400,0930,,,,,37.48353867130276,126.90246578852454
경기도 평택시 비전5로 3 (비전동),C,0,,지엔산부인과의원,18005575,,2000,0900,2000,0900,2000,0900,2000,0900,2000,0900,1600,0900,,,1300,0900,36.9999244462839,127.11166612446297
"서울특별시 관악구 남부순환로 1605, 3층 (신림동)",C,0,신림역 5번 출구,연세쉬즈산부인과의원,02-882-8202,,2000,1000,2000,1000,2000,1000,2000,1000,2000,1000,1600,1000,,,1300,1000,37.4843757626,126.9290849676
"서울특별시 관악구 신림로 158, (신림동)",C,0,신림3교 양산교 사이,이진숙산부인과의원,02-875-3535,,1700,0800,1700,0800,1700,0800,1700,0800,1700,0800,1200,0800,,,,,37.472928515500556,126.93387548738941
"서울특별시 관악구 양녕로 46, 3층 305호 (봉천동, 메카플러스)",C,0,홈플러스 내에 있음,김정화산부인과의원,02-883-3307,,1800,0900,1800,0900,1300,0900,1800,0900,1800,0900,1400,0900,,,,,37.486140449899644,126.94728736169728
"서울특별시 관악구 봉천로 212, 4층 (신림동)",C,0,롯대백화점(관악점) 정문 맞은편,김지연산부인과의원,02-884-1852,,1800,0930,1800,0930,1800,0930,1800,0930,1800,0930,1300,0930,,,,,37.4896387679,126.9250590819
충청남도 논산시 중앙로 418,C,0,"다비치안경옆건물,응급시 후문으로",모아산부인과의원,041-734-3575,,1800,0900,1800,0900,1800,0900,1800,0900,1800,0900,1300,0900,,,,,36.20123048955465,127.08808619346328
서울특별시 관악구 남부순환로 1924,C,0,동림빌딩 201호,노영숙산부인과의원,02-889-9900,,1800,1000,1800,1000,1800,1000,1600,1000,1800,1000,1400,1000,,,,,37.47689597034768,126.96288430738846
"서울특별시 관악구 관악로 195, 314,315호 (봉천동, 관악위버폴리스)",C,0,,더영산부인과의원,02-876-7722,,1900,1000,1900,1000,1900,1000,2100,1400,1900,1000,1400,1000,,,,,37.4825640935,126.9530968067
"서울특별시 관악구 남부순환로 1599, 3층 (신림동)",C,0,신림역5번출구 300M앞,리즈산부인과의원,02-888-1218,,2000,1000,2000,1000,2000,1000,2000,1000,2000,1000,1700,1000,,,,,37.48431033348978,126.92817599966264
서울특별시 관악구 남부순환로 1831 (봉천동),C,0,2호선 서울대역 8번출구,모태산부인과의원,02-888-0204,,2000,0900,2000,0900,2000,0900,2000,0900,2000,0900,1700,0900,1700,0900,1700,0900,37.48119478701909,126.95367201381923
충청남도 논산시 중앙로 373-7 (취암동),C,0,논산공고 앞,정산부인과의원,041-735-2666,,1830,0900,1830,0900,1830,0900,1830,0900,1830,0900,,,,,,,36.19802647104603,127.09010679058207
충청남도 논산시 중앙로 473-1,C,0,농협은행 옆,제일산부인과의원,041-733-6944,,1800,0900,1800,0900,1800,0900,1800,0900,1800,0900,1300,0900,,,,,36.205180579181295,127.08405630489901
서울특별시 관악구 난곡로 297 (신림동),C,0,비전교회 인근,박산부인과의원,02-855-5655,,1800,0900,1800,0900,1800,0900,1800,0900,1800,0900,1400,0900,,,,,37.48048457833099,126.9145310372525
부산광역시 동구 진시장로 19,C,0,1호선 범일역 1번출구/부산진시장 근처,이명선산부인과의원,051-636-7975,,1900,0900,1900,0900,1900,0900,1900,0900,1900,0900,1300,0900,,,,,35.13726669815241,129.05866517923636
부산광역시 동구 고관로 115-2  (수정동),C,0,"1호선 부산진역 5,7번 출구",장미경산부인과의원,051-467-9015,,1800,0930,1800,0930,1800,0930,1800,0930,1800,0930,1300,0930,,,,,35.12914677598222,129.04664978665375
"전라남도 목포시 청호로 143, 2~3층 (산정동)",C,0,목포수협근처,에덴산부인과의원,061-278-8822,,1800,0930,1800,0930,1800,0930,1800,0930,1800,0930,1600,0930,,,,,34.80450439336759,126.37514940694595
전라남도 목포시 신흥로 32 (상동),C,0,하당동아아파트건너편 신한은행건물3층,이화산부인과의원,061-282-7582,,1830,0900,1800,0900,1800,0900,1800,0900,1800,0900,1250,0900,,,,,34.802385928165464,126.42445898051022
"전라남도 목포시 청호로 176, 4층 (산정동, 쥬빌리메디센터)",C,0,,정성일산부인과의원,061-274-7575,,1800,0830,1800,0830,1800,0830,1800,0830,1800,0830,1300,0830,,,,,34.80650164090755,126.37369613772637
"경상남도 김해시 번화1로80번길 5, 메카메디칼빌딩 2,3,4층 (대청동)",C,0,,장유산부인과의원,055-314-9995,,1900,0930,1900,0930,1900,0930,1900,0930,1900,0930,1500,0930,1200,0930,1200,0930,35.194715678066984,128.80001283685195
경상남도 김해시 인제로 159  (어방동),C,0,대우유토피아부근,중앙자모산부인과의원,055-325-6789,,1830,0900,1830,0900,,,1830,0900,1830,0900,1600,0900,,,,,35.242807378206436,128.90372538413845
경상남도 김해시 분성로 316 (서상동),C,0,왕릉공원근처,김해미래산부인과의원,055-334-6969,,1800,0900,1800,0900,1800,0900,1800,0900,1800,0900,1600,0900,1200,0900,1200,0900,35.2332230826,128.8805432731
경상남도 김해시 가락로 97 (서상동),C,0,영지요리학원 근처,김해산부인과의원,055-334-6789,,1730,0930,1730,0930,1730,0930,1730,0930,1730,0930,1300,0930,,,,,35.23517161300032,128.8811111057664
"경상남도 김해시 삼안로195번길 29, 2층 (삼방동, 가야메디칼)",C,0,홈플러스 근처,다사랑산부인과의원,055-331-1700,,1900,0900,1900,0900,1900,0900,1900,0900,1900,0900,1400,0900,,,,,35.244761544794194,128.90896475968788
경상남도 김해시 능동로 159 (부곡동),C,0,보건소근처,하정산부인과의원,055-314-5706,,1800,0930,1800,0930,1800,0930,1800,0930,1800,0930,1300,0930,,,,,35.20290840976962,128.80856824233115
경상남도 김해시 진영읍 진영로 211,C,0,신라장역앞,행복가득산부인과의원,055-345-7179,,1810,0930,1810,0930,1810,0930,1810,0930,1810,0930,1210,0930,,,,,35.30280484063227,128.7361172616122
"경상남도 김해시 삼계중앙로 56, 201호 (삼계동)",C,0,,새봄산부인과의원,055-334-5800,,1830,0830,1830,0830,1830,0830,1400,0830,1830,0830,1400,0830,,,,,35.260433539496304,128.8711207258449
경상남도 김해시 분성로 130 (외동),C,0,쌍용아파트 앞,황혜란산부인과의원,055-339-7575,,1800,0900,1800,0900,1800,0900,1130,0900,1800,0900,1130,0900,,,,,35.22996842887717,128.86098690836536
경상남도 김해시 계동로 203 (대청동),C,0,롯데마트 부근,오즈산부인과의원,055-312-0114,,1800,0900,1800,0900,1800,0900,1800,0900,1800,0900,1500,0900,,,1300,0900,35.19021880876285,128.80038746729434
"경기도 오산시 경기대로 154, 5층 (원동, 패션폴라리스)",C,0,패션폴라리스 5층,오산산부인과의원,031-374-8555,,2000,0900,2000,0900,2000,0900,2000,0900,2000,0900,1700,0900,1400,0900,1400,0900,37.13850636360508,127.07385035832905
경기도 오산시 대원로 34 (원동),C,0,,우먼필산부인과의원,031-378-5950,,2000,0930,2000,0930,2000,0930,2000,0930,2000,0930,1700,0930,1300,1000,,,37.146119539254045,127.07220086856436
"경기도 오산시 대원로 6, 3층 (원동)",C,0,,황운정산부인과의원,031-378-9452,,1800,0930,1800,0930,1800,0930,1800,0930,1800,0930,1400,0930,,,,,37.14619350717354,127.06904023555782
경기도 양주시 평화로 1415 (덕계동),C,0,,이화산부인과의원,031-865-1231,,1700,0900,1700,0900,1700,0900,2000,0900,1700,0900,,,,,,,37.81720416933552,127.04554228807562
서울특별시 성동구 고산자로 320 (마장동),C,0,예인교회 맞은편,호아맘산부인과의원,02-2291-2266,,2000,0900,2000,0900,2000,0900,2000,0900,2000,0900,1600,0900,,,1300,1000,37.56814466739583,127.03740337185283
서울특별시 성동구 무학봉15길 27,C,0,,고선용산부인과의원,02-2292-4411,,1815,0915,1815,0915,1815,0915,1815,0915,1815,0915,1400,0915,,,,,37.56139299791035,127.03478336915032
서울특별시 성동구 고산자로 207 (행당동),C,0,"5호선 행당역 3번 출구, 2호선 왕십리역 9번 출구, 무학여고앞 사거리",무학산부인과의원,02-2296-8077,,1900,1000,1900,1000,1900,1000,1900,1000,1900,1000,1300,1000,,,,,37.5586600987089,127.0336773306853
"서울특별시 성동구 왕십리로 356, 2,3층 (도선동)",C,0,,박산부인과의원,02-2299-2211,,1800,0930,1800,0930,1800,0930,1800,0930,1800,0930,1300,0930,,,,,37.56404165925848,127.03071427062042
"경기도 양주시 고암길 306-77 (덕정동, 황금프라자 4층)",C,0,,서울산부인과의원,031-861-5810,,1800,0900,1800,0900,1800,0900,1800,0900,1800,0900,1400,0900,,,,,37.83673610946923,127.06859604701418
"서울특별시 성동구 왕십리로 327, 4층 (하왕십리동)",C,0,왕십리역 11번출구 국민은행 왕십리지점 옆건물,연세더블유산부인과의원,02-2281-0045,,2000,1000,1900,1000,2000,1000,1900,1000,1900,1000,1500,1000,,,,,37.5623939619,127.0332262552
서울특별시 성동구 행당로 87,C,0,"행당역 1번출구
",이혜경산부인과의원,02-2282-1588,,1800,0930,1800,0930,1800,0930,1800,0930,1800,0930,1300,0930,,,,,37.55726084802186,127.02855237021413
"서울특별시 성동구 성덕정길 79, 1, 3층 (성수동2가)",C,0,성수역과 서울숲역 중간,자애산부인과의원,02-499-9961,,1830,0900,1830,0900,1830,0900,1830,0900,1830,0900,1400,0900,,,,,37.53804196570619,127.05254098200871
"서울특별시 성동구 독서당로 302, 1층 (금호동4가)",C,0,,정희수산부인과의원,02-2234-1049,,1800,0930,1800,0930,1800,0930,1800,1400,1800,0930,1300,0900,,,,,37.54783770660622,127.02254691085442
인천광역시 부평구 부평대로 9,C,0,부평구소방서 문화오피스텔근처,김명주산부인과의원,032-522-3313,,1800,0930,1800,0930,1800,0930,1800,0930,1800,0930,1400,0930,,,,,37.49212801617294,126.72262917658321
인천광역시 부평구 부평대로32번길 1 (부평동),C,0,부평문화의거리 근처 건물 3층,김영신산부인과의원,032-523-3330,,1900,1000,1900,1000,1900,1000,1900,1000,1900,1000,,,,,,,37.494430430606535,126.72306438786404
인천광역시 부평구 길주남로 86 (부평동),C,0,삼산동롯데마트에서 부평역쪽으로 300m,부평윤산부인과의원,032-525-3666,,1830,0930,1830,0930,1830,0930,1830,0930,1830,0930,,,,,,,37.504100000000001,126.731269444444450
인천광역시 부평구 마장로 398 (청천동),C,0,영아다방 사거리,나산부인과의원,032-527-3452,,1830,1000,2100,1000,1830,1000,1830,1000,1830,1000,1300,1000,,,,,37.51362577164078,126.70426475424042
인천광역시 부평구 마장로 446 (청천동),C,0,CGV근처 청천1치안센터 맞은편 건물,다나산부인과의원,032-522-5028,,1800,0900,1800,0900,1800,0900,1800,0900,1800,0900,1200,0900,,,,,37.51790181241039,126.70458157273492
"인천광역시 부평구 부평대로 93, 2,3층 (부평동)",C,0,부평시장역4번출구앞,삼성미즈산부인과의원,032-516-3838,,1900,0800,1900,0800,1900,0800,1900,0800,1900,0800,1500,0900,,,,,37.49969760391725,126.72161942529792
인천광역시 부평구 경원대로 1234 (산곡동),C,0,신촌초교 맞은편 예스약국 건물 4층,서울미즈산부인과의원,032-519-7511,,1830,0930,1830,0930,1830,0930,1830,0930,1830,0930,1500,0930,,,,,37.486923607089565,126.70823476340615
인천광역시 부평구 열우물로 45 (십정동),C,0,동암역 북광장 주변 농협 맞은편 건물 2층.,이화산부인과의원,032-428-3338,,1830,0930,1830,0930,1830,0930,1830,0930,1830,0930,1400,0930,,,,,37.47210953775249,126.7004197289463
부산광역시 북구 만덕대로 15 (덕천동),C,0,"2,3호선 덕천역 12번출구",자애산부인과의원,051-337-0487,,1800,0930,1800,0930,1800,0930,1800,0930,1800,0930,1600,0930,,,,,35.21072220470711,129.00669857496075
부산광역시 북구 만덕대로 14 (덕천동),C,0,"2,3호선 덕천역 9번출구",장윤희산부인과의원,051-335-6868,,1900,0930,1900,0930,1900,0930,1900,0930,1900,0930,1700,0930,,,1300,0930,35.21020269010282,129.00672531568367
"부산광역시 북구 금곡대로 312, 2층 (화명동)",C,0,2호선 화명역 6번출구/ 한마음메티칼센터 2층,정민섭산부인과의원,051-333-0019,,1800,0900,1800,0900,1800,0900,1800,0900,1800,0900,1300,0900,,,,,35.2359790335,129.0143502279
"경기도 화성시 효행로 1063, 301호 (진안동, 메디프렌드)",C,0,,미즈맘산부인과의원,031-223-0020,,1900,0930,1900,0930,1900,0930,1900,0930,1900,0930,1400,0930,,,,,37.21496412289638,127.04312084668746
"경기도 화성시 동탄지성로 139, 2~8층 (능동, 양진빌딩)",C,0,능동마을 능동 사거리(은행사거리),미즈파크산부인과의원,031-8003-7575,,1900,0900,1900,0900,1900,0900,1900,0900,1900,0900,1600,0840,1300,1000,1300,0900,37.20931908859999,127.0601439157
"경기도 화성시 봉담읍 동화길 81-10, 2층",C,0,,수아산부인과의원,031-297-3595,,1900,0930,1900,0930,1900,0930,1900,0930,1900,0930,1400,0930,,,,,37.2171842841,126.9586200064
"경기도 화성시 동탄반석로 196, 6층 601~603호 (반송동, 아이프라자)",C,0,,심현남동탄제일산부인과의원,031-8003-3388,,1700,0730,1700,0730,1700,0730,1700,0730,1700,0730,1300,0800,,,,,37.206127390579525,127.07250413427113
경기도 화성시 향남읍 삼천병마로 230,C,0,,씨엘산부인과의원,031-353-5969,,1900,0900,1900,0900,1900,0900,1900,0900,1900,0900,1530,0900,,,1300,0900,37.1334790902777,126.91130352929021
"경기도 화성시 동탄솔빛로 68, 301호 (반송동, 계림빌딩)",C,0,,김현미산부인과의원,031-613-7582,,1900,0930,1900,0930,1900,0930,1900,0930,1900,0930,1300,0900,,,,,37.19442293696587,127.07486260206755
"인천광역시 부평구 광장로 16, 6층 (부평동, 부평역사쇼핑몰)",C,0,부평역사쇼핑몰 6층,선이산부인과의원,032-505-7632,,1830,1000,1830,1000,1300,1000,1830,1000,1830,1000,1300,1000,,,,,37.4895692843,126.7233491683
인천광역시 부평구 부평대로 47 (부평동),C,0,"동아아파트 앞, (구)제일은행 맞은편 건물",성모산부인과의원,032-502-1001,,1900,0900,1900,0900,1900,0900,1900,0900,1900,0900,1700,0900,,,1300,0900,37.49558184767788,126.72226855791466
인천광역시 부평구 체육관로 34 (삼산동),C,0,삼산 7단지 주변 삼산체육관에서 코코호도 건물 3층.,수앤미산부인과의원,032-513-0147,,1900,0900,1900,0900,1900,0900,1900,0900,1900,0900,1300,0900,,,,,37.50826953776934,126.73551327736389
"인천광역시 부평구 부평대로 6, 8층 (부평동, 대신스카이프라자)",C,0,,애플산부인과의원,032-330-8870,,2100,1000,2100,1000,2100,1000,2100,1000,2100,1000,1800,1000,,,1600,1000,37.492121500717744,126.7235930485292
인천광역시 부평구 평천로 337 (갈산동),C,0,갈산동이마트 사거리 1층,파티마산부인과의원,032-511-7600,,1830,0930,1830,0930,1830,0930,1830,0930,1830,0930,1400,0930,,,,,37.518097222222224,126.727661111111118
인천광역시 부평구 부평대로 24  (부평동),C,0,부평역 주변 국민은행 옆 건물 4층.,필산부인과의원,032-528-0878,,1830,0930,1830,0930,1830,0930,1830,0930,1830,0930,1400,0930,,,,,37.49355683593204,126.7233249517337
"인천광역시 부평구 경원대로 1248, 3층 (산곡동, 정문빌딩)",C,0,2001 아울렛 건너편 새마을금고 옆 BC마트 건물 3층.,양선이산부인과의원,032-514-3575,,1800,0930,2030,0930,1800,0930,1800,0930,1800,0930,1600,0930,,,,,37.48809861248915,126.70915259671743
"충청남도 천안시 서북구 백석3로 130-14, (백석동)",C,0,백석동 현대아파트입구,고운빛산부인과의원,041-567-1188,,1830,0900,1830,0900,1830,0900,1830,0900,1830,0900,1400,0900,,,1300,0900,36.822136111111114,127.125758333333337
"충청남도 천안시 서북구 두정로 187, 2층 (두정동)",C,0,두정역에서 화이메트로 병원사이,쉬즈산부인과의원,041-554-7766,,1900,0900,1900,0900,1900,0900,1900,0900,1900,0900,1400,0900,,,1300,0900,36.83338052534381,127.14002752923295
"충청남도 천안시 서북구 미라11길 37, 2~5층 (쌍용동)",C,0,천안여상앞,에덴산부인과의원,041-578-3575,,1830,0900,1830,0900,1830,0900,1830,0900,1830,0900,1300,0900,,,,,36.804297301173904,127.13184326055744
충청남도 천안시 서북구 서부18길 23 (성정동),C,0,롯데마트 맞은편,광제산부인과의원,041-575-3200,,2000,0900,2000,0900,2000,0900,2000,0900,2000,0900,1600,0900,1300,1000,1300,0900,36.824280555555553,127.140230555555561
충청남도 천안시 서북구 두정로 204 (두정동),C,0,현대자동차사거리GS마트 맞은편,리즈앤마리안산부인과의원,041-523-6100,,1900,0900,1900,0900,1900,0900,1900,0900,1900,0900,1600,0900,,,,,36.83340266286017,127.13958813793221
제주특별자치도 제주시 고마로 146 (이도이동),C,0,선거관리위원회 연삼로 사거리 북측변에 위치,마리산부인과의원,064-755-2544,,1800,0900,1800,0900,1230,0900,1800,0900,1800,0900,1600,0900,,,1200,0900,33.50163389922135,126.54295460747443
"제주특별자치도 제주시 서사로 136, 3,4,5층 (삼도일동)",C,0,,헤리티지산부인과의원,064-759-7838,,1800,0900,1800,0900,1800,0900,1800,0900,1800,0900,1300,0900,,,,
"경기도 화성시 향남읍 행정중앙2로 69-17, 3~5층 (HB메디컬빌딩)",C,0,3층~5층,해피본산부인과의원,031-8059-8866,,2000,0900,2000,0900,2000,0900,2000,0900,2000,0900,1600,0900,1300,0900,1300,0900,37.130283004444124,126.92287156997601
"경기도 화성시 봉담읍 삼천병마로 1344, 1,2,3,5층",C,0,,지엠산부인과의원,031-278-7373,,1800,0900,1800,0900,1800,0900,1800,0900,1800,0900,1600,0900,1300,1000,1300,1000,37.22442679869595,126.95349152719609
"충청남도 천안시 서북구 검은들3길 58, 304호 (불당동, 메가클래스블루)",C,0,불당동 현대아이파크 정문에 있는 하나은횅 건물 3층,이룸산부인과의원,041-522-8305,,1830,0900,1830,0900,1830,0900,1830,0900,1830,0900,1400,0900,,,,,36.809935369635824,127.10983413440711
"충청남도 천안시 서북구 불당33길 24, 701호 (불당동)",C,0,,이은희산부인과의원,041-567-0020,,1800,0900,1800,0900,1800,0900,1800,0900,1800,0900,1300,0900,,,,,36.8123771009,127.1081924159
충청남도 천안시 서북구 월봉로 122 (쌍용동) 403호,C,0,용암마을아파트 맞은편 하나은행건물4층,미소인류시나산부인과의원,041-577-3575,,1900,0900,1900,0900,1900,0900,1900,0900,1900,0900,1600,0900,,,,,36.801485055681304,127.1189029134511
"충청남도 천안시 서북구 동서대로 125-3, 4층 403호 (성정동, 천안크리닉)",C,0,하나은행 건물 4층,미소진산부인과의원,041-522-7588,,1900,0900,1830,0900,1830,0900,1830,0900,1830,0900,1300,0900,,,,,36.82630389898825,127.13689816801476
충청남도 천안시 서북구 성정로 91,C,0,주공5단지 정문옆,미즈산부인과의원,041-575-6288,,1830,0930,1830,0930,1830,0930,1830,0930,1830,0930,1300,0930,,,,,36.81380121255979,127.14017603996209
충청남도 천안시 서북구 성정공원1길 9-13 (성정동),C,0,"성정동 롯데마트 근처 신한은행과 백석대학교빌딩 사이, ",퀸스산부인과의원,041-569-2000,,2000,0900,2000,0900,2000,0900,2000,0900,2000,0900,1700,0900,1300,0900,1300,0900,36.82648306884477,127.13780866234656
충청남도 천안시 서북구 미라2길 18-11 (쌍용동),B,0,미라초등학교 앞,혜성산부인과병원,041-572-4567,,1900,0900,1900,0900,1900,0900,1900,0900,1900,0900,1700,0900,1300,0900,1300,0900,36.800849350508415,127.13046135611267
"충청남도 천안시 서북구 성정중7길 3, 4층 (성정동)",C,0,두정동 늘 푸른 극동아파트 맞은편 ,수연산부인과의원,041-621-5501,,1830,0930,1830,0930,1830,0930,1830,0930,1830,0930,1400,0930,,,,,36.828803061212355,127.13358064932166
"충청남도 홍성군 홍북읍 홍학로 95, 아이프라자 2 403호",C,0,,내포산부인과의원,041-632-3550,,1830,0900,1830,0900,1830,0900,1830,0900,1830,0900,1400,0900,,,,,36.6468470756,126.6764635773
충청남도 홍성군 홍성읍 조양로 169-1,C,0,신한은행 건물 3층 ,참산부인과여성의원,041-632-5050,,1830,0900,1830,0900,1830,0900,1830,0900,1830,0900,1300,0900,,,,,36.601236024939254,126.66866463604774
"충청남도 홍성군 홍성읍 내포로 8, 4층 (하나빌딩)",C,0,,한만봉산부인과의원,041-631-3010,,1800,0830,1800,0830,1800,0830,1300,0830,1800,0830,1300,0830,,,,,36.6009184885,126.6661810471
광주광역시 남구 독립로 168 (월산동),C,0,구 월산파출소 옆 월산 사거리,우리산부인과의원,062-367-2277,,1600,0900,1600,0900,1600,0900,1600,0900,1600,0900,1300,0900,,,,,35.148547222222220,126.904247222222224
"광주광역시 남구 봉선2로 85, 봉선빌딩 3층 (봉선동)",C,0,봉선동 삼익1차 아파트 사거리 우체국건물4층,조은영산부인과의원,062-651-3575,,1800,1000,1800,1000,1230,1000,1800,1000,1800,1000,1230,1000,,,,,35.1259062449186,126.91181608764502
"경기도 광명시 오리로 378 3층 (소하동,인덕빌딩)",C,0,3층,강윤철산부인과의원,02-897-6851,,1800,0930,1800,0930,1800,0930,1800,0930,1800,0930,1300,0930,,,,,37.43612446956059,126.87970268689975
"경기도 광명시 광명로 906 7-8층 (광명동, 현대아이타워)",C,0,,순풍산부인과의원,02-2615-3151,,1900,0900,2000,0900,1900,0900,1900,0900,1900,0900,1700,0900,1300,0900,1300,0900,37.47974163117264,126.85489548959165
경기도 광명시 철산로 28 2층 (철산동),C,0,,신효경산부인과의원,02-2613-0613,,1830,0900,2000,0900,1830,0900,1830,0900,2000,0900,1500,0900,,,,,37.47610758627901,126.86932814561785
"경기도 광명시 소하로109번길 22, 1~3층 (소하동)",C,0,,닥터마레산부인과의원,02-898-0075,,1830,0930,1830,0930,1830,0930,1830,0930,1830,0930,1600,0900,,,,,37.447789348380915,126.88549277251098
"경기도 광명시 오리로 865, 4층 (철산동, 철산빌딩)",C,0,,로앤산부인과의원,02-2615-0021,,2100,1000,2000,1000,2000,1000,2000,1000,2000,1000,1600,1000,,,,,37.4752423057,126.8658340773
"경기도 광명시 오리로 889, 2층-6층 (철산동)",C,0,2층~6층.,이즈맘산부인과의원,02-2066-3588,,2000,0900,2000,0900,2000,0900,2000,0900,2000,0900,1600,0900,1300,0900,1300,0900,37.476306541026894,126.86369646424158
"경기도 광명시 범안로 1062, 천일빌딩 1~4층, 6층 (하안동)",C,0,천일빌딩 1~4층,미래여성산부인과의원,02-806-1001,,1900,0930,1900,0930,1900,0930,1900,0930,1900,0930,1400,0900,,,1300,0930,37.46274865901277,126.8807361235631
"전라남도 순천시 이수로 319, LG텔레콤 3층 (조례동)",C,0,조례삼거리 피자헛옆 서울우리병원 2층,나산부인과의원,061-743-7733,,1800,0900,1800,0900,1800,0900,1800,0900,1800,0900,1230,0900,,,1200,0900,34.95280397264576,127.51653245688269
"서울특별시 도봉구 도봉로 480, 3층 (창동)",C,0,4호선 쌍문역 2번출구 앞,한종수산부인과의원,02-905-5252,,1800,0900,1800,0900,1800,0900,1800,0900,1800,0900,,,,,,,37.648355133055404,127.03488717137993
"전라북도 군산시 백토로 98, (문화동)",C,0,삼성아파트 맞은편(현대코아옆),김인숙산부인과의원,063-468-2993,,1830,0900,1830,0900,1830,0900,1830,0900,1830,0900,1300,0900,,,,,35.970461111111113,126.705511111111107
"서울특별시 도봉구 도봉로 677, 202호 (방학동, 우리들메디빌딩)",C,0,홈플러스맞은편 던킨도넛츠건물 2층,혜정산부인과의원,02-999-4497,,1900,0900,1900,0900,1900,0900,1900,0900,1900,0900,1500,0900,,,,,37.664942217561105,127.04235972750266
제주특별자치도 제주시 동광로 131 (일도이동),C,0,,서해산부인과의원,064-758-8866,,1800,0900,1800,0900,2000,0900,2000,0900,1800,0900,1630,0900,,,,,33.50802972718494,126.54062674163046
"경상북도 영주시 영주로 205-1, 다인산부인과 3층 (영주동)",C,0,,다인산부인과의원,054-637-6104,,1800,0900,1800,0900,1800,0900,1800,0900,1800,0900,1300,0900,,,,,36.82612368795473,128.6224045347358
"경상북도 구미시 신시로 59, 6층 (형곡동, 우인빌딩)",C,0,,장태기드림산부인과의원,054-457-6699,,1930,0930,1800,0930,1800,0930,1300,0930,1930,0930,1500,0930,,,,,36.11323722154478,128.33881200599467
경상북도 구미시 인동27길 2,C,0,,파티마산부인과의원,054-475-7800,,1830,0900,1830,0900,1830,0900,1830,0900,1830,0900,1600,0900,,,1500,0900,36.096204070866825,128.43012802778458
"경상북도 구미시 구미중앙로 121, (원평동)",C,0,,한일산부인과의원,054-453-7322,,1830,0930,1830,0930,1830,0930,1830,0930,1830,0930,1300,0930,,,,,36.12728177614003,128.3355559853055
경상북도 구미시 신시로 74 (형곡동),C,0,,해피맘산부인과의원,054-458-0119,,1830,0930,1830,0930,1830,0930,1830,0930,1830,0930,1630,0930,,,1300,0930,36.1144174143,128.339645006
경상북도 구미시 구미대로26길 4 (신평동),C,0,,홍희선 산부인과의원,054-463-2212,,2000,0900,1800,0900,1800,0900,1800,0900,2000,0900,1300,0900,,,,,36.11553221895377,128.36351564287094
경상북도 경주시 원화로 393  (황성동),C,0,,신라산부인과의원,054-744-9393,,1800,0930,1800,0930,1800,0930,1800,0930,1800,0930,1300,0930,,,1200,0930,35.85572793460407,129.2186867459239
"경기도 안산시 단원구 원포공원2로 35, 4층 405호,6층601~603호 (초지동, 메가쇼핑타운1)",C,0,메가쇼핑타운1 6층 601호~603호,맘편한산부인과의원,031-475-3582,,1830,0930,1830,0930,1830,0930,1830,0930,1830,0930,1530,0900,,,,,37.3017498341,126.8135186593
경상북도 경주시 안강읍 비화원로 85-1,C,0,,안강산부인과의원,054-761-6057,,2000,0900,2000,0900,2000,0900,2000,0900,2000,0900,1500,0900,,,1300,0900,35.9907599422,129.2230648378
대구광역시 달성군 현풍읍 테크노대로 61,C,0,,현풍미즈맘산부인과의원,053-210-8000,,1800,0900,1800,0900,1800,0900,1800,0900,1800,0900,1600,0900,,,1300,0900,35.6895581743,128.4536903359
"경상북도 구미시 구미중앙로 149, 4,5층 (원평동)",C,0,,미리안산부인과의원,054-441-2277,,2000,0900,2000,0900,2000,0900,2000,0900,2000,0900,1400,0900,,,1300,0900,36.12303113884012,128.34650015816223
경상북도 구미시 야은로 765,C,0,신평시장 맞은편/,박정돈산부인과의원,054-465-2225,,1830,0930,1830,0930,1830,0930,1830,0930,1830,0930,1300,0930,,,,,36.12377966537733,128.36286896547568
경상북도 구미시 송원동로 59,C,0,,박종근산부인과의원,054-455-5070,,1800,0930,1800,0930,1800,0930,1800,0930,1800,0930,1300,0930,,,,,36.12218768993315,128.35033491243914
전라북도 군산시 대학로 361 (나운동),C,0,극동사거리에서 군산대방향으로 50m 왼쪽편,하늘산부인과의원,063-461-1616,,1830,0900,1830,0900,1830,0900,1830,0900,1830,0900,1230,0900,,,1230,0900,35.961692985471004,126.6927280235409
경상북도 경주시 화랑로 114-1,C,0,,정선영산부인과의원,054-775-1717,,1830,0930,1830,0930,1830,0930,1830,0930,1830,0930,1300,0930,,,,,35.84433408388697,129.21327441564674
"경상북도 경주시 원화로 261, 2층 (황오동)",C,0,2층임,중앙산부인과의원,054-749-6051,,1830,0900,1830,0900,1830,0900,1830,0900,1830,0900,1230,0900,,,,,35.8438153693,129.2168523315
"경상북도 경주시 화랑로 115, (동부동)",C,0,,친절산부인과의원,054-742-3883,,1800,0930,1800,0930,1800,0930,1800,0930,1800,0930,1400,0930,,,,,35.84477275546595,129.21360105649398
충청남도 서천군 서천읍 서천로 96,C,0,군청가는길 ,미래산부인과의원,041-951-8900,,1730,0900,1730,0900,1730,0900,1730,0900,1730,0900,1230,0900,,,,,36.07785156775976,126.68934821295926
경상북도 구미시 송원서로 94 (원평동),C,0,,새봄산부인과의원,054-457-2300,,1900,0930,1900,0930,1900,0930,1900,0930,1900,0930,1500,0930,1300,0930,1300,0930,36.12564379503634,128.3446181063407
경상북도 구미시 구미중앙로 96,C,0,,순향산부인과의원,054-455-7575,,1800,0900,1800,0900,1900,0900,1800,0900,1800,0900,1400,0900,,,,,36.1280624866208,128.3329915520335
경상북도 구미시 구미대로 220  (광평동),C,0,구미이마트~홈플러스 중간,쉬즈산부인과의원,054-461-7979,,2000,0900,2000,0900,2000,0900,2000,0900,2000,0900,1500,0900,,,1300,1000,36.106415651383706,128.36359089887327
경상북도 구미시 이계북로 141 (진평동),C,0,,에바마레산부인과의원,054-475-4500,,2000,0900,2000,0900,2000,0900,2000,0900,2000,0900,1600,0900,,,1300,0900,36.10592765225693,128.41810226951986
경상북도 구미시 인동가산로 31,C,0,,엘르산부인과의원,054-476-7575,,1900,0930,1900,0930,1900,0930,1900,0930,1900,0930,1300,0930,,,,,36.10646563426448,128.41985315776432
"경상북도 구미시 인동북길 105, (인의동)",C,0,,우리산부인과의원,054-472-1004,,1900,0930,1900,0930,1900,0930,1900,0930,1900,0930,1300,0930,,,,,36.09804308355143,128.4278568197687
경상북도 구미시 산호대로29길 20-7 3층,C,0,,우종진산부인과의원,054-441-6600,,1900,0930,2000,0930,1900,0930,2000,0930,1900,0930,1400,0930,,,,,36.1381728195,128.4208360642
경상북도 구미시 신시로14길 4 (송정동),C,0,차병원 근처/,임영미산부인과의원,054-452-5533,,1830,0930,1830,0930,1830,0930,1830,1400,1830,0930,1300,0930,,,,,36.115376068244736,128.33955855889488
"제주특별자치도 서귀포시 월드컵로 8 (강정동, 홍은프라자 304호)",C,0,,현혜선산부인과의원,064-739-0003,,1930,0930,1700,0930,1800,0930,1930,0930,1230,0900,1400,0900,,,,,33.2489998278,126.5073177729
서울특별시 은평구 서오릉로 81 (역촌동),C,0,"역촌역 2출구와 구산역사이, 은평동물병원 건너편",아이제일산부인과의원,02-355-8113,,2000,0900,2000,0900,2000,0900,2000,0900,2000,0900,1600,0900,,,1300,0900,37.60744742845299,126.92152538203481
"서울특별시 서초구 방배로 127, 3,4,5층(방배동)",C,0,,현산부인과의원,02-584-3800,,1800,0900,1800,0900,1800,0900,1800,0900,1800,0900,1300,0900,,,,,37.48525829700001,126.9948622175
"서울특별시 서초구 강남대로 359, 301호 (서초동, 대우도씨에빛2)",C,0,강남역 5번 출구 인근,조은연세산부인과의원,02-501-7307,,2000,1000,1900,1000,1900,1000,2000,1000,1900,1000,1600,1000,,,,,37.4947984176,127.0286096894
"서울특별시 서초구 서초대로 304, 5층 (서초동)",C,0,,지앤산부인과의원,02-584-2888,,2000,1000,1900,1000,2000,1000,1900,1000,2000,1000,1400,1000,,,,,37.49379541327724,127.01494016462526
"서울특별시 은평구 연서로 137, 4층 (구산동)",C,0,,은산부인과의원,02-359-7175,,1830,0930,1830,0930,1830,0930,1830,0930,1830,0930,1500,1000,,,,,37.61118465007093,126.9169096948225
서울특별시 서초구 서초중앙로 239,C,0,"삼호가든사거리 반포그린빌딩 5층

",통일산부인과의원,02-532-9410,,1900,1000,1900,1000,1900,1000,1900,1000,1900,1000,1500,1000,,,,,37.50299487617062,127.01100786616726
"서울특별시 은평구 진흥로 133, D동 지하2,1지상2,3층 (대조동)",C,0,역촌역과 불광역 사이 현대 블루핸즈 녹번점 맞은편,은혜산부인과의원,02-353-4307,,1800,0900,1800,0900,1800,0900,1800,0900,1800,0900,1600,0900,,,,,37.6081812211,126.9248859449
서울특별시 은평구 통일로 741-1,C,0,(4층),이길완산부인과의원,02-382-3210,,1800,0930,1800,0930,1800,0930,1800,0930,1800,0930,1300,0930,,,,,37.61142671978865,126.9286202132857
